     2.10           OBSERVATION DATA    G (GPS)             RINEX VERSION / TYPE
teqc  2002Dec5      gpsops              20031031 00:06:23UTCPGM / RUN BY / DATE
    30.0000                                                 INTERVAL
     1     1                                                WAVELENGTH FACT L1/2
     7    L1    L2    P1    P2    C1    S1    S2            # / TYPES OF OBSERV
Linux 2.0.36|Pentium II|gcc -static|Linux|486/DX+           COMMENT
soc2rnx ver 1.14    gpsops              31-Oct-2003 00:06:20COMMENT
S1, if present, is the SNR for the C/A data stream on L1.   COMMENT
 SNR is mapped to RINEX snr flag value [1,4-9]              COMMENT
    SNR:   >316  >100  >31.6  >10  >3.2    >0 bad=0         COMMENT
L1 & L2:      9     8     7     6     5     4     1         COMMENT
                                                            COMMENT
This data is provided as a public service by NASA/JPL.      COMMENT
No warranty is expressed or implied regarding suitability   COMMENT
for use.  For further information, contact:                 COMMENT
Dave Stowers, NASA/JPL m/s 238-600                          COMMENT
4800 Oak Grove Drive, Pasadena CA 91109 USA                 COMMENT
                                                            COMMENT
  2003    10    30     0     0    0.0000000     GPS         TIME OF FIRST OBS
GGN                 USNO                                    OBSERVER / AGENCY
KW-5-0001           AOAD/M_T        NONE                    ANT # / TYPE
 -1248596.2410 -4819429.5890  3976506.9870                  APPROX POSITION XYZ
        0.0000        0.0000        0.0000                  ANTENNA: DELTA H/E/N
RT920013101         ASHTECH Z-XII3T     IL01-1D04-MCF-12MX  REC # / TYPE / VERS
AMC2                                                        MARKER NAME
40472S004                                                   MARKER NUMBER
                                                            END OF HEADER
 03 10 30  0  0  0.0000000  0  8G 9G11G29G28G26G 4G 7G 8
 121139546.70048  94394463.81748  23052073.4824   23052074.4394   23052074.1134
       220.000         161.000
 125666056.36548  97921592.06648  23913464.7494   23913463.9044   23913464.3574
       217.000         155.000
 127835568.86348  99611932.81448  24326452.2344   24326493.4624   24326452.7074
       216.000         152.000
 109580855.90048  85387684.06248  20852540.7694   20852538.9114   20852541.2904
       242.000         203.000
 126619519.18148  98664470.79248  24094962.4304   24094986.2354   24094961.8604
       220.000         152.000
 118444796.87348  92294629.47148  22539308.2054   22539311.7784   22539308.3924
       224.000         170.000
 107319410.10748  83625513.00648  20422205.3954   20422205.2904   20422206.2344
       245.000         213.000
 119083050.32748  92791972.81248  22660761.5684   22660765.7224   22660762.1904
       221.000         167.000
 03 10 30  0  0 30.0000000  0  8G 9G11G29G28G26G 4G 7G 8
 121054491.20248  94328186.93148  23035888.5464   23035889.0184   23035888.8594
       220.000         160.000
 125751509.48548  97988178.58748  23929725.4514   23929724.9054   23929725.7454
       217.000         155.000
 127910679.62248  99670459.68048  24340746.5894   24340788.5044   24340746.4704
       215.000         150.000
 109606865.51748  85407951.32648  20857490.1874   20857488.4574   20857490.7164
       242.000         203.000
 136689372.24958  88718893.17158  24108259.9125   24108283.4965   24108260.1945
       215.000         154.000
 118341736.51248  92214323.13648  22519696.5854   22519699.5884   22519696.4594
       224.000         169.000
 107324603.95248  83629560.21148  20423193.8144   20423193.7764   20423194.5074
       245.000         213.000
 119192871.20548  92877547.12848  22681660.2054   22681664.3904   22681660.8164
       221.000         165.000
 03 10 30  0  1  0.0000000  0  8G 9G11G29G28G26G 4G 7G 8
 120969808.44748  94262200.38348  23019774.1024   23019774.2054   23019774.0504
       219.000         160.000
 125837273.23648  98055007.44948  23946045.4074   23946045.6184   23946045.7054
       216.000         153.000
 127985929.69648  99729095.04948  24355066.3334   24355109.5654   24355066.7824
       214.000         151.000
 109633167.51148  85428446.40648  20862495.2544   20862493.6144   20862495.7134
       242.000         203.000
 116759498.69758 108773532.66858  24121607.4235   24121632.3745   24121608.2685
       216.000         153.000
 118238929.11548  92134213.80948  22500132.4334   22500135.5334   22500132.4194
       225.000         169.000
 107330100.63848  83633843.39348  20424239.7394   20424239.8714   20424240.3814
       245.000         213.000
 119302927.27348  92963304.85648  22702603.0224   22702607.6274   22702603.7574
       220.000         165.000
 03 10 30  0  1 30.0000000  0  8G 9G11G29G28G26G 4G 7G 8
 120885501.32048  94196506.53948  23003730.8054   23003731.2154   23003731.2184
       219.000         162.000
 125923344.77648  98122076.21248  23962424.2874   23962424.4924   23962424.2544
       216.000         152.000
 128061316.05048  99787836.59148  24369412.8954   24369456.1984   24369412.9444
       214.000         148.000
 109659762.31748  85449169.64548  20867556.0024   20867554.4824   20867556.5164
       241.000         203.000
 116829902.44448 108828392.07648  24135005.7634   24135030.1634   24135005.7164
       212.000         152.000
 118136377.87048  92054303.99548  22480617.3924   22480620.7124   22480617.1404
       223.000         170.000
 107335899.30148  83638361.90548  20425343.0874   20425343.3344   20425343.8244
       245.000         213.000
 119413215.51048  93049243.41948  22723590.5104   22723594.7904   22723591.1134
       221.000         166.000
 03 10 30  0  2  0.0000000  0  8G 9G11G29G28G26G 4G 7G 8
 120801572.61148  94131107.61948  22987759.7094   22987759.9414   22987759.8924
       218.000         162.000
 126009721.69348  98189382.89948  23978860.8654   23978861.0854   23978861.5764
       216.000         150.000
 128136835.50248  99846681.83848  24383784.1884   24383828.1494   24383784.9184
       210.000         147.000
 109686650.12148  85470121.17448  20872672.4084   20872670.9744   20872672.9514
       241.000         202.000
 136900613.46058  88883502.86758  24148453.4735   24148477.0025   24148452.6015
       217.000         153.000
 118034086.00348  91974596.34348  22461151.7154   22461154.8084   22461151.3304
       223.000         168.000
 107341998.72648  83643114.71648  20426503.8214   20426503.9634   20426504.4454
       245.000         213.000
 119523733.04648  93135360.49948  22744621.5554   22744626.2144   22744622.3414
       220.000         165.000
 03 10 30  0  2 30.0000000  0  7G 9G11G29G28G 4G 7G 8
 120718024.59948  94066005.22448  22971861.0964   22971861.6744   22971861.0744
       218.000         164.000
 126096399.91648  98256923.74848  23995355.5134   23995356.1574   23995356.2404
       215.000         150.000
 128212485.03848  99905628.46148  24398181.0024   24398224.7234   24398181.3494
       207.000         146.000
 109713831.84448  85491301.71048  20877845.0114   20877843.3984   20877845.4784
       241.000         202.000
 117932056.73348  91895093.39648  22441735.6574   22441739.0544   22441735.5224
       225.000         171.000
 107348397.91648  83648101.14248  20427721.5934   20427721.5794   20427722.2924
       245.000         213.000
 119634477.71848  93221654.53948  22765696.2464   22765701.0144   22765696.7834
       221.000         165.000
 03 10 30  0  3  0.0000000  0  8G 9G11G29G28G26G 4G 7G 8
 120634860.21448  94001201.80648  22956035.3174   22956035.9804   22956035.6084
       219.000         165.000
 126183378.74948  98324698.82248  24011907.7964   24011907.7554   24011908.2104
       216.000         149.000
 128288261.76148  99964674.21148  24412601.7694   24412645.8044   24412602.2364
       208.000         143.000
 109741307.78448  85512711.53348  20883073.5144   20883071.8404   20883074.0484
       241.000         202.000
 117042708.87058 108994229.10058  24175491.4205   24175515.1745   24175491.3405
       216.000         151.000
 117830292.41448  91815796.77048  22422370.4134   22422373.8044   22422370.5094
       225.000         172.000
 107355096.02548  83653320.50048  20428996.2204   20428996.0864   20428996.9594
       245.000         213.000
 119745446.68548  93308123.26348  22786813.1404   22786818.4424   22786813.8134
       219.000         165.000
 03 10 30  0  3 30.0000000  0  8G 9G11G29G28G26G 4G 7G 8
 120552081.80548  93936699.08548  22940283.1294   22940283.7724   22940283.3424
       220.000         166.000
 126270657.03048  98392707.98148  24028516.7724   24028516.7844   24028517.0054
       216.000         147.000
 128364162.37248 100023816.49848  24427045.7444   24427089.7514   24427045.9854
       205.000         141.000
 109769078.48748  85534350.96848  20888358.1484   20888356.6644   20888358.5474
       241.000         202.000
 117114124.09648 109049876.67048  24189081.4314   24189106.3164   24189081.1374
       216.000         151.000
 117728796.19648  91736709.01748  22403056.5944   22403059.3804   22403056.6654
       226.000         172.000
 107362091.71148  83658771.63048  20430327.4264   20430327.3644   20430328.1674
       245.000         213.000
 119856637.42148  93394764.79448  22807972.6504   22807977.8184   22807973.2584
       219.000         164.000
 03 10 30  0  4  0.0000000  0  8G 9G11G29G28G26G 4G 7G 8
 120469692.22348  93872499.40648  22924604.7064   22924605.5524   22924605.1284
       219.000         165.000
 126358229.72248  98460946.05448  24045181.5054   24045180.5364   24045181.5454
       215.000         144.000
 128440183.94448 100083053.01248  24441512.9654   24441557.3404   24441512.9584
       205.000         141.000
 109797144.49448  85556220.56248  20893698.9244   20893697.4784   20893699.4574
       241.000         202.000
 117185784.25148 109105715.00248  24202718.6144   24202743.6174   24202718.1044
       216.000         149.000
 117627571.12048  91657832.49348  22383793.6224   22383796.7654   22383793.7994
       227.000         173.000
 107369384.28848  83664454.12148  20431715.1804   20431715.1924   20431715.9274
       245.000         214.000
 119968047.92348  93481577.72648  22829174.0364   22829178.7524   22829174.4474
       220.000         162.000
 03 10 30  0  4 30.0000000  0  8G 9G11G29G28G26G 4G 7G 8
 120387693.97448  93808604.66848  22909001.0564   22909001.8774   22909001.2764
       220.000         165.000
 126446095.95948  98529413.05948  24061901.4074   24061900.3144   24061902.1524
       214.000         143.000
 128516323.75248 100142381.65748  24456002.5204   24456047.6334   24456002.6324
       202.000         142.000
 109825506.20948  85578320.54148  20899095.9454   20899094.4944   20899096.4744
       241.000         202.000
 117257686.66148 109161742.07948  24216402.4144   24216426.1564   24216402.0074
       213.000         151.000
 117526619.96148  91579169.40248  22364582.8764   22364586.4254   22364582.8684
       226.000         170.000
 107376972.97448  83670367.47848  20433159.2104   20433159.2084   20433159.9544
       245.000         214.000
 120079674.84048  93568559.20348  22850415.8864   22850421.3334   22850416.5454
       218.000         160.000
 03 10 30  0  5  0.0000000  0  8G 9G11G29G28G26G 4G 7G 8
 120306089.66948  93745016.86548  22893472.0884   22893473.1944   22893472.2724
       220.000         166.000
 126534252.58748  98598106.23448  24078677.2304   24078678.1694   24078677.7934
       212.000         139.000
 128592578.56148 100201799.90448  24470513.7854   24470559.8624   24470514.4444
       202.000         140.000
 109854164.31948  85600651.60248  20904549.5184   20904547.8734   20904549.9604
       241.000         202.000
 117329828.24948 109217955.53948  24230130.7034   24230155.2264   24230130.5704
       214.000         149.000
 117425945.76048  91500722.00148  22345425.3104   22345428.4334   22345425.2184
       227.000         174.000
 107384856.38148  83676510.48848  20434659.1664   20434659.3034   20434659.9094
       245.000         214.000
 120191515.64548  93655707.24448  22871698.9284   22871704.4584   22871699.5484
       216.000         160.000
 03 10 30  0  5 30.0000000  0  8G 9G11G29G28G26G 4G 7G 8
 120224882.02648  93681738.19348  22878019.3004   22878019.9054   22878019.3924
       221.000         165.000
 126622697.93648  98667024.67248  24095507.6164   24095506.2504   24095508.1834
       210.000         139.000
 128668945.22448 100261305.31948  24485046.8724   24485092.1694   24485047.0974
       202.000         140.000
 109883119.25748  85623213.90248  20910059.5584   20910057.6964   20910060.0744
       242.000         201.000
 117402205.78948 109274352.72148  24243904.0774   24243929.9064   24243903.8534
       214.000         149.000
 117325551.58348  91422492.82248  22326320.9914   22326323.8414   22326320.7924
       227.000         173.000
 107393033.31548  83682882.11848  20436215.2164   20436215.3564   20436215.8364
       245.000         214.000
 120303568.13648  93743020.32648  22893022.3864   22893028.1094   22893022.7174
       218.000         162.000
 03 10 30  0  6  0.0000000  0  8G 9G11G29G28G26G 4G 7G 8
 120144073.65148  93618770.70648  22862641.7644   22862642.2614   22862642.3484
       220.000         165.000
 126711428.46648  98736164.79548  24112393.3514   24112394.0824   24112393.5274
       209.000         138.000
 128745421.06148 100320895.83248  24499600.9664   24499647.1224   24499601.0444
       201.000         140.000
 109912371.55448  85646007.93448  20915625.9424   20915624.1974   20915626.4774
       240.000         201.000
 117474816.69848 109330931.82648  24257722.8084   24257747.4844   24257722.0854
       217.000         149.000
 117225440.42048  91344484.21548  22307270.3584   22307273.1674   22307270.2404
       227.000         174.000
 107401503.04448  83689481.88748  20437827.1064   20437827.1434   20437827.8124
       245.000         214.000
 120415829.78048  93830496.46948  22914385.2844   22914390.8674   22914385.9354
       217.000         161.000
 03 10 30  0  6 30.0000000  0  8G 9G11G29G28G26G 4G 7G 8
 120063667.20648  93556116.33048  22847340.9934   22847341.2814   22847341.3264
       219.000         164.000
 126800443.02748  98805526.93248  24129332.5574   24129331.6254   24129332.5784
       212.000         139.000
 128822002.67348 100380568.76148  24514174.5034   24514221.3314   24514175.0074
       201.000         139.000
 109941921.56848  85669033.97048  20921248.9324   20921247.5154   20921249.3084
       241.000         202.000
 117547657.59948 109387690.15848  24271584.4924   24271609.6014   24271583.5984
       213.000         147.000
 117125615.18748  91266698.42348  22288274.1964   22288276.9954   22288274.0334
       227.000         175.000
 107410264.45748  83696308.93948  20439494.4114   20439494.3894   20439495.1284
       245.000         214.000
 120528297.70248  93918133.39948  22935787.3354   22935793.1984   22935788.2994
       216.000         161.000
 03 10 30  0  7  0.0000000  0  8G 9G11G29G28G26G 4G 7G 8
 119983665.36548  93493777.31248  22832116.8484   22832117.5314   22832117.0014
       219.000         164.000
 126889737.37948  98875106.26148  24146325.0094   24146325.8604   24146325.2564
       214.000         142.000
 128898687.07748 100440321.81848  24528767.9164   24528813.4094   24528767.3794
       200.000         137.000
 109971769.68048  85692292.30948  20926928.8694   20926927.4344   20926929.4134
       241.000         202.000
 117620725.49248 109444625.40248  24285489.0654   24285514.5204   24285488.6854
       207.000         142.000
 117026078.68948  91189137.52748  22269333.0914   22269335.7894   22269333.0834
       229.000         175.000
 107419316.53448  83703362.48348  20441216.9414   20441216.9504   20441217.5864
       245.000         213.000
 120640968.90448  94005928.56248  22957228.4264   22957234.5564   22957229.1114
       218.000         161.000
 03 10 30  0  7 30.0000000  0  8G 9G11G29G28G26G 4G 7G 8
 119904070.58948  93431755.51548  22816970.2554   22816970.6564   22816970.2994
       217.000         164.000
 126979310.46848  98944903.14248  24163370.4494   24163370.4244   24163370.6924
       216.000         146.000
 128975471.63848 100500152.93648  24543379.1394   24543426.4424   24543379.0754
       199.000         135.000
 110001916.06548  85715782.96748  20932665.5244   20932664.2394   20932666.0304
       240.000         202.000
 117694017.22648 109501734.99148  24299436.1654   24299462.5064   24299436.4154
       206.000         143.000
 116926834.04648  91111804.01448  22250447.6644   22250450.1794   22250447.7124
       228.000         176.000
 107428658.32348  83710641.79848  20442994.5034   20442994.7024   20442995.3104
       244.000         213.000
 120753841.06148  94093880.34648  22978707.9234   22978713.9824   22978708.6054
       217.000         162.000
 03 10 30  0  8  0.0000000  0  8G 9G11G29G28G26G 4G 7G 8
 119824885.38748  93370052.81748  22801901.7464   22801902.2604   22801901.9214
       220.000         164.000
 127069160.21248  99014915.84248  24180468.7784   24180468.9694   24180468.7364
       216.000         148.000
 129052352.90248 100560059.38648  24558010.7974   24558057.7764   24558010.9394
       199.000         135.000
 110032361.63948  85739506.78948  20938459.2844   20938457.9104   20938459.7334
       241.000         202.000
 117767530.09448 109559016.94648  24313426.1384   24313452.5604   24313426.0504
       208.000         144.000
 116827884.40048  91034700.50348  22231617.8574   22231620.8994   22231617.8094
       229.000         177.000
 107438288.76248  83718146.06848  20444827.0224   20444827.2914   20444827.7084
       245.000         213.000
 120866911.87848  94181986.95548  23000225.0544   23000231.1064   23000225.8034
       219.000         165.000
 03 10 30  0  8 30.0000000  0  8G 9G11G29G28G26G 4G 7G 8
 119746112.46048  93308671.46948  22786911.8204   22786912.4504   22786911.9874
       221.000         165.000
 127159284.59048  99085143.24748  24197618.0034   24197618.1844   24197618.9214
       219.000         152.000
 129129328.28248 100620039.18848  24572659.2944   24572706.1394   24572659.9314
       201.000         136.000
 110063106.91648  85763464.11248  20944310.0284   20944308.4344   20944310.4474
       241.000         202.000
 117841260.66348 109616468.50048  24327456.8454   24327484.1614   24327457.0404
       202.000         143.000
 116729232.28048  90957828.75348  22212845.0464   22212848.0034   22212845.0584
       227.000         178.000
 107448206.78948  83725874.39648  20446714.3214   20446714.5264   20446715.0054
       244.000         213.000
 120980178.82648  94270246.67448  23021779.1484   23021785.6204   23021779.7094
       219.000         164.000
 03 10 30  0  9  0.0000000  0  8G 9G11G29G28G26G 4G 7G 8
 119667754.19248  93247613.19848  22772000.5884   22772001.0374   22772000.9424
       221.000         166.000
 127249679.80148  99155581.72048  24214819.9284   24214819.6874   24214820.0874
       221.000         154.000
 129206394.61748 100680089.85848  24587325.6604   24587373.6424   24587325.0954
       203.000         136.000
 110094152.19248  85787655.25548  20950217.5584   20950216.1154   20950218.0264
       240.000         201.000
 117915205.95148 109674087.36748  24341529.1934   24341556.4774   24341528.7784
       208.000         144.000
 116630880.40548  90881190.80848  22194129.2754   22194132.6624   22194129.2264
       228.000         178.000
 107458411.52048  83733826.19848  20448656.1584   20448656.2864   20448656.8774
       244.000         213.000
 121093638.93348  94358656.84148  23043370.1614   23043376.7674   23043370.5384
       218.000         164.000
 03 10 30  0  9 30.0000000  0  8G 9G11G29G28G26G 4G 7G 8
 119589813.05348  93186879.86248  22757169.1184   22757169.3384   22757169.2544
       222.000         166.000
 127340343.04248  99226228.54948  24232072.7814   24232072.8224   24232072.6504
       221.000         154.000
 129283548.19048 100740208.54348  24602008.2914   24602055.0604   24602008.2124
       207.000         137.000
 110125498.07548  85812080.68248  20956182.4324   20956181.0844   20956182.9574
       240.000         201.000
 117989362.95848 109731871.23148  24355640.5254   24355668.1134   24355641.1284
       208.000         142.000
 116532832.57748  90804790.07448  22175471.2414   22175474.6044   22175471.0974
       229.000         178.000
 107468901.66648  83742000.35848  20450652.4234   20450652.5034   20450653.1404
       244.000         213.000
 121207289.34548  94447215.26848  23064997.2554   23065003.8424   23064997.8504
       220.000         164.000
 03 10 30  0 10  0.0000000  0  8G 9G11G29G28G26G 4G 7G 8
 119512291.96048  93126473.93848  22742417.4904   22742417.8644   22742417.6204
       223.000         167.000
 127431272.57848  99297082.86748  24249375.5114   24249375.1394   24249375.8684
       220.000         156.000
 129360786.63348 100800393.32948  24616707.6874   24616754.0384   24616707.6264
       210.000         136.000
 110157144.77548  85836740.48848  20962204.6104   20962203.2544   20962205.2294
       240.000         201.000
 118063728.75248 109789817.78548  24369793.9004   24369820.2904   24369793.5034
       206.000         142.000
 116435091.20748  90728628.11348  22156871.5104   22156874.8134   22156871.3924
       229.000         178.000
 107479676.29348  83750396.15548  20452702.7524   20452702.9394   20452703.5274
       244.000         213.000
 121321127.38048  94535919.76848  23086660.4734   23086667.0674   23086661.2164
       218.000         163.000
 03 10 30  0 10 30.0000000  0  8G 9G11G29G28G26G 4G 7G 8
 119435192.97448  93066396.85748  22727746.0264   22727746.2574   22727746.3744
       223.000         167.000
 127522465.43348  99368142.23848  24266728.6074   24266728.8594   24266729.0364
       220.000         156.000
 129438107.19648 100860642.11848  24631421.9454   24631467.9474   24631421.7804
       207.000         134.000
 110189092.92648  85861635.16848  20968283.9854   20968282.6234   20968284.4064
       239.000         200.000
 118138300.13448 109847924.57748  24383984.3074   24384011.3804   24383984.5234
       207.000         142.000
 116337659.45648  90652707.46248  22138330.9014   22138333.8944   22138330.8024
       230.000         179.000
 107490734.47448  83759012.91448  20454807.0084   20454807.2824   20454807.6544
       244.000         213.000
 121435150.80348  94624768.81148  23108358.9114   23108365.2844   23108359.6024
       220.000         162.000
 03 10 30  0 11  0.0000000  0  8G 9G11G29G28G26G 4G 7G 8
 119358518.82548  93006650.82348  22713155.3744   22713155.5064   22713155.9354
       223.000         168.000
 127613919.37548  99439405.02348  24284131.7254   24284132.1304   24284131.9714
       218.000         153.000
 129515505.96448 100920951.84548  24646149.4224   24646197.8604   24646150.3914
       207.000         132.000
 110221342.87248  85886765.04348  20974420.8434   20974419.4204   20974421.2374
       239.000         200.000
 118213074.02848 109906189.13448  24398214.3534   24398241.7864   24398214.0884
       208.000         142.000
 116240539.53248  90577029.68448  22119849.6414   22119852.4574   22119849.7594
       230.000         178.000
 107502075.03548  83767849.72148  20456965.0414   20456965.2204   20456965.7094
       245.000         212.000
 121549357.04548  94713760.35148  23130092.3564   23130098.1874   23130093.0464
       220.000         162.000
 03 10 30  0 11 30.0000000  0  8G 9G11G29G28G26G 4G 7G 8
 119282272.04748  92947237.80848  22698645.8384   22698646.5464   22698646.2704
       222.000         168.000
 127705631.90048  99510869.15348  24301583.8334   24301584.2684   24301584.2024
       216.000         154.000
 129592981.03348 100981321.02548  24660893.9674   24660942.7454   24660894.0744
       206.000         134.000
 110253895.16848  85912130.48048  20980615.4374   20980613.8844   20980615.9134
       240.000         200.000
 118288047.69848 109964609.37448  24412482.0034   24412509.5754   24412481.8864
       210.000         143.000
 116143734.74748  90501597.40048  22101428.3564   22101431.0554   22101428.3004
       229.000         179.000
 107513697.15348  83776905.99748  20459176.6624   20459176.6544   20459177.3804
       244.000         212.000
 121663743.19348  94802891.93448  23151859.4634   23151865.5754   23151860.2624
       222.000         162.000
 03 10 30  0 12  0.0000000  0  8G 9G11G29G28G26G 4G 7G 8
 119206454.97548  92888159.50548  22684217.9694   22684218.7944   22684218.2994
       222.000         168.000
 127797601.77048  99582534.33148  24319084.8694   24319085.2524   24319085.3864
       215.000         149.000
 129670528.88648 101041746.90948  24675652.4974   24675700.5434   24675651.4994
       206.000         134.000
 110286750.11448  85937731.74948  20986867.5154   20986865.9794   20986868.0104
       240.000         200.000
 118363217.49948 110023182.43248  24426785.0824   24426814.5474   24426785.9854
       207.000         142.000
 116047248.03048  90426412.97848  22083067.4834   22083070.3614   22083067.3934
       230.000         180.000
 107525599.63548  83786180.69048  20461441.6714   20461441.6084   20461442.3074
       245.000         213.000
 121778306.43748  94892161.45048  23173660.5544   23173666.6364   23173661.4514
       221.000         162.000
 03 10 30  0 12 30.0000000  0  8G 9G11G29G28G26G 4G 7G 8
 119131070.49848  92829418.44748  22669872.6844   22669873.3114   22669872.7994
       222.000         168.000
 127889824.62448  99654396.19848  24336634.4914   24336635.0414   24336634.8124
       214.000         146.000
 129748145.99248 101102226.70148  24690423.2214   24690471.5954   24690422.1894
       208.000         136.000
 110319908.02248  85963569.07448  20993177.3034   20993175.7124   20993177.8044
       241.000         200.000
 118438580.75148 110081906.29848  24441128.4664   24441156.0424   24441127.1934
       207.000         142.000
 115951082.18748  90351478.57648  22064767.6794   22064770.6894   22064767.5604
       230.000         180.000
 107537781.31348  83795672.91248  20463759.8524   20463759.7564   20463760.5474
       245.000         213.000
 121893044.36848  94981567.10448  23195495.1864   23195501.2654   23195496.0104
       221.000         160.000
 03 10 30  0 13  0.0000000  0  9G 9G11G29G20G28G26G 4G 7G 8
 119056120.98548  92771016.31948  22655609.8934   22655611.0144   22655610.2924
       223.000         167.000
 127982298.84048  99726454.10548  24354231.7874   24354232.0394   24354232.2354
       211.000         143.000
 129825830.29248 101162758.84648  24705205.3514   24705255.5444   24705206.3884
       211.000         139.000
 141523583.10458  92485918.89958  25028098.0735   25028098.5875   25028099.8755
       206.000         132.000
 110353369.35448  85989642.80348  20999545.0384   20999543.2384   20999545.5994
       241.000         201.000
 118514134.22148 110140778.31848  24455505.3444   24455535.3604   24455505.7954
       209.000         142.000
 115855240.05648  90276796.31848  22046529.3454   22046532.5714   22046529.3044
       231.000         181.000
 107550241.30148  83805381.99648  20466130.9284   20466130.8584   20466131.6554
       245.000         213.000
 122007954.46148  95071107.02048  23217361.8864   23217368.0364   23217362.4584
       220.000         159.000
 03 10 30  0 13 30.0000000  0  9G 9G11G29G20G28G26G 4G 7G 8
 118981608.99648  92712955.08248  22641430.8814   22641431.5954   22641430.8854
       222.000         167.000
 128075022.00748  99798705.98048  24371876.8244   24371876.3824   24371876.6874
       209.000         140.000
 129903578.45848 101223340.72548  24720002.8174   24720052.5464   24720002.9854
       212.000         143.000
 141472784.03848  92446334.92448  25018431.5724   25018433.9024   25018433.1244
       206.000         133.000
 110387134.82648  86015953.57848  21005970.2274   21005968.6354   21005970.7234
       241.000         200.000
 118589874.77148 110199796.08048  24469919.1324   24469947.7534   24469919.4864
       215.000         142.000
 115759724.93748  90202368.98748  22028353.4254   22028356.6594   22028353.2794
       231.000         182.000
 107562978.81648  83815307.43248  20468554.5884   20468554.5384   20468555.3174
       245.000         212.000
 122123033.97548  95160778.95948  23239260.6404   23239267.6524   23239261.3604
       219.000         159.000
 03 10 30  0 14  0.0000000  0  9G 9G11G29G20G28G26G 4G 7G 8
 118907537.12248  92655236.82348  22627335.4224   22627336.3074   22627335.7284
       223.000         169.000
 128167991.51548  99871149.55948  24389567.5754   24389568.1214   24389568.5844
       204.000         134.000
 129981386.82948 101283969.49748  24734810.4234   24734860.4914   24734810.6624
       211.000         142.000
 141422318.28148  92407010.57048  25008828.0874   25008828.9684   25008827.3994
       201.000         133.000
 110421204.86048  86042501.75048  21012453.3184   21012451.7594   21012453.7634
       241.000         200.000
 118665799.36748 110258957.22148  24484369.0564   24484395.9904   24484368.2454
       212.000         143.000
 115664539.31548  90128198.39048  22010240.3844   22010243.3204   22010240.4364
       233.000         183.000
 107575992.44548  83825447.96248  20471030.9084   20471030.8974   20471031.5294
       244.000         212.000
 122238280.28848  95250580.83548  23261191.2204   23261198.2034   23261192.0194
       219.000         159.000
 03 10 30  0 14 30.0000000  0  9G 9G11G29G20G28G26G 4G 7G 8
 118833907.46848  92597863.07048  22613324.6344   22613324.8484   22613324.8034
       225.000         169.000
 128261204.74548  99943783.05748  24407307.4054   24407303.7114   24407306.4374
       204.000         131.000
 130059253.24448 101344643.47848  24749628.3054   24749677.7824   24749628.4484
       208.000         141.000
 141372188.53348  92367948.09248  24999289.5654   24999288.1914   24999288.5574
       205.000         132.000
 110455579.71848  86069287.44548  21018994.6504   21018993.0334   21018995.2904
       241.000         200.000
 118741904.89748 110318259.31148  24498851.8254   24498880.5174   24498851.6484
       213.000         144.000
 115569685.99748  90054286.69948  21992190.4204   21992193.2654   21992190.4254
       231.000         183.000
 107589281.29748  83835803.01748  20473559.6604   20473559.5894   20473560.3244
       245.000         212.000
 122353690.84848  95340510.70048  23283153.3744   23283161.1104   23283153.8214
       213.000         154.000
 03 10 30  0 15  0.0000000  0  9G 9G11G29G20G28G26G 4G 7G 8
 118760722.56648  92540835.89948  22599398.1414   22599398.1744   22599398.5724
       225.000         170.000
 128354660.00948 100016605.18548  24425088.7134   24425090.0574   24425090.4494
       205.000         128.000
 130137174.80348 101405360.41548  24764456.6394   24764507.4034   24764457.1574
       207.000         139.000
 141322397.90048  92329150.11348  24989814.8334   24989814.6734   24989815.7864
       202.000         130.000
 110490259.66548  86096310.82148  21025593.8634   21025592.3854   21025594.4314
       240.000         199.000
 118818188.41448 110377700.09648  24513367.8554   24513398.1144   24513368.5394
       207.000         143.000
 115475167.90348  89980636.19648  21974204.1374   21974207.1824   21974204.0674
       233.000         183.000
 107602844.10748  83846371.42548  20476140.5894   20476140.5334   20476141.2684
       245.000         212.000
 122469263.02148  95430566.58948  23305146.1454   23305154.0364   23305146.3544
       216.000         155.000
 03 10 30  0 15 30.0000000  0  9G 9G11G29G20G28G26G 4G 7G 8
 118687985.08048  92484157.47648  22585556.6204   22585556.7304   22585556.9134
       223.000         169.000
 128448354.42448 100089613.88248  24442918.6414   24442918.7934   24442919.2134
       209.000         131.000
 130215147.67348 101466117.34048  24779295.7744   24779345.0234   24779295.7884
       204.000         136.000
 141272948.74548  92290618.25448  24980404.6324   24980404.8384   24980405.0204
       203.000         134.000
 110525245.18848  86123572.32548  21032251.3064   21032249.8664   21032251.7434
       240.000         200.000
 118894646.70848 110437277.05848  24527919.0274   24527947.7224   24527918.5084
       210.000         144.000
 115380987.93348  89907249.16148  21956282.1454   21956285.0674   21956281.9664
       233.000         183.000
 107616679.99148  83857152.64348  20478773.4814   20478773.3594   20478774.1374
       245.000         212.000
 122584994.22748  95520746.40648  23327169.2334   23327177.3554   23327169.6394
       213.000         153.000
 03 10 30  0 16  0.0000000  0  9G 9G11G29G20G28G26G 4G 7G 8
 118615697.33848  92427829.44848  22571800.5234   22571800.4464   22571800.6384
       224.000         169.000
 128542284.91848 100162806.15148  24460794.0614   24460791.8364   24460794.0624
       211.000         135.000
 130293169.88348 101526912.71348  24794143.0754   24794194.6904   24794143.1924
       199.000         133.000
 141223843.54948  92252354.33648  24971059.7994   24971062.3324   24971060.7084
       205.000         135.000
 110560536.58348  86151072.14948  21038967.0954   21038965.7074   21038967.6424
       241.000         201.000
 118971276.99348 110496988.02148  24542501.7054   24542530.9434   24542502.1914
       214.000         145.000
 115287148.74948  89834127.60948  21938425.4234   21938428.1864   21938425.2214
       233.000         183.000
 107630787.86948  83868145.73348  20481458.2114   20481457.9884   20481458.9224
       245.000         212.000
 122700881.83648  95611048.17748  23349222.1704   23349230.0844   23349222.6864
       215.000         153.000
 03 10 30  0 16 30.0000000  0  9G 9G11G29G20G28G26G 4G 7G 8
 118543861.71048  92371853.68948  22558130.5464   22558130.5334   22558130.8124
       224.000         169.000
 128636450.26448 100236181.88048  24478711.7144   24478711.4644   24478713.4204
       213.000         138.000
 130371237.93448 101587743.78448  24809000.5984   24809051.3764   24809000.7104
       204.000         134.000
 141175084.94148  92214360.58148  24961781.8504   24961782.6044   24961784.0164
       206.000         133.000
 110596134.29548  86178810.62548  21045741.2024   21045739.8134   21045741.6394
       241.000         201.000
 119048075.93348 110556830.31848  24557117.2544   24557145.9634   24557117.3574
       214.000         145.000
 115193653.28348  89761273.86848  21920633.9634   21920636.8434   21920633.8624
       233.000         183.000
 107645166.91948  83879350.19648  20484194.4234   20484194.2394   20484195.1284
       244.000         212.000
 122816922.97248  95701469.44548  23371304.3834   23371312.5904   23371304.8464
       213.000         153.000
 03 10 30  0 17  0.0000000  0  9G 9G11G29G20G28G26G 4G 7G 8
 118472480.46548  92316231.96448  22544547.1694   22544546.8864   22544547.3884
       224.000         168.000
 128730846.82848 100309737.39748  24496675.9494   24496677.1804   24496676.6004
       215.000         142.000
 130449348.83348 101648608.20148  24823864.2104   24823916.4624   24823866.2734
       203.000         135.000
 141126675.42748  92176638.82148  24952570.1654   24952571.1354   24952570.9954
       204.000         137.000
 110632038.65048  86206788.06848  21052573.6274   21052572.1094   21052574.0914
       241.000         201.000
 119125040.35148 110616801.60348  24571764.2864   24571793.0244   24571763.4684
       212.000         146.000
 115100504.44048  89688690.23848  21902908.4284   21902911.2774   21902908.3984
       232.000         183.000
 107659815.95248  83890765.07448  20486982.0274   20486981.8444   20486982.7214
       245.000         212.000
 122933115.09248  95792008.52948  23393415.4674   23393423.9724   23393416.2794
       214.000         156.000
 03 10 30  0 17 30.0000000  0  9G 9G11G29G20G28G26G 4G 7G 8
 118401556.25948  92260966.42748  22531050.4214   22531050.4094   22531050.9684
       223.000         169.000
 128825473.21148 100383472.16148  24514683.5564   24514682.0114   24514683.5764
       218.000         144.000
 130527499.77048 101709503.83448  24838739.0794   24838788.8604   24838738.9014
       203.000         136.000
 141078617.50648  92139190.84848  24943424.8974   24943427.4724   24943424.5024
       205.000         138.000
 110668250.08948  86235004.75548  21059464.5404   21059462.7884   21059465.0954
       241.000         200.000
 119202167.46748 110676899.58848  24586440.6914   24586470.8344   24586440.9294
       217.000         148.000
 115007704.94248  89616378.78648  21885249.4794   21885252.3424   21885249.4334
       231.000         182.000
 107674734.04148  83902389.66348  20489820.8684   20489820.6114   20489821.6084
       245.000         212.000
 123049455.58748  95882663.07848  23415554.7624   23415563.0584   23415555.6644
       215.000         155.000
 03 10 30  0 18  0.0000000  0  9G 9G11G29G20G28G26G 4G 7G 8
 118331091.34048  92206058.72448  22517641.4714   22517641.5274   22517641.6004
       224.000         170.000
 128920326.75948 100457384.18948  24532733.3054   24532732.7644   24532733.4384
       220.000         148.000
 130605687.71548 101770428.28648  24853617.3384   24853669.9274   24853617.2794
       199.000         137.000
 141030913.97048  92102019.13348  24934347.1484   24934347.7844   24934347.9304
       207.000         137.000
 110704769.02148  86263461.06848  21066413.8714   21066412.0274   21066414.3184
       242.000         200.000
 119279453.99048 110737121.76448  24601149.1154   24601179.8854   24601149.1054
       212.000         149.000
 114915257.53548  89544341.65148  21867657.1984   21867660.4874   21867657.1324
       230.000         182.000
 107689920.06148  83914222.97348  20492710.5504   20492710.4114   20492711.2734
       245.000         212.000
 123165941.79048  95973431.22348  23437721.5294   23437730.3084   23437722.5764
       213.000         157.000
 03 10 30  0 18 30.0000000  0  9G 9G11G29G20G28G26G 4G 7G 8
 118261088.41648  92151511.08748  22504320.4674   22504320.3594   22504320.5904
       225.000         172.000
 129015405.11448 100531471.81548  24550825.2744   24550824.8484   24550826.0554
       217.000         151.000
 130683909.59748 101831379.15848  24868503.4934   24868555.8914   24868502.5954
       200.000         138.000
 140983567.21648  92065125.41348  24925338.2444   24925339.4714   24925338.9864
       207.000         138.000
 110741595.86848  86292157.32148  21073421.7974   21073419.9054   21073422.2064
       242.000         200.000
 119356896.96748 110797465.80048  24615887.0694   24615917.9794   24615886.8854
       212.000         150.000
 114823165.23248  89472581.19948  21850132.8084   21850136.2094   21850132.7144
       232.000         184.000
 107705372.89448  83926264.20848  20495651.0264   20495650.9464   20495651.6654
       244.000         212.000
 123282570.91648  96064310.73848  23459915.8824   23459923.9424   23459916.5034
       217.000         161.000
 03 10 30  0 19  0.0000000  0  9G 9G11G29G20G28G26G 4G 7G 8
 118191549.38248  92097324.88548  22491087.6344   22491087.6684   22491088.0504
       226.000         172.000
 129110704.40148 100605730.83748  24568960.6134   24568960.9964   24568960.9084
       219.000         152.000
 130762162.48248 101892354.16148  24883395.9454   24883448.9324   24883395.2524
       191.000         136.000
 140936579.84248  92028511.63648  24916396.8024   24916397.5054   24916397.2504
       205.000         138.000
 110778731.08648  86321093.93248  21080488.3334   21080486.4604   21080488.8314
       241.000         199.000
 119434493.26248 110857929.26348  24630653.9544   24630685.1854   24630653.4384
       215.000         151.000
 114731430.88148  89401099.74248  21832676.6454   21832679.8924   21832676.5064
       232.000         185.000
 107721091.50548  83938512.49148  20498642.2764   20498642.0844   20498642.9584
       244.000         212.000
 123399340.57548  96155299.77148  23482136.6474   23482145.2804   23482137.2204
       217.000         160.000
 03 10 30  0 19 30.0000000  0  9G 9G11G29G20G28G26G 4G 7G 8
 118122476.77548  92043502.11748  22477943.8334   22477943.7614   22477943.9974
       226.000         173.000
 129206223.47148 100680161.35148  24587137.4744   24587137.4344   24587137.9144
       216.000         151.000
 130840443.76648 101953351.26548  24898293.6394   24898346.1304   24898292.8144
       190.000         133.000
 140889954.49548  91992180.14548  24907524.4274   24907524.5134   24907525.7484
       205.000         137.000
 110816174.85248  86350270.94048  21087613.6054   21087611.7924   21087614.1284
       241.000         200.000
 119512239.68348 110918509.63448  24645449.1534   24645481.3284   24645449.3624
       213.000         150.000
 114640057.23848  89329899.41148  21815288.9524   21815292.1844   21815288.9674
       232.000         185.000
 107737075.04248  83950967.27848  20501683.7624   20501683.4874   20501684.4934
       244.000         212.000
 123516248.10948  96246396.40248  23504383.6454   23504391.9114   23504384.4104
       217.000         158.000
 03 10 30  0 20  0.0000000  0  9G 9G11G29G20G28G26G 4G 7G 8
 118053873.00548  91990044.69148  22464888.7514   22464888.6494   22464888.9754
       226.000         173.000
 129301959.43748 100754760.88948  24605355.0734   24605355.7774   24605355.3944
       211.000         149.000
 130918750.24348 102014367.93248  24913194.1524   24913247.6474   24913193.8034
       194.000         130.000
 140843693.37648  91956132.39948  24898720.8504   24898722.3504   24898722.0044
       205.000         138.000
 110853927.50348  86379688.62548  21094797.5934   21094795.8734   21094798.1014
       241.000         199.000
 119590133.34748 110979204.75448  24660273.1984   24660305.2284   24660273.1914
       214.000         152.000
 114549047.11448  89258982.38148  21797970.2604   21797973.4934   21797970.2214
       234.000         186.000
 107753322.18948  83963627.39848  20504775.4474   20504775.1764   20504776.1044
       244.000         211.000
 123633291.03148  96337598.58748  23526656.1524   23526664.3244   23526656.7454
       214.000         156.000
 03 10 30  0 20 30.0000000  0  9G 9G11G29G20G28G26G 4G 7G 8
 117985740.38448  91936954.38148  22451923.3924   22451923.3564   22451923.5604
       225.000         172.000
 129397909.74748 100829527.15348  24623614.2934   24623614.7464   24623614.3344
       210.000         147.000
 130997078.28048 102075401.39448  24928099.9784   24928156.3014   24928100.7094
       191.000         134.000
 140797799.30548  91920370.67248  24889988.2854   24889989.0464   24889987.5284
       207.000         138.000
 110891989.25248  86409347.10848  21102040.4974   21102038.7314   21102040.9144
       241.000         199.000
 119668171.13848 111040012.14848  24675124.1914   24675156.4924   24675124.1284
       214.000         151.000
 114458403.54548  89188351.17748  21780721.2124   21780724.3604   21780721.1354
       233.000         185.000
 107769832.08848  83976492.22948  20507917.2134   20507917.0004   20507917.8614
       244.000         211.000
 123750466.50448  96428904.06748  23548953.7794   23548961.6344   23548954.4334
       216.000         157.000
 03 10 30  0 21  0.0000000  0  9G 9G11G29G20G28G26G 4G 7G 8
 117918081.45148  91884233.25848  22439048.2024   22439047.8864   22439048.2514
       225.000         172.000
 129494072.52548 100904459.25648  24641912.7814   24641913.5784   24641912.6654
       200.000         141.000
 131075426.31148 102136450.40148  24943012.2054   24943066.0004   24943012.5924
       202.000         135.000
 140752274.33448  91884896.45948  24881324.6494   24881326.2454   24881324.8564
       207.000         137.000
 110930360.97848  86439247.19248  21109342.3464   21109340.5354   21109342.8694
       240.000         198.000
 119746350.13848 111100929.59648  24690002.1474   24690034.6754   24690001.9374
       212.000         148.000
 114368128.69248  89118007.19548  21763542.1124   21763545.4114   21763541.9264
       233.000         185.000
 107786603.66748  83989561.00448  20511108.7164   20511108.5084   20511109.3324
       244.000         211.000
 123867771.35448  96520310.14848  23571276.3144   23571284.5614   23571276.9134
       216.000         156.000
 03 10 30  0 21 30.0000000  0  9G 9G11G29G20G28G26G 4G 7G 8
 117850898.35548  91831882.91848  22426263.3854   22426263.3484   22426263.6954
       224.000         171.000
 129590444.26048 100979553.73248  24660250.1224   24660253.5064   24660251.3114
       194.000         138.000
 131153790.82948 102197512.22948  24957926.1604   24957980.5204   24957926.4554
       204.000         138.000
 140707121.35748  91849712.07248  24872732.3924   24872734.0144   24872732.7064
       207.000         139.000
 110969042.67048  86469388.76448  21116703.1654   21116701.3504   21116703.6464
       240.000         198.000
 119824667.19148 111161954.59248  24704906.5794   24704939.1854   24704906.2324
       210.000         147.000
 114278225.07748  89047952.25848  21746434.0554   21746437.4024   21746433.8344
       233.000         185.000
 107803635.80048  84002832.80548  20514349.7804   20514349.6364   20514350.4754
       244.000         211.000
 123985203.59848  96611815.59748  23593623.2004   23593631.3104   23593623.7614
       215.000         154.000
 03 10 30  0 22  0.0000000  0  8G 9G29G20G28G26G 4G 7G 8
 117784193.25048  91779904.98048  22413569.7444   22413569.8834   22413569.9144
       224.000         171.000
 131232168.29048 102258584.13648  24972841.3134   24972894.2404   24972841.6814
       206.000         141.000
 140662342.88948  91814819.60548  24864211.4334   24864212.9594   24864212.4264
       208.000         140.000
 111008034.44948  86499771.97248  21124122.9724   21124121.2184   21124123.4824
       240.000         197.000
 119903119.18548 111223084.74048  24719836.1474   24719869.2624   24719835.8114
       208.000         146.000
 114188696.06048  88978189.37248  21729397.3294   21729400.5814   21729397.3804
       233.000         186.000
 107820927.53648  84016306.90348  20517640.3264   20517640.1134   20517641.0644
       244.000         211.000
 124102760.59648  96703418.31248  23615993.7064   23616001.3814   23615994.1944
       213.000         150.000
 03 10 30  0 22 30.0000000  0  9G 9G11G29G20G28G26G 4G 7G 8
 117717968.62548  91728301.48348  22400967.7054   22400967.4704   22400967.6094
       224.000         173.000
 139783866.28958  91130285.50058  24697046.1405   24697042.4235   24697046.6995
       195.000         125.000
 131310556.82648 102319664.66248  24987759.0054   24987813.4084   24987759.9444
       208.000         140.000
 140617941.34448  91780220.91248  24855762.6464   24855763.7184   24855763.8624
       210.000         139.000
 111047336.85148  86530397.20048  21131601.9594   21131600.3894   21131602.3984
       241.000         198.000
 119981702.98748 111284317.59948  24734791.3414   24734824.5504   24734790.8064
       207.000         147.000
 114099544.53748  88908720.78448  21712432.3404   21712435.6364   21712432.3454
       233.000         185.000
 107838477.86148  84029982.46548  20520980.1804   20520979.8194   20520980.8634
       244.000         211.000
 124220439.55148  96795116.05948  23638387.1494   23638395.3324   23638388.3184
       215.000         152.000
 03 10 30  0 23  0.0000000  0  9G 9G11G29G20G28G26G 4G 7G 8
 117652226.71748  91677074.12248  22388457.4494   22388457.0614   22388457.8754
       226.000         174.000
 139880853.17648  91205859.81848  24715504.1354   24715503.9194   24715503.9054
       194.000         135.000
 131388952.97848 102380751.12248  25002678.5524   25002733.8294   25002678.7844
       207.000         139.000
 140573918.80548  91745917.48848  24847385.7774   24847386.4064   24847386.0834
       212.000         140.000
 111086949.94048  86561264.50148  21139140.3304   21139138.6624   21139140.8704
       240.000         198.000
 120060415.64148 111345650.82548  24749770.2274   24749804.0814   24749770.4364
       209.000         147.000
 114010772.93548  88839548.23148  21695539.3994   21695542.9404   21695539.3784
       234.000         187.000
 107856285.82448  84043858.83648  20524368.9004   20524368.4704   20524369.5754
       244.000         211.000
 124338237.33348  96886906.21648  23660803.8834   23660812.5394   23660805.1344
       217.000         152.000
 03 10 30  0 23 30.0000000  0  9G 9G11G29G20G28G26G 4G 7G 8
 117586969.67948  91626224.54748  22376039.5484   22376039.3604   22376039.7654
       226.000         174.000
 139978039.68648  91281589.19348  24733997.2184   24734002.1104   24733998.4324
       196.000         135.000
 131467353.60748 102441841.01148  25017597.4634   25017653.1324   25017598.0004
       205.000         138.000
 140530277.88548  91711911.23448  24839081.8144   24839082.1964   24839082.0544
       209.000         139.000
 111126874.45248  86592374.49748  21146737.8044   21146735.8984   21146738.2364
       240.000         197.000
 120139254.10848 111407082.05848  24764773.8974   24764808.3564   24764774.0384
       211.000         146.000
 113922384.09248  88770674.05948  21678719.4454   21678722.8774   21678719.3724
       231.000         186.000
 107874350.13548  84057934.89248  20527806.4004   20527806.0604   20527807.1074
       244.000         211.000
 124456151.91948  96978787.47648  23683243.0844   23683250.9384   23683243.7064
       214.000         153.000
 03 10 30  0 24  0.0000000  0  9G 9G11G29G20G28G26G 4G 7G 8
 117522199.53148  91575754.26448  22363714.1414   22363713.8844   22363714.5314
       227.000         176.000
 140075423.96248  91357472.94548  24752530.1904   24752530.7084   24752529.7794
       208.000         133.000
 131545755.86048 102502932.18448  25032517.8724   25032573.8914   25032518.0814
       207.000         134.000
 140487021.26348  91678204.64148  24830850.2174   24830850.2704   24830849.9614
       210.000         139.000
 111167110.73748  86623727.49248  21154394.3014   21154392.4464   21154394.6974
       240.000         197.000
 120218215.24048 111468608.89548  24779800.8754   24779835.3214   24779801.4984
       210.000         147.000
 113834380.02848  88702099.60048  21661972.6034   21661976.1044   21661972.4104
       232.000         186.000
 107892669.86948  84072209.99648  20531292.4564   20531292.1724   20531293.1624
       243.000         210.000
 124574180.31548  97070757.27448  23705703.3874   23705711.9224   23705704.0574
       212.000         149.000
 03 10 30  0 24 30.0000000  0  9G 9G11G29G20G28G26G 4G 7G 8
 117457918.96048  91525665.57348  22351481.7674   22351481.7364   22351482.0204
       227.000         175.000
 140173003.65848  91433509.24548  24771097.8194   24771099.3334   24771099.3134
       213.000         138.000
 131624157.31248 102564022.69248  25047439.2174   25047495.1594   25047439.0604
       204.000         136.000
 140444151.32948  91644799.45948  24822691.2564   24822691.7954   24822692.5454
       210.000         139.000
 111207658.72048  86655323.28048  21162110.3764   21162108.5674   21162110.8824
       241.000         197.000
 120297296.10548 111530228.98448  24794850.7064   24794885.2884   24794850.9444
       211.000         147.000
 113746764.30848  88633827.85348  21645299.5424   21645303.0424   21645299.5014
       231.000         186.000
 107911244.22548  84086683.54148  20534826.9504   20534826.7774   20534827.5834
       243.000         210.000
 124692320.00848  97162813.74348  23728184.7874   23728192.7174   23728185.9874
       215.000         151.000
 03 10 30  0 25  0.0000000  0  9G 9G11G29G20G28G26G 4G 7G 8
 117394129.97048  91475959.95648  22339342.9614   22339343.0154   22339343.2544
       228.000         175.000
 140270775.53648  91509695.27648  24789703.5794   24789704.2394   24789704.7444
       215.000         135.000
 131702554.85748 102625110.08748  25062359.8774   25062416.1024   25062359.8814
       208.000         136.000
 140401670.35548  91611697.38448  24814607.4174   24814609.6524   24814608.9454
       206.000         138.000
 111248518.72648  86687162.24748  21169885.8554   21169884.0904   21169886.3924
       239.000         197.000
 120376493.52748 111591939.94148  24809922.4424   24809957.3754   24809922.4574
       211.000         148.000
 113659539.08548  88565860.33748  21628701.2034   21628704.4684   21628701.0844
       233.000         186.000
 107930072.03648  84101354.60248  20538409.7274   20538409.5144   20538410.4394
       243.000         210.000
 124810568.65948  97254955.20948  23750687.2464   23750695.5434   23750688.1344
       215.000         151.000
 03 10 30  0 25 30.0000000  0  9G 9G11G29G20G28G26G 4G 7G 8
 117330834.76848  91426639.00348  22327298.5244   22327298.1974   22327298.8014
       227.000         176.000
 140368737.44648  91586029.09848  24808346.2864   24808346.6814   24808346.1444
       216.000         131.000
 131780945.61748 102686192.23648  25077278.4734   25077334.0814   25077278.4344
       210.000         136.000
 140359580.61648  91578900.04248  24806597.6954   24806600.6214   24806599.2384
       208.000         139.000
 111289691.36148  86719244.82048  21177720.6454   21177719.0544   21177721.1574
       239.000         197.000
 120455804.45848 111653739.32548  24825015.9714   24825050.7884   24825015.5564
       211.000         147.000
 113572707.38848  88498199.58248  21612177.5174   21612180.6414   21612177.3704
       234.000         188.000
 107949152.15048  84116222.20948  20542040.6064   20542040.3274   20542041.2954
       243.000         210.000
 124928923.52248  97347179.45748  23773210.0344   23773217.9304   23773210.5324
       215.000         154.000
 03 10 30  0 26  0.0000000  0  9G 9G11G29G20G28G26G 4G 7G 8
 117268035.70048  91377704.68548  22315348.4534   22315347.6374   22315348.6684
       227.000         175.000
 140466887.41548  91662509.47048  24827022.4464   24827021.3914   24827023.6624
       218.000         134.000
 131859326.51448 102747266.68648  25092195.1914   25092251.0704   25092195.4624
       208.000         137.000
 140317884.64148  91546409.70348  24798663.9404   24798665.4224   24798664.4854
       206.000         138.000
 111331176.61148  86751570.98948  21185615.0404   21185613.4134   21185615.4114
       240.000         197.000
 120535226.00748 111715624.92548  24840130.0124   24840165.2254   24840129.9834
       210.000         145.000
 113486271.67148  88430847.41948  21595729.2024   21595732.1794   21595729.1394
       234.000         189.000
 107968483.70848  84131285.82648  20545719.2624   20545718.9614   20545719.9774
       243.000         210.000
 125047382.00748  97439484.56948  23795751.7664   23795759.7334   23795752.4514
       218.000         157.000
 03 10 30  0 26 30.0000000  0  9G 9G11G29G20G28G26G 4G 7G 8
 117205734.97648  91329158.67448  22303493.0204   22303492.3134   22303493.3074
       227.000         175.000
 140565222.98648  91739134.68648  24845735.1294   24845734.9094   24845736.5504
       218.000         138.000
 131937694.94548 102808331.38748  25107109.3874   25107166.9864   25107109.1354
       205.000         135.000
 140276584.77448  91514228.06848  24790806.0714   24790806.6074   24790804.7334
       206.000         137.000
 111372974.71748  86784140.89248  21193569.0434   21193567.2924   21193569.6714
       239.000         196.000
 120614755.05648 111777594.28048  24855265.1274   24855300.3084   24855264.4184
       210.000         145.000
 113400234.72248  88363805.97648  21579356.7354   21579359.7584   21579356.6434
       235.000         190.000
 107988065.40648  84146544.25248  20549445.5144   20549445.2714   20549446.2064
       243.000         209.000
 125165941.36148  97531868.20048  23818313.2504   23818321.7804   23818313.9644
       218.000         159.000
 03 10 30  0 27  0.0000000  0  9G 9G11G29G20G28G26G 4G 7G 8
 117143934.76848  91281002.72548  22291732.6444   22291731.7864   22291732.8754
       227.000         175.000
 140663741.56548  91815902.46048  24864483.9104   24864485.6484   24864484.2524
       216.000         137.000
 132016048.16548 102869384.28748  25122019.4264   25122078.3824   25122019.7084
       206.000         133.000
 140235683.48748  91482357.05048  24783021.0264   24783021.9474   24783022.0924
       206.000         138.000
 111415086.16748  86816954.99048  21201582.4784   21201580.7604   21201582.8984
       240.000         197.000
 120694388.48248 111839644.99148  24870420.2614   24870455.4154   24870419.3634
       211.000         144.000
 113314598.92648  88297077.17148  21563060.4554   21563063.5124   21563060.3834
       234.000         190.000
 108007896.48148  84161997.00648  20553219.2454   20553219.0064   20553220.0104
       243.000         209.000
 125284598.96148  97624328.46348  23840893.2074   23840901.4744   23840893.8264
       220.000         161.000
 03 10 30  0 27 30.0000000  0  9G 9G11G29G20G28G26G 4G 7G 8
 117082637.31048  91233238.56148  22280067.8474   22280067.2754   22280068.1314
       226.000         174.000
 140762440.67548  91892810.89548  24883265.2454   24883266.4634   24883265.8104
       215.000         139.000
 132094382.72748 102930422.62048  25136926.0744   25136987.2054   25136926.7064
       202.000         130.000
 140195182.63448  91450797.97248  24775314.7894   24775317.0374   24775314.9904
       206.000         135.000
 111457511.02448  86850013.32248  21209655.7294   21209653.9644   21209656.0994
       239.000         197.000
 120774123.36848 111901774.79948  24885594.3094   24885629.2664   24885593.9834
       209.000         142.000
 113229367.40248  88230663.54448  21546841.0594   21546843.7474   21546840.9764
       235.000         190.000
 108027975.79048  84177643.18548  20557040.2134   20557040.0904   20557040.9484
       243.000         209.000
 125403352.26148  97716863.30448  23863491.1884   23863499.7214   23863491.7674
       222.000         162.000
 03 10 30  0 28  0.0000000  0  9G 9G11G29G20G28G26G 4G 7G 8
 117021844.42248  91185867.50548  22268499.0364   22268499.0734   22268499.2954
       227.000         175.000
 140861317.84248  91969858.04148  24902081.2684   24902081.5704   24902081.8084
       214.000         141.000
 132172696.08348 102991444.36848  25151829.3254   25151890.5784   25151830.8814
       204.000         128.000
 140155084.92048  91419553.06448  24767684.5224   24767685.4194   24767684.9204
       204.000         135.000
 111500249.86248  86883316.31548  21217788.7724   21217787.0344   21217789.3174
       239.000         196.000
 120853956.61748 111963981.26448  24900787.3374   24900822.5364   24900786.4394
       205.000         139.000
 113144542.50648  88164566.90048  21530698.8174   21530701.4214   21530698.7764
       233.000         189.000
 108048302.35548  84193482.03748  20560908.1554   20560908.1654   20560908.8454
       242.000         209.000
 125522198.55748  97809470.61248  23886106.7734   23886115.3814   23886107.4024
       221.000         162.000
 03 10 30  0 28 30.0000000  0  9G 9G11G29G20G28G26G 4G 7G 8
 116961558.29048  91138891.32848  22257027.1534   22257027.1474   22257027.2774
       227.000         177.000
 140960370.47148  92047041.75248  24920930.2764   24920931.4824   24920930.9044
       208.000         140.000
 132250985.53448 103052447.44048  25166728.5104   25166790.5614   25166730.7774
       203.000         123.000
 140115392.75648  91388624.35648  24760130.7984   24760130.2204   24760131.4844
       202.000         134.000
 111543302.72348  86916864.00248  21225981.3684   21225979.8194   21225981.9264
       239.000         196.000
 120933885.18448 112026261.99748  24915997.3134   24916034.5244   24915997.7924
       208.000         141.000
 113060126.37748  88098788.60248  21514634.4514   21514637.0484   21514634.4004
       234.000         191.000
