     2              OBSERVATION DATA    GPS                 RINEX VERSION / TYPE
GEOTRACER GPS Decoder Ver. 2.2           29-Oct-1903, 00:20 PGM / RUN BY / DATE
ANKR                                                        MARKER NAME
20805M002                                                   MARKER NUMBER
AUTOMATIC           BKG-WETTZELL                            OBSERVER / AGENCY
T-313U              AOA SNR-8000 ACT     3.3.32.4           REC # / TYPE / VERS
391-U               AOAD/M_T        NONE                    ANT # / TYPE
  4121951.1983  2652186.8505  4069023.7496                  APPROX POSITION XYZ
        0.0600        0.0000        0.0000                  ANTENNA: DELTA H/E/N
     1     1     0                                          WAVELENGTH FACT L1/2
     5    C1    P1    P2    L1    L2                        # / TYPES OF OBSERV
    30                                                      INTERVAL
  2003    10    28     0     0    0.000000                  TIME OF FIRST OBS
  2003    10    28    23    59   30.000000                  TIME OF LAST OBS
    28                                                      # OF SATELLITES
   G01   854   854   854   854   854                        PRN / # OF OBS
   G02  1058  1058  1058  1058  1058                        PRN / # OF OBS
   G03   860   860   860   860   860                        PRN / # OF OBS
   G04  1020  1020  1020  1020  1020                        PRN / # OF OBS
   G05   809   809   809   809   809                        PRN / # OF OBS
   G06   867   867   867   867   867                        PRN / # OF OBS
   G07   987   987   987   987   987                        PRN / # OF OBS
   G08   818   818   818   818   818                        PRN / # OF OBS
   G09   741   741   741   741   741                        PRN / # OF OBS
   G10  1016  1016  1016  1016  1016                        PRN / # OF OBS
   G11   753   753   753   753   753                        PRN / # OF OBS
   G13   850   850   850   850   850                        PRN / # OF OBS
   G14   968   968   968   968   968                        PRN / # OF OBS
   G15   871   871   871   871   871                        PRN / # OF OBS
   G16   996   996   996   996   996                        PRN / # OF OBS
   G17   911   911   911   911   911                        PRN / # OF OBS
   G18   791   791   791   791   791                        PRN / # OF OBS
   G20   848   848   848   848   848                        PRN / # OF OBS
   G21   804   804   804   804   804                        PRN / # OF OBS
   G23   802   802   802   802   802                        PRN / # OF OBS
   G24  1018  1018  1018  1018  1018                        PRN / # OF OBS
   G25  1030  1030  1030  1030  1030                        PRN / # OF OBS
   G26   941   941   941   941   941                        PRN / # OF OBS
   G27   841   841   841   841   841                        PRN / # OF OBS
   G28   765   765   765   765   765                        PRN / # OF OBS
   G29   879   879   879   879   879                        PRN / # OF OBS
   G30   787   787   787   787   787                        PRN / # OF OBS
   G31   997   997   997   997   997                        PRN / # OF OBS
                                                            END OF HEADER
  3 10 28  0  0  0.0000000  0  8G03G11G14G15G20G23G25G31
  22686455.28309  22686455.00209  22686455.72609 -11677975.37409  -9099717.82409
  21936159.33509  21936159.39909  21936158.36609 -16906422.60209 -13173830.26509
  20823689.72809  20823689.53309  20823688.34809 -19697132.33709 -15348407.12609
  23307798.77208  23307798.22008  23307800.33308 -10687478.18508  -8327885.59208
  24054006.91607  24054006.29107  24054006.61807  -5061123.13807  -3943731.89407
  22424349.75509  22424349.21409  22424349.61309 -10479123.71809  -8165541.61609
  24561310.04306  24561309.86706  24561312.09706  -1939946.47706  -1511646.32306
  21212830.26409  21212829.86809  21212829.78209 -18646836.18409 -14529999.54509
  3 10 28  0  0 30.0000000  0  8G03G11G14G15G20G23G25G31
  22704760.30209  22704760.04409  22704760.86409 -11581781.71209  -9024761.75009
  21921941.35409  21921941.35209  21921940.25409 -16981139.04409 -13232050.86309
  20828176.38509  20828176.15509  20828175.10309 -19673554.61209 -15330034.86609
  23324830.11007  23324829.58107  23324831.67207 -10597976.66707  -8258144.17907
  24038105.56307  24038104.95507  24038105.13807  -5144683.79407  -4008844.06207
  22436584.65209  22436584.19009  22436584.63709 -10414828.68209  -8115441.60109
  24545195.56207  24545195.54107  24545196.52607  -2024632.90007  -1577635.72807
  21222657.43209  21222657.05509  21222656.78509 -18595194.40009 -14489759.20209
  3 10 28  0  1  0.0000000  0  8G03G11G14G15G20G23G25G31
  22723107.36909  22723107.03509  22723107.50009 -11485368.65309  -8949634.71109
  21907763.32809  21907763.34909  21907762.22509 -17055645.00709 -13290107.44909
  20832771.78109  20832771.61209  20832770.56209 -19649404.97909 -15311216.96709
  23341900.33107  23341899.78207  23341901.94207 -10508271.55607  -8188244.12007
  24022229.78007  24022229.32307  24022229.59807  -5228110.73907  -4073852.03707
  22448835.68109  22448835.12409  22448835.75909 -10350448.82109  -8065275.48709
  24529079.39707  24529079.14407  24529080.05707  -2109324.64907  -1643629.32107
  21232581.49109  21232581.06109  21232580.89409 -18543042.98809 -14449121.75109
  3 10 28  0  1 30.0000000  0  8G03G11G14G15G20G23G25G31
  22741496.33109  22741495.90909  22741496.62209 -11388733.73609  -8874334.79409
  21893626.58609  21893626.69309  21893625.54109 -17129933.23409 -13347994.36209
  20837477.04609  20837476.84909  20837475.83109 -19624679.20409 -15291950.12609
  23359010.23407  23359009.88507  23359011.85707 -10418358.35007  -8118181.90207
  24006380.91607  24006380.62007  24006380.66007  -5311398.30007  -4138751.39307
  22461103.80909  22461103.20809  22461103.85109 -10285979.60009  -8015039.73609
  24512963.28407  24512963.61807  24512963.96007  -2194013.94907  -1709620.96307
  21242603.17809  21242602.73509  21242602.59509 -18490378.71209 -14408084.66409
  3 10 28  0  2  0.0000000  0  8G03G11G14G15G20G23G25G31
  22759924.98109  22759924.65009  22759925.37609 -11291890.25709  -8798872.35909
  21879529.82109  21879529.84009  21879528.76909 -17204012.51709 -13405718.46309
  20842289.43009  20842289.25609  20842288.43409 -19599389.24009 -15272243.65709
  23376157.84707  23376157.24707  23376158.98407 -10328248.25607  -8047966.26307
  23990556.14407  23990555.82807  23990556.11007  -5394556.87307  -4203550.24207
  22473386.57309  22473386.04309  22473386.74209 -10221432.60509  -7964743.38109
  24496846.08407  24496845.95707  24496847.19807  -2278708.56907  -1775616.75907
  21252719.97209  21252719.56509  21252719.63309 -18437214.07709 -14366657.68809
  3 10 28  0  2 30.0000000  0  8G03G11G14G15G20G23G25G31
  22778392.57709  22778392.28809  22778393.15209 -11194841.63409  -8723250.07409
  21865473.07409  21865473.10009  21865471.85009 -17277881.82509 -13463278.95309
  20847208.92409  20847208.72809  20847207.88509 -19573537.07909 -15252099.11009
  23393342.38707  23393341.60007  23393343.83207 -10237942.79807  -7977598.39607
  23974756.10307  23974755.68107  23974755.51007  -5477586.87007  -4268248.91407
  22485683.96609  22485683.46509  22485684.12609 -10156809.41509  -7914387.65309
  24480728.87807  24480728.52507  24480730.47407  -2363406.30407  -1841614.97607
  21262931.61209  21262931.24209  21262931.18909 -18383551.82509 -14324842.95709
  3 10 28  0  3  0.0000000  0  8G03G11G14G15G20G23G25G31
  22796899.57109  22796899.26009  22796900.11309 -11097586.91709  -8647467.20209
  21851457.20809  21851457.17409  21851455.85109 -17351535.78809 -13520671.63709
  20852235.76109  20852235.57009  20852234.81009 -19547120.48209 -15231514.74509
  23410564.62307  23410564.19107  23410566.01607 -10147439.23407  -7907076.16607
  23958981.14407  23958980.55607  23958981.00107  -5560484.16607  -4332844.17407
  22497996.51209  22497995.99609  22497996.62709 -10092107.16609  -7863970.32509
  24464612.14407  24464612.21107  24464613.28607  -2448100.86307  -1907610.73707
  21273238.25709  21273237.84809  21273237.73709 -18329390.35309 -14282639.22709
  3 10 28  0  3 30.0000000  0  8G03G11G14G15G20G23G25G31
  22815445.20209  22815444.89109  22815445.72409 -11000129.08709  -8571526.05609
  21837482.63009  21837482.63609  21837481.28509 -17424972.51309 -13577895.05009
  20857369.85509  20857369.61609  20857368.80009 -19520140.80509 -15210491.61709
  23427824.37207  23427823.96007  23427825.87507 -10056738.31807  -7836400.14907
  23943231.98507  23943231.44407  23943231.04307  -5643248.43707  -4397335.78107
  22510323.80009  22510323.27509  22510323.92809 -10027326.74209  -7813492.08109
  24448496.16607  24448496.35107  24448497.27607  -2532789.44607  -1973601.84007
  21283639.63709  21283639.24609  21283638.98009 -18274731.70009 -14240048.08309
  3 10 28  0  4  0.0000000  0  8G03G11G14G15G20G23G25G31
  22834030.64609  22834030.38609  22834031.07909 -10902462.22809  -8495422.02809
  21823551.52709  21823551.54609  21823550.15909 -17498181.51609 -13634941.01609
  20862612.45109  20862612.25209  20862611.39509 -19492590.76809 -15189024.05009
  23445123.67708  23445123.23708  23445124.71408  -9965832.19708  -7765564.23408
  23927509.36207  23927508.88907  23927508.65707  -5725870.67207  -4461716.71307
  22522667.31609  22522666.94909  22522667.63509  -9962460.39309  -7762946.88409
  24432383.08306  24432383.11906  24432384.03706  -2617460.77206  -2039579.46306
  21294136.59009  21294136.14609  21294135.81609 -18219569.48609 -14197064.55309
  3 10 28  0  4 30.0000000  0  8G03G11G14G15G20G23G25G31
  22852654.53309  22852654.23209  22852654.85709 -10804593.15109  -8419160.42109
  21809663.22009  21809663.25709  21809661.86509 -17571165.12009 -13691811.34909
  20867962.67409  20867962.44209  20867961.53909 -19464475.71409 -15167116.21109
  23462460.32908  23462459.85608  23462461.68308  -9874725.66908  -7694572.14808
  23911812.84207  23911812.37007  23911812.41107  -5808354.82507  -4525990.04907
  22535026.36709  22535025.97709  22535026.73209  -9897513.13909  -7712338.64509
  24416273.30906  24416273.33206  24416275.33306  -2702115.95306  -2105544.52306
  21304728.12309  21304727.77209  21304727.48509 -18163909.73809 -14153693.33709
  3 10 28  0  5  0.0000000  0  8G03G11G14G15G20G23G25G31
  22871316.70509  22871316.52709  22871317.23209 -10706522.56009  -8342741.79809
  21795818.49409  21795818.48709  21795817.10209 -17643919.54409 -13748503.09909
  20873420.30909  20873420.18409  20873419.25009 -19435795.19109 -15144767.74809
  23479835.74608  23479835.19508  23479837.21308  -9783417.84708  -7623423.22308
  23896143.42807  23896143.03907  23896143.15107  -5890698.53007  -4590153.94107
  22547401.15809  22547400.61209  22547401.30309  -9832483.96709  -7661666.57109
  24400168.68706  24400168.83606  24400170.16706  -2786750.27106  -2171493.29106
  21315414.59909  21315414.18809  21315413.85409 -18107752.69309 -14109934.61609
  3 10 28  0  5 30.0000000  0  8G03G11G14G15G20G23G25G31
  22890016.36609  22890016.26709  22890016.77609 -10608255.23909  -8266169.87509
  21782017.24209  21782017.31109  21782015.87109 -17716445.08209 -13805016.49909
  20878985.16909  20878984.93009  20878983.93209 -19406552.62809 -15121981.33009
  23497248.81508  23497248.28608  23497249.83908  -9691911.58608  -7552119.66908
  23880500.21707  23880499.62907  23880499.70807  -5972903.58807  -4654209.79907
  22559790.73009  22559790.12009  22559790.97509  -9767375.80109  -7610932.94609
  24384067.82106  24384067.63006  24384069.17006  -2871363.35206  -2237425.54406
  21326194.88609  21326194.45709  21326194.09709 -18051102.60809 -14065791.70509
  3 10 28  0  6  0.0000000  0  8G03G11G14G15G20G23G25G31
  22908752.14909  22908751.89509  22908752.41409 -10509799.10609  -8189450.82609
  21768259.11309  21768259.19609  21768257.63609 -17788745.22109 -13861354.26309
  20884655.41409  20884655.24709  20884654.13409 -19376754.87609 -15098762.29709
  23514698.22507  23514697.72707  23514699.44407  -9600212.73307  -7480666.03707
  23864882.17007  23864882.15407  23864882.08007  -6054974.88807  -4718161.41607
  22572194.26109  22572193.67609  22572194.60009  -9702194.63909  -7560142.44409
  24367969.64006  24367969.36006  24367971.44706  -2955957.33206  -2303342.89506
  21337067.37709  21337066.98909  21337066.70509 -17993966.80909 -14021270.31809
  3 10 28  0  6 30.0000000  0  8G03G11G14G15G20G23G25G31
  22927521.92409  22927521.60709  22927522.29809 -10411163.37409  -8112591.83709
  21754543.09809  21754543.07409  21754541.38009 -17860824.50609 -13917519.94009
  20890429.93309  20890429.71609  20890428.66409 -19346409.87909 -15075116.84009
  23532183.57107  23532183.06107  23532184.69807  -9508328.52407  -7409067.98507
  23849289.27207  23849288.49107  23849288.98307  -6136918.46607  -4782013.52507
  22584610.24909  22584609.66809  22584610.66409  -9636947.70009  -7509300.68609
  24351875.15806  24351875.17006  24351875.90906  -3040535.74106  -2369248.13206
  21348030.86309  21348030.47609  21348030.07609 -17936353.93609 -13976377.18309
  3 10 28  0  7  0.0000000  0  8G03G11G14G15G20G23G25G31
  22946327.70809  22946327.52509  22946328.21709 -10312338.20809  -8035585.22909
  21740871.58309  21740871.57509  21740869.90509 -17932668.57409 -13973502.33409
  20896310.53609  20896310.34509  20896309.36109 -19315506.56609 -15051036.33209
  23549706.47307  23549705.84507  23549707.10007  -9416247.36407  -7337316.45507
  23833722.58907  23833721.95307  23833722.24007  -6218721.41007  -4845756.04107
  22597040.90709  22597040.48709  22597041.42709  -9571623.29909  -7458398.56409
  24335786.42206  24335786.52606  24335787.51106  -3125083.29306  -2435129.31206
  21359087.06009  21359086.62109  21359086.27909 -17878253.67609 -13931104.26209
  3 10 28  0  7 30.0000000  0  8G03G11G14G15G20G23G25G31
  22965167.60409  22965167.37709  22965168.36709 -10213332.66109  -7958438.07209
  21727243.97009  21727244.03209  21727242.47109 -18004281.48709 -14029304.60209
  20902296.19309  20902295.95509  20902294.92909 -19284052.36409 -15026526.56009
  23567264.40907  23567264.01707  23567265.72607  -9323976.19107  -7265416.86607
  23818181.64407  23818181.12407  23818181.14407  -6300389.70107  -4909393.62607
  22609485.33309  22609484.86009  22609485.70309  -9506228.42509  -7407441.52509
  24319702.75906  24319702.30406  24319703.70506  -3209603.48106  -2500989.17306
  21370234.00909  21370233.65909  21370233.62709 -17819674.31609 -13885458.02309
  3 10 28  0  8  0.0000000  0  8G03G11G14G15G20G23G25G31
  22984042.18009  22984041.70009  22984042.75609 -10114146.71509  -7881150.34609
  21713661.36709  21713661.34209  21713659.65109 -18075659.11309 -14084923.53009
  20908386.57509  20908386.43609  20908385.49509 -19252046.22609 -15001586.70809
  23584859.82307  23584859.35907  23584860.85307  -9231513.16907  -7193367.78907
  23802666.79807  23802666.72207  23802666.11007  -6381920.39007  -4972924.01307
  22621943.55309  22621942.98209  22621943.67009  -9440761.30309  -7356428.19809
  24303625.44306  24303625.13406  24303626.54906  -3294090.79906  -2566823.41206
  21381472.81509  21381472.44309  21381472.09009 -17760615.51709 -13839438.19409
  3 10 28  0  8 30.0000000  0  8G03G11G14G15G20G23G25G31
  23002951.79809  23002951.49209  23002952.30809 -10014775.78409  -7803718.47109
  21700125.18709  21700125.18509  21700123.46409 -18146792.25409 -14140351.95009
  20914583.35209  20914583.07009  20914582.07809 -19219482.64609 -14976212.48609
  23602492.83907  23602492.33507  23602493.71707  -9138852.05407  -7121164.35107
  23787179.63407  23787179.15207  23787179.06907  -6463305.68107  -5036341.08807
  22634416.52209  22634415.90309  22634416.59009  -9375215.51809  -7305353.57409
  24287555.41806  24287555.41306  24287557.09606  -3378535.49306  -2632624.46306
  21392803.49009  21392803.14209  21392802.76609 -17701072.18809 -13793040.80109
  3 10 28  0  9  0.0000000  0  8G03G11G14G15G20G23G25G31
  23021895.11809  23021894.96209  23021895.76909  -9915227.62909  -7726148.50009
  21686634.89809  21686634.88909  21686633.24409 -18217683.89509 -14195592.19209
  20920884.62609  20920884.46909  20920883.73409 -19186367.91909 -14950408.80009
  23620162.01707  23620161.47107  23620162.87707  -9045998.46507  -7048810.93407
  23771719.31307  23771718.99007  23771718.88507  -6544550.14007  -5099648.41507
  22646903.31509  22646902.72309  22646903.50309  -9309596.72309  -7254222.05709
  24271494.01807  24271494.08007  24271495.29107  -3462939.33307  -2698393.65107
  21404224.93509  21404224.60009  21404224.45309 -17641051.45809 -13746271.41909
  3 10 28  0  9 30.0000000  0  8G03G11G14G15G20G23G25G31
  23040869.51009  23040869.21309  23040870.18109  -9815516.40109  -7648451.45609
  21673188.72309  21673188.75209  21673187.34509 -18288343.35409 -14250651.50709
  20927288.72109  20927288.50109  20927287.63909 -19152715.07009 -14924185.79909
  23637865.89307  23637865.26307  23637866.74707  -8952964.55907  -6976317.00407
  23756283.89007  23756283.44907  23756283.34107  -6625665.18407  -5162854.91407
  22659401.89709  22659401.25809  22659401.94709  -9243917.01109  -7203043.07209
  24255439.47307  24255439.53607  24255440.27907  -3547310.50507  -2764137.41607
  21415734.89609  21415734.49109  21415734.22609 -17580566.89209 -13699140.60209
  3 10 28  0 10  0.0000000  0  8G03G11G14G15G20G23G25G31
  23059876.89109  23059876.60709  23059877.71509  -9715631.44809  -7570619.04509
  21659789.55109  21659789.53709  21659788.20909 -18358755.94009 -14305518.45109
  20933797.13909  20933796.99809  20933796.09309 -19118512.48109 -14897534.42809
  23655606.33307  23655605.50507  23655607.10207  -8859738.07807  -6903673.02507
  23740875.10907  23740874.35907  23740874.82807  -6706637.13907  -5225949.90907
  22671914.17309  22671913.75209  22671914.31809  -9178164.09909  -7151807.04909
  24239393.24407  24239393.24007  24239393.55407  -3631633.59007  -2829843.69707
  21427334.95909  21427334.58009  21427334.52609 -17519607.73509 -13651639.96609
  3 10 28  0 10 30.0000000  0  8G03G11G14G15G20G23G25G31
  23078917.17309  23078916.92609  23078917.77209  -9615576.15109  -7492653.89909
  21646437.62409  21646437.63009  21646436.43509 -18428920.12209 -14360191.82909
  20940410.04209  20940409.84309  20940408.91809 -19083762.41809 -14870456.45109
  23673383.39807  23673382.74107  23673383.82307  -8766320.17907  -6830879.90007
  23725493.57807  23725493.25107  23725493.50607  -6787466.14607  -5288933.50807
  22684440.16209  22684439.76209  22684440.30709  -9112339.15309  -7100514.89309
  24223356.33807  24223356.44507  24223357.19007  -3715906.00907  -2895510.50807
  21439024.87509  21439024.37809  21439024.62409 -17458176.71709 -13603771.65209
  3 10 28  0 11  0.0000000  0  8G03G11G14G15G20G23G25G31
  23097987.83609  23097987.54909  23097988.29109  -9515360.49909  -7414563.79609
  21633132.10209  21633132.14709  21633130.88409 -18498841.22109 -14414675.79409
  20947125.23209  20947125.08909  20947124.19509 -19048473.47709 -14842958.57209
  23691194.97707  23691194.55507  23691195.60207  -8672718.99907  -6757943.93907
  23710137.92207  23710137.64407  23710138.10407  -6868159.07207  -5351811.08007
  22696978.66009  22696978.21709  22696978.62709  -9046449.97409  -7049172.68609
  24207328.51807  24207328.54207  24207329.22407  -3800132.18807  -2961141.28407
  21450802.58109  21450802.20609  21450802.63709 -17396283.33609 -13555543.05709
  3 10 28  0 11 30.0000000  0  8G03G11G14G15G20G23G25G31
  23117088.46909  23117088.31809  23117089.03609  -9414985.54909  -7336349.57109
  21619873.55909  21619873.57509  21619872.12509 -18568515.88609 -14468967.73609
  20953943.04509  20953942.79709  20953941.95809 -19012645.81009 -14815040.90109
  23709042.08207  23709041.39307  23709042.31807  -8578934.00807  -6684864.74107
  23694809.29607  23694808.68807  23694808.79007  -6948714.31007  -5414581.36407
  22709529.46709  22709528.98009  22709529.24609  -8980495.92209  -6997779.92809
  24191311.07607  24191311.16007  24191311.08507  -3884307.54007  -3026732.44207
  21462668.22009  21462667.78609  21462668.25409 -17333928.32009 -13506954.74709
  3 10 28  0 12  0.0000000  0  8G03G11G14G15G20G23G25G31
  23136217.93609  23136217.64009  23136218.58809  -9314459.44709  -7258017.57209
  21606661.17209  21606661.16609  21606659.69809 -18637947.73909 -14523070.47509
  20960861.83609  20960861.65409  20960860.91609 -18976286.50009 -14786708.96809
  23726922.33107  23726921.91507  23726922.96207  -8484971.46807  -6611647.20907
  23679505.19907  23679504.80707  23679504.85907  -7029136.76407  -5477248.18407
  22722091.30409  22722090.79109  22722091.08709  -8914483.20509  -6946341.46009
  24175302.27307  24175302.26207  24175302.51107  -3968434.54807  -3092285.93807
  21474620.35909  21474619.90909  21474620.23409 -17271119.48909 -13458012.81409
  3 10 28  0 12 30.0000000  0  8G03G11G14G15G20G23G25G31
  23155377.56408  23155377.29308  23155378.22908  -9213773.73908  -7179561.20408
  21593497.44909  21593497.49709  21593496.03609 -18707123.48009 -14576973.64709
  20967883.86909  20967883.66809  20967882.75909 -18939385.94609 -14757955.28409
  23744838.67007  23744838.33307  23744838.96007  -8390820.98307  -6538283.22207
  23664228.70107  23664228.32907  23664228.65907  -7109414.67107  -5539802.35207
  22734666.29709  22734665.74509  22734666.01309  -8848401.16009  -6894848.96909
  24159304.55607  24159304.72607  24159304.97007  -4052499.21307  -3157790.85307
  21486660.57509  21486660.15709  21486660.55009 -17207847.85809 -13408710.25309
  3 10 28  0 13  0.0000000  0  8G03G11G14G15G20G23G25G31
  23174566.84208  23174566.62608  23174567.36508  -9112933.70708  -7100984.58708
  21580382.32909  21580382.30709  21580380.83809 -18776044.08909 -14630678.01309
  20975007.96709  20975007.77909  20975006.95409 -18901948.52009 -14728783.25909
  23762790.04607  23762789.29807  23762790.60407  -8296486.14907  -6464775.57407
  23648979.37207  23648978.88007  23648978.78607  -7189550.75507  -5602246.01507
  22747253.61509  22747253.15809  22747253.55809  -8782253.28809  -6843305.18109
  24143319.82807  24143320.08607  24143319.10507  -4136501.44607  -3223247.11807
  21498787.68409  21498787.30509  21498787.85209 -17144118.50509 -13359051.02909
  3 10 28  0 13 30.0000000  0  8G03G11G14G15G20G23G25G31
  23193785.88008  23193785.82508  23193786.62908  -9011936.27108  -7022285.30508
  21567317.19009  21567317.19009  21567315.66909 -18844701.75409 -14684177.48909
  20982234.96709  20982234.78409  20982233.97809 -18863970.32909 -14699189.85709
  23780777.33307  23780776.78307  23780778.01807  -8201962.01107  -6391120.42907
  23633758.21207  23633757.99807  23633757.51607  -7269538.87207  -5664574.39207
  22759854.63709  22759854.17409  22759854.59209  -8716034.49809  -6791706.13409
  24127347.84107  24127347.76907  24127347.52907  -4220432.68507  -3288648.06607
  21511002.91409  21511002.41809  21511002.83509 -17079927.99309 -13309032.46409
  3 10 28  0 14  0.0000000  0  8G03G11G14G15G20G23G25G31
  23213033.97408  23213033.81408  23213034.90908  -8910785.94508  -6943466.89008
  21554302.15009  21554302.22309  21554300.74809 -18913095.85209 -14737471.58809
  20989564.25909  20989564.09209  20989563.13809 -18825454.62909 -14669177.61909
  23798800.43307  23798799.80007  23798800.95307  -8107250.91407  -6317319.60107
  23618564.64807  23618564.17407  23618564.30807  -7349380.17707  -5726788.36707
  22772468.65509  22772468.18509  22772468.68809  -8649747.15409  -6740053.66709
  24111390.12307  24111390.02307  24111389.62107  -4304291.54807  -3353992.61807
  21523304.92309  21523304.50609  21523304.98809 -17015280.30309 -13258657.64509
  3 10 28  0 14 30.0000000  0  8G03G11G14G15G20G23G25G31
  23232309.35508  23232309.08008  23232310.11208  -8809493.65008  -6864537.84808
  21541336.18809  21541336.17209  21541334.63409 -18981233.22509 -14790565.64209
  20996993.93109  20996993.75709  20996992.83009 -18786411.47309 -14638754.37509
  23816857.21407  23816856.68107  23816858.23807  -8012362.37407  -6243380.49607
  23603397.83708  23603397.38708  23603397.49708  -7429082.84208  -5788894.30908
  22785093.99409  22785093.55809  22785093.94809  -8583400.39809  -6688354.90509
  24095445.57207  24095445.37307  24095444.55407  -4388083.55807  -3419285.08907
  21535691.79009  21535691.31809  21535692.06109 -16950186.38009 -13207935.12109
  3 10 28  0 15  0.0000000  0  8G03G11G14G15G20G23G25G31
  23251609.18708  23251609.09808  23251610.26708  -8708071.50908  -6785507.62208
  21528417.46809  21528417.56109  21528415.97009 -19049121.14809 -14843465.32109
  21004521.80809  21004521.68009  21004520.70509 -18746851.83409 -14607928.67909
  23834945.72107  23834945.01907  23834946.97807  -7917306.26407  -6169310.82307
  23588255.80308  23588255.46208  23588255.09908  -7508655.69508  -5850899.10708
  22797729.01509  22797728.45309  22797728.86409  -8517003.93509  -6636617.40609
  24079511.36507  24079511.24607  24079511.05507  -4471814.99807  -3484530.36407
  21548161.56209  21548161.18709  21548161.66109 -16884657.66209 -13156873.79709
  3 10 28  0 15 30.0000000  0  8G03G11G14G15G20G23G25G31
  23270936.24108  23270935.94408  23270937.31608  -8606507.58008  -6706366.92008
  21515549.35309  21515549.43809  21515547.84509 -19116743.24909 -14896157.86409
  21012150.55609  21012150.41909  21012149.38109 -18706762.65509 -14576690.35209
  23853068.25207  23853068.00507  23853070.43507  -7822068.73707  -6095099.78707
  23573140.93908  23573140.47108  23573140.25208  -7588083.95908  -5912791.24608
  22810375.95209  22810375.51309  22810375.76709  -8450543.80309  -6584830.29909
  24063592.45307  24063592.30307  24063591.53607  -4555468.25007  -3549714.71307
  21560716.54809  21560716.04009  21560716.49609 -16818681.92109 -13105464.14509
  3 10 28  0 16  0.0000000  0  8G03G11G14G15G20G23G25G31
  23290290.90408  23290290.72008  23290291.99008  -8504797.66608  -6627112.46708
  21502733.69209  21502733.76909  21502732.11909 -19184090.27809 -14948636.07009
  21019880.99309  21019880.86009  21019879.82009 -18666139.04309 -14545035.58509
  23871226.99707  23871226.38907  23871228.87407  -7726643.83807  -6020742.74907
  23558055.38508  23558054.76608  23558054.48108  -7667360.08808  -5974564.83308
  22823036.28709  22823035.86409  22823036.09609  -8384013.72809  -6532988.68609
  24047691.18307  24047690.94207  24047689.12907  -4639033.46307  -3614830.46907
  21573357.15209  21573356.77009  21573357.26409 -16752254.62309 -13053702.63309
  3 10 28  0 16 30.0000000  0  8G03G11G14G15G20G23G25G31
  23309669.72908  23309669.58008  23309670.66408  -8402962.22208  -6547760.19708
  21489967.22809  21489967.27209  21489965.68509 -19251178.42009 -15000912.54109
  21027709.39409  21027709.29209  21027708.19609 -18625000.35309 -14512979.46009
  23889418.43307  23889418.19707  23889419.65607  -7631050.28107  -5946254.27007
  23542995.41208  23542994.76908  23542994.49808  -7746501.79808  -6036233.65308
  22835706.38109  22835705.91909  22835706.09609  -8317432.06109  -6481106.87509
  24031803.06107  24031802.88607  24031802.20707  -4722525.92207  -3679889.50907
  21586080.06009  21586079.57509  21586079.86009 -16685395.96809 -13001604.99509
  3 10 28  0 17  0.0000000  0  8G03G11G14G15G20G23G25G31
  23329073.26408  23329072.93408  23329074.03408  -8300997.01008  -6468306.81108
  21477251.72509  21477251.80909  21477250.10609 -19317998.81009 -15052980.37709
  21035636.72809  21035636.59509  21035635.57709 -18583341.91809 -14480518.33909
  23907642.13707  23907641.62207  23907643.66907  -7535282.41807  -5871629.97907
  23527962.06908  23527961.43508  23527960.91108  -7825502.18008  -6097792.37008
  22848387.51109  22848386.93809  22848387.17609  -8250792.97209  -6429180.32009
  24015930.73007  24015930.35407  24015930.60807  -4805935.68607  -3744884.10507
  21598885.77209  21598885.42609  21598885.52809 -16618101.74509 -12949167.94909
  3 10 28  0 17 30.0000000  0  8G03G11G14G15G20G23G25G31
  23348502.02508  23348501.65708  23348502.50308  -8198899.25108  -6388750.13408
  21464588.70009  21464588.71609  21464586.99009 -19384543.95009 -15104833.73509
  21043663.79509  21043663.59009  21043662.51709 -18541159.79109 -14447649.14609
  23925900.25907  23925899.92207  23925901.36907  -7439335.48007  -5796866.14407
  23512956.34508  23512955.70108  23512955.84108  -7904354.93708  -6159236.04608
  22861080.29809  22861079.79509  22861080.10009  -8184091.38009  -6377205.06909
  24000075.16107  24000074.97507  24000075.16207  -4889254.34007  -3809807.70907
  21611774.99909  21611774.56209  21611774.82309 -16550368.77609 -12896389.02309
  3 10 28  0 18  0.0000000  0  8G03G11G14G15G20G23G25G31
  23367954.98608  23367954.80108  23367955.45108  -8096673.02908  -6309093.35908
  21451978.19309  21451978.18709  21451976.34709 -19450813.36909 -15156472.25009
  21051789.73309  21051789.63309  21051788.51909 -18498457.36309 -14414374.52709
  23944191.82807  23944191.39607  23944193.63007  -7343211.71307  -5721964.52507
  23497979.04208  23497978.41808  23497978.27608  -7983061.46808  -6220565.77908
  22873784.55909  22873784.11809  22873784.50109  -8117329.42209  -6325182.77109
  23984237.86107  23984237.54807  23984237.29807  -4972480.54207  -3874659.28407
  21624746.91609  21624746.48309  21624746.77109 -16482201.05809 -12843271.33509
  3 10 28  0 18 30.0000000  0  8G03G11G14G15G20G23G25G31
  23387432.61308  23387432.23608  23387433.26808  -7994316.85308  -6229335.30908
  21439421.08209  21439421.16909  21439419.30009 -19516800.93609 -15207891.13809
  21060015.30209  21060015.11309  21060014.03009 -18455232.10209 -14380692.50109
  23962517.94707  23962517.46807  23962519.76207  -7246907.69707  -5646922.46207
  23483030.18008  23483029.74308  23483029.45708  -8061617.05708  -6281777.90108
  22886501.02809  22886500.69309  22886501.14409  -8050503.22909  -6273110.41309
  23968419.50107  23968419.47207  23968419.03007  -5055606.81107  -3939432.99107
  21637801.95409  21637801.51709  21637801.57309 -16413596.61809 -12789813.34309
  3 10 28  0 19  0.0000000  0  8G03G11G14G15G20G23G25G31
  23406931.86808  23406931.49208  23406932.71708  -7891847.06108  -6149488.74008
  21426915.48409  21426915.47709  21426913.63209 -19582518.32609 -15259099.49809
  21068337.31209  21068337.12709  21068335.95309 -18411499.65109 -14346615.26709
  23980875.59107  23980874.85607  23980877.21107  -7150438.11707  -5571751.39707
  23468107.79508  23468107.21708  23468107.28908  -8140035.29208  -6342882.98808
  22899227.10409  22899226.78809  22899227.09509  -7983627.36709  -6220999.36109
  23952617.87707  23952617.68107  23952617.97007  -5138643.87707  -4004137.19007
  21650936.98409  21650936.58109  21650936.74109 -16344571.84709 -12736027.82209
  3 10 28  0 19 30.0000000  0  8G03G11G14G15G20G23G25G31
  23426453.33908  23426452.94608  23426454.16008  -7789260.96808  -6069551.53308
  21414462.54209  21414462.67209  21414460.78409 -19647958.48709 -15310091.83409
  21076756.49609  21076756.32309  21076755.15209 -18367256.64209 -14312140.19209
  23999265.38207  23999265.19507  23999266.89507  -7053798.69407  -5496447.96807
  23453212.72008  23453212.27108  23453212.45908  -8218310.49708  -6403876.62808
  22911963.67409  22911963.25109  22911963.46709  -7916696.99909  -6168845.83709
  23936835.57407  23936835.32407  23936836.01507  -5221583.63507  -4068765.56507
  21664152.62109  21664152.17309  21664152.48309 -16275123.77309 -12681912.45809
  3 10 28  0 20  0.0000000  0  8G03G11G14G15G20G23G25G31
  23445997.75308  23445997.53908  23445998.56408  -7686554.33908  -5989520.42608
  21402064.19309  21402064.27709  21402062.38609 -19713112.29609 -15360861.03909
  21085273.90109  21085273.64709  21085272.56809 -18322497.71309 -14277263.10209
  24017688.56307  24017688.36607  24017690.04807  -6956983.30007  -5421007.42707
  23438346.03808  23438345.57808  23438345.51908  -8296435.11908  -6464752.92608
  22924711.66409  22924711.35609  22924711.38209  -7849705.83909  -6116644.94409
  23921072.49007  23921072.26107  23921073.26807  -5304416.02607  -4133310.28607
  21677449.50409  21677449.21009  21677449.28209 -16205247.87609 -12627463.72509
  3 10 28  0 20 30.0000000  0  8G03G11G14G15G20G23G25G31
  23465562.81808  23465562.52208  23465563.67108  -7583738.66308  -5909404.33008
  21389719.17609  21389719.19909  21389717.30909 -19777986.38509 -15411412.27609
  21093887.12309  21093887.01809  21093885.84009 -18277233.79709 -14241992.51809
  24036143.84207  24036143.23507  24036145.15307  -6860001.53207  -5345437.24007
  23423506.43708  23423506.02508  23423505.52808  -8374417.87508  -6525518.67508
  22937469.52709  22937469.11109  22937469.06309  -7782663.05009  -6064403.81709
  23905328.87907  23905329.01307  23905329.91007  -5387146.97307  -4197775.94007
  21690825.81209  21690825.38509  21690825.29309 -16134955.62109 -12572690.55109
  3 10 28  0 21  0.0000000  0  8G03G11G14G15G20G23G25G31
  23485147.51808  23485147.39708  23485148.41608  -7480820.59808  -5829208.45708
  21377426.82709  21377426.92109  21377425.09109 -19842582.86209 -15461747.19509
  21102595.78009  21102595.59509  21102594.32509 -18231470.71609 -14206332.97209
  24054630.22007  24054629.60107  24054631.76707  -6762858.35307  -5269741.26607
  23408693.33508  23408692.79808  23408692.47208  -8452262.23908  -6586176.59108
  22950236.34809  22950235.88809  22950236.04609  -7715573.07909  -6012125.92509
  23889605.64607  23889605.50807  23889605.99707  -5469777.66307  -4262163.49007
  21704280.09109  21704279.62909  21704279.60109 -16064253.27009 -12517597.82409
  3 10 28  0 21 30.0000000  0  8G03G11G14G15G20G23G25G31
  23504752.71408  23504752.49308  23504753.35208  -7377796.52808  -5748929.98308
  21365188.90909  21365188.91209  21365187.12609 -19906893.85509 -15511859.65909
  21111399.90509  21111399.81809  21111398.53909 -18185204.03909 -14170281.01309
  24073147.53307  24073146.95107  24073148.89007  -6665548.36907  -5193915.31907
  23393907.13108  23393906.75008  23393906.45308  -8529962.03808  -6646721.85108
  22963013.13709  22963012.75809  22963012.91109  -7648430.46209  -5959807.01609
  23873901.80807  23873901.79007  23873903.13707  -5552298.77707  -4326465.65307
  21717812.99809  21717812.60509  21717812.61309 -15993137.28709 -12462182.78509
  3 10 28  0 22  0.0000000  0  8G03G11G14G15G20G23G25G31
  23524378.71908  23524378.45908  23524379.04708  -7274661.99308  -5668565.42208
  21353006.89109  21353006.92909  21353005.22409 -19970909.89409 -15561742.28909
  21120301.17709  21120300.90609  21120299.56209 -18138428.68709 -14133832.68509
  24091697.60307  24091697.43707  24091698.80907  -6568065.63107  -5117954.75407
  23379150.46708  23379150.09308  23379149.89508  -8607509.54108  -6707148.45108
  22975801.29209  22975800.94609  22975801.08209  -7581228.57809  -5907441.92109
  23858220.81907  23858220.94107  23858222.54307  -5634700.32607  -4390674.61907
  21731425.38909  21731425.02509  21731425.08909 -15921603.11309 -12406441.88809
  3 10 28  0 22 30.0000000  0  8G03G11G14G15G20G23G25G31
  23544023.12908  23544022.78808  23544023.26908  -7171429.55608  -5588124.57608
  21340879.83709  21340879.82009  21340877.98809 -20034638.86109 -15611401.22509
  21129296.65409  21129296.53109  21129295.28109 -18091156.29709 -14096997.05409
  24110278.63107  24110278.13707  24110279.92007  -6470420.69207  -5041867.80807
  23364420.84308  23364420.23108  23364420.21208  -8684914.12808  -6767463.68908
  22988598.82609  22988598.42709  22988598.49509  -7513977.68709  -5855038.63909
  23842562.27507  23842562.21407  23842563.52507  -5716989.23807  -4454795.82907
  21745115.22309  21745114.80809  21745114.88209 -15849663.00709 -12350384.68009
  3 10 28  0 23  0.0000000  0  8G03G11G14G15G20G23G25G31
  23563686.30208  23563685.82208  23563686.68108  -7068098.82308  -5507607.14508
  21328808.11209  21328808.15609  21328806.34009 -20098075.92809 -15660832.71109
  21138387.09909  21138386.92909  21138385.73809 -18043385.77609 -14059773.26809
  24128891.12407  24128890.64107  24128892.49507  -6372611.50507  -4965652.87607
  23349719.14708  23349718.61008  23349718.61008  -8762172.63608  -6827665.09408
  23001406.13509  23001405.70809  23001405.63709  -7446675.29409  -5802595.22209
  23826925.62207  23826925.48107  23826926.79807  -5799159.48607  -4518824.58207
  21758882.17009  21758881.80409  21758881.93409 -15777316.60909 -12294010.87909
  3 10 28  0 23 30.0000000  0  8G03G11G14G15G20G23G25G31
  23583366.51608  23583366.29708  23583366.94308  -6964677.73508  -5427019.30108
  21316791.21709  21316791.22909  21316789.67609 -20161224.61509 -15710039.48409
  21147570.87909  21147570.69709  21147569.50409 -17995124.57009 -14022167.13409
  24147533.80506  24147533.25006  24147535.53406  -6274644.32506  -4889314.82906
  23335044.33808  23335043.61508  23335043.35108  -8839290.14208  -6887756.63408
  23014222.16309  23014221.56709  23014221.56109  -7379327.25309  -5750116.24009
  23811311.10107  23811311.20807  23811312.64907  -5881213.22407  -4582762.53607
  21772725.02709  21772724.58409  21772724.79509 -15704571.75909 -12237326.59009
  3 10 28  0 24  0.0000000  0  8G03G11G14G15G20G23G25G31
  23603068.13208  23603067.77308  23603068.54808  -6861147.32708  -5346346.25708
  21304833.75609  21304833.71609  21304832.21509 -20224061.40709 -15759003.21509
  21156851.87709  21156851.67309  21156850.53909 -17946353.19609 -13984163.46309
  24166210.12506  24166209.84906  24166212.19406  -6176498.43106  -4812837.53506
  23320400.35908  23320399.86208  23320399.63608  -8916244.64608  -6947721.16208
  23027050.58409  23027050.12809  23027050.18809  -7311912.51809  -5697585.28909
  23795724.05007  23795723.98907  23795725.06407  -5963125.91007  -4646590.59607
  21786647.38309  21786646.95909  21786647.19609 -15631409.51809 -12180317.06509
  3 10 28  0 24 30.0000000  0  8G03G11G14G15G20G23G25G31
  23622784.68208  23622784.27008  23622785.12508  -6757536.18208  -5265610.31808
  21292931.19009  21292931.21709  21292929.60509 -20286610.00009 -15807742.38209
  21166224.56409  21166224.35909  21166223.19309 -17897099.44109 -13945783.91209
  24184916.40607  24184916.12507  24184917.75707  -6078200.63907  -4736241.88107
  23305782.52308  23305782.03608  23305781.63208  -8993061.88908  -7007578.72608
  23039886.71009  23039886.27309  23039886.48909  -7244457.65109  -5645023.07009
  23780158.87507  23780158.38007  23780159.88707  -6044920.89207  -4710326.93507
  21800643.58209  21800643.27209  21800643.44809 -15557858.43509 -12123004.55009
  3 10 28  0 25  0.0000000  0  8G03G11G14G15G20G23G25G31
  23642517.25308  23642517.06608  23642517.83608  -6653840.52808  -5184808.52908
  21281085.17709  21281085.11409  21281083.45509 -20348861.82709 -15856250.30309
  21175689.82709  21175689.55709  21175688.43209 -17847358.75109 -13907024.93209
  24203651.02906  24203650.47406  24203653.03706  -5979745.57606  -4659523.67606
  23291192.01909  23291191.73309  23291191.20009  -9069734.95509  -7067323.94209
  23052731.91109  23052731.37709  23052731.58909  -7176956.58909  -5592424.85109
  23764617.92707  23764617.85707  23764619.01207  -6126588.59607  -4773964.09707
  21814714.76709  21814714.37509  21814714.36009 -15483914.56609 -12065385.96009
  3 10 28  0 25 30.0000000  0  8G03G11G14G15G20G23G25G31
  23662266.19208  23662266.00108  23662266.79308  -6550059.49108  -5103940.19608
  21269296.56409  21269296.59509  21269294.88109 -20410811.58009 -15904522.84409
  21185248.03709  21185247.80909  21185246.77109 -17797129.63909 -13867885.36309
  24222416.70106  24222416.22906  24222418.26006  -5881130.79206  -4582681.00906
  23276629.78709  23276629.41509  23276629.32009  -9146260.00309  -7126953.82309
  23065586.24709  23065585.80109  23065585.82409  -7109406.36209  -5539788.32009
  23749102.19107  23749101.96107  23749103.30607  -6208122.34407  -4837496.87707
  21828860.68409  21828860.28309  21828860.49609 -15409576.92309 -12007460.54409
  3 10 28  0 26  0.0000000  0  8G03G11G14G15G20G23G25G31
  23682030.99308  23682030.66708  23682031.88708  -6446193.43208  -5023005.62608
  21257566.26209  21257566.26209  21257564.58209 -20472455.19509 -15952556.83409
  21194899.08009  21194898.88909  21194897.96109 -17746412.02809 -13828365.14809
  24241213.57106  24241212.92306  24241214.55806  -5782354.97806  -4505712.84706
  23262096.27009  23262095.92909  23262095.42709  -9222634.78409  -7186466.60909
  23078450.36509  23078449.78809  23078449.91409  -7041805.33809  -5487112.20609
  23733613.36507  23733613.24107  23733614.86107  -6289516.94307  -4900921.24707
  21843081.52209  21843081.10409  21843081.21909 -15334846.08009 -11949228.73309
  3 10 28  0 26 30.0000000  0  8G03G11G14G15G20G23G25G31
  23701810.45207  23701810.26107  23701811.28307  -6342251.60807  -4942012.01907
  21245893.30209  21245893.27609  21245891.65509 -20533796.90609 -16000355.57409
  21204641.71309  21204641.53409  21204640.47509 -17695214.52609 -13788470.99109
  24260039.72507  24260039.52207  24260040.48007  -5683425.53407  -4428624.98407
  23247590.09609  23247589.64509  23247589.37509  -9298865.41909  -7245867.07609
  23091322.80509  23091322.24709  23091322.33009  -6974160.25909  -5434401.76709
  23718150.44207  23718150.47107  23718151.73107  -6370776.29707  -4964240.21307
  21857375.37809  21857375.03809  21857375.09609 -15259731.08409 -11890697.58009
  3 10 28  0 27  0.0000000  0  8G03G11G14G15G20G23G25G31
  23721605.90008  23721605.75108  23721606.61508  -6238226.52308  -4860953.54208
  21234279.93709  21234279.99209  21234278.37209 -20594824.88409 -16047909.84609
  21214477.15709  21214477.00609  21214475.89609 -17643528.98809 -13748196.54509
  24278895.53106  24278895.03706  24278897.61706  -5584333.55406  -4351410.47806
  23233113.24709  23233112.86809  23233112.61309  -9374941.37909  -7305147.01309
  23104205.50009  23104204.96309  23104204.98809  -6906461.61009  -5381649.58409
  23702715.38607  23702715.42807  23702716.32207  -6451887.20607  -5027443.50007
  21871743.67109  21871743.31709  21871743.52909 -15184224.54109 -11831861.33009
  3 10 28  0 27 30.0000000  0  8G03G11G14G15G20G23G25G31
  23741415.53808  23741415.38108  23741416.23308  -6134125.93208  -4779836.21608
  21222725.70109  21222725.73209  21222724.21309 -20655542.15009 -16095222.00709
  21224404.17609  21224403.92209  21224402.66509 -17591362.90009 -13707547.64509
  24297781.94006  24297781.57906  24297784.06006  -5485085.03106  -4274073.98806
  23218665.31909  23218664.75909  23218664.35409  -9450867.56909  -7364310.24209
  23117097.27609  23117096.77009  23117096.80609  -6838715.00509  -5328860.03209
  23687308.40107  23687308.33007  23687309.09407  -6532852.25807  -5090533.14607
  21886185.09609  21886184.60809  21886185.05509 -15108334.21709 -11772726.02809
  3 10 28  0 28  0.0000000  0  8G03G11G14G15G20G23G25G31
  23761236.54108  23761236.10308  23761236.73008  -6029967.19508  -4698673.58708
  21211228.10109  21211228.20009  21211226.76209 -20715961.69409 -16142302.17309
  21234419.06109  21234418.92109  21234417.88609 -17538732.94609 -13666537.28909
  24316695.68207  24316695.35007  24316696.57507  -5385695.71707  -4196627.78207
  23204242.66209  23204242.25609  23204241.77209  -9526658.50609  -7423368.09309
  23129995.17409  23129994.78109  23129994.76909  -6770935.75809  -5276045.05109
  23671926.95807  23671927.00507  23671928.08907  -6613682.90007  -5153518.05307
  21900696.24909  21900695.82609  21900696.24509 -15032077.59709 -11713305.29909
  3 10 28  0 28 30.0000000  0  8G03G11G14G15G20G23G25G31
  23781071.99708  23781071.51908  23781071.96708  -5925732.05208  -4617451.40808
  21199791.60809  21199791.71209  21199790.42209 -20776060.40809 -16189132.34109
  21244526.06709  21244525.96109  21244524.90509 -17485620.19109 -13625150.72609
  24335639.33607  24335639.23207  24335640.01007  -5286145.58207  -4119056.25707
  23189849.80509  23189849.53109  23189848.82409  -9602292.93209  -7482303.98709
  23142903.14409  23142902.71709  23142903.06609  -6703103.27809  -5223188.59209
  23656575.59107  23656575.51907  23656576.40907  -6694355.01407  -5216379.41707
  21915280.65109  21915280.19409  21915280.59009 -14955436.36309 -11653584.87209
  3 10 28  0 29  0.0000000  0  8G03G11G14G15G20G23G25G31
  23800919.54108  23800918.90508  23800919.99308  -5821431.75008  -4536178.46008
  21188415.15809  21188415.20709  21188413.83409 -20835844.98609 -16235717.72309
  21254722.98409  21254722.86709  21254721.70409 -17432035.33709 -13583396.29309
  24354610.84106  24354610.53106  24354612.29406  -5186444.32706  -4041366.98106
  23175485.48509  23175485.02409  23175484.35209  -9677778.88809  -7541124.18009
  23155819.54809  23155819.14509  23155819.55609  -6635226.62809  -5170297.71209
  23641253.03507  23641252.98107  23641254.19807  -6774874.14207  -5279121.58207
  21929936.08309  21929935.58509  21929935.90709 -14878421.79409 -11593573.54109
  3 10 28  0 29 30.0000000  0  8G03G11G14G15G20G23G25G31
  23820777.57408  23820777.33108  23820777.72608  -5717076.28408  -4454862.53008
  21177097.26909  21177097.28209  21177096.00209 -20895320.87509 -16282062.57009
  21265007.83209  21265007.67809  21265006.56309 -17377987.95109 -13541281.44909
  24373611.03707  24373610.71407  24373612.14307  -5086600.20907  -3963566.37907
  23161147.76009  23161147.41609  23161146.76809  -9753123.64209  -7599834.34809
  23168743.08209  23168742.46409  23168743.01609  -6567313.61409  -5117378.49609
  23625958.45307  23625958.73207  23625959.90907  -6855245.06907  -5341748.27207
  21944660.57609  21944660.10709  21944660.31509 -14801043.91309 -11533279.10509
  3 10 28  0 30  0.0000000  0  8G03G11G14G15G20G23G25G31
  23840647.71507  23840647.57007  23840648.39207  -5612657.38907  -4373497.16607
  21165840.60409  21165840.60509  21165839.29409 -20954475.19509 -16328156.84509
  21275382.54709  21275382.27209  21275381.10909 -17323469.30909 -13498799.39309
  24392640.19207  24392639.74307  24392641.78507  -4986603.50307  -3885646.87007
  23146839.07009  23146838.69109  23146838.08209  -9828316.26709  -7658425.97709
  23181675.54009  23181674.99909  23181675.36709  -6499353.84109  -5064422.84909
  23610695.46207  23610695.48107  23610696.43207  -6935454.08207  -5404248.77607
  21959455.58609  21959455.20609  21959455.58709 -14723294.56309 -11472695.21209
  3 10 28  0 30 30.0000000  0  8G03G11G14G15G20G23G25G31
  23860530.41107  23860530.35507  23860530.88807  -5508172.33507  -4292080.26607
  21154646.50909  21154646.53009  21154645.18409 -21013300.76209 -16373994.94909
  21285847.29609  21285847.06909  21285845.94209 -17268476.24509 -13455947.65409
  24411698.75107  24411698.26907  24411699.30407  -4886449.94007  -3807605.13707
  23132560.40709  23132560.05309  23132559.53109  -9903350.99509  -7716894.56909
  23194617.56809  23194617.03109  23194617.63809  -6431342.54409  -5011427.04609
  23595465.34907  23595465.11007  23595465.90407  -7015492.85307  -5466616.63807
  21974322.06209  21974321.60709  21974322.03009 -14645171.20009 -11411819.88509
  3 10 28  0 31  0.0000000  0  8G03G11G14G15G20G23G25G31
  23880421.53807  23880421.42207  23880422.28907  -5403643.15907  -4210628.97707
  21143511.55509  21143511.55009  21143510.35309 -21071814.89009 -16419590.37409
  21296398.31509  21296398.06609  21296396.98509 -17213030.27909 -13412743.00809
  24430783.32807  24430782.88207  24430783.84607  -4786159.77307  -3729456.96207
  23118308.26409  23118307.94909  23118307.19709  -9978246.81709  -7775254.93009
  23207565.78309  23207565.33909  23207565.83209  -6363299.35409  -4958406.39909
  23580263.36907  23580263.02007  23580264.63107  -7095377.67807  -5528864.54607
  21989255.44309  21989255.02709  21989255.43309 -14566695.87809 -11350670.29909
  3 10 28  0 31 30.0000000  0  8G03G11G14G15G20G23G25G31
  23900324.48707  23900324.25907  23900325.23507  -5299052.73207  -4129129.96707
  21132440.01109  21132440.02009  21132438.88909 -21129995.98209 -16464926.29309
  21307038.89309  21307038.62609  21307037.68809 -17157113.63009 -13369171.59709
  24449897.11407  24449897.07607  24449898.67207  -4685714.30007  -3651187.77707
  23104086.29509  23104085.87609  23104085.37909 -10052983.78409  -7833491.50909
  23220523.83909  23220523.34609  23220523.86409  -6295204.87109  -4905345.78609
  23565095.48207  23565095.25807  23565096.40007  -7175085.85007  -5590974.78707
  22004259.13509  22004258.71109  22004259.07809 -14487851.51609 -11289233.15009
  3 10 28  0 32  0.0000000  0  8G03G11G14G15G20G23G25G31
  23920235.75807  23920235.90407  23920236.48507  -5194418.22407  -4047596.59207
  21121429.54009  21121429.60009  21121428.25309 -21187856.66909 -16510012.54509
  21317765.83309  21317765.57109  21317764.57709 -17100743.29909 -13325246.66709
  24469038.19407  24469037.87607  24469039.35807  -4585129.18807  -3572809.76607
  23089891.65509  23089891.28709  23089890.97209 -10127576.25009  -7891615.47809
  23233488.64709  23233488.29109  23233488.68009  -6227074.34809  -4852257.09109
  23549958.77907  23549958.61007  23549959.67907  -7254629.28807  -5652956.67107
  22019329.69309  22019329.27709  22019329.55409 -14408655.59909 -11227522.06809
  3 10 28  0 32 30.0000000  0  8G03G11G14G15G20G23G25G31
  23940156.53107  23940156.36607  23940157.47607  -5089734.62107  -3966024.98507
  21110481.82509  21110481.84109  21110480.48209 -21245387.46409 -16554841.73309
  21328580.12909  21328579.91309  21328578.92209 -17043913.94209 -13280964.05409
  24488206.99107  24488206.80907  24488208.12007  -4484397.96807  -3494317.91607
  23075726.17109  23075725.76009  23075725.46809 -10202016.35009  -7949620.72609
  23246461.90009  23246461.32209  23246461.86609  -6158900.33409  -4799134.50509
  23534855.44007  23534855.30907  23534856.11207  -7333997.08407  -5714801.69507
  22034468.22209  22034467.76709  22034467.77009 -14329103.19709 -11165533.20109
  3 10 28  0 33  0.0000000  0  8G03G11G14G15G20G23G25G31
  23960087.22507  23960086.94607  23960087.70507  -4984998.85907  -3884412.70907
  21099598.45709  21099598.50509  21099596.96309 -21302580.30809 -16599407.58609
  21339482.48509  21339482.24509  21339481.41909 -16986621.71709 -13236320.76909
  24507404.28807  24507404.00407  24507405.42107  -4383515.84907  -3415708.48907
  23061590.59909  23061590.42509  23061590.09209 -10276297.82209  -8007502.36809
  23259444.18509  23259443.70109  23259444.25709  -6090677.48409  -4745973.86609
  23519787.40507  23519787.34707  23519788.11607  -7413180.40707  -5776502.96207
  22049674.96409  22049674.51709  22049674.44209 -14249191.25009 -11103264.16409
  3 10 28  0 33 30.0000000  0  8G03G11G14G15G20G23G25G31
  23980027.36507  23980027.02107  23980027.73907  -4880213.86807  -3802762.08807
  21088779.57409  21088779.65109  21088778.07209 -21359433.50909 -16643708.78509
  21350472.29109  21350472.14509  21350471.22109 -16928869.27409 -13191318.87009
  24526629.47706  24526629.12606  24526630.78106  -4282484.10006  -3336982.44406
  23047485.64009  23047485.24009  23047485.22809 -10350420.72809  -8065260.44509
  23272435.66409  23272435.03409  23272435.88109  -6022406.56209  -4692775.77009
  23504755.11107  23504754.97807  23504755.47707  -7492176.74907  -5838058.53507
  22064949.51009  22064949.08209  22064948.98109 -14168922.68309 -11040717.24309
  3 10 28  0 34  0.0000000  0  8G03G11G14G15G20G23G25G31
  23999973.35207  23999973.23007  23999973.75807  -4775397.90707  -3721087.31807
  21078022.71009  21078022.79209  21078021.31509 -21415961.12309 -16687756.27609
  21361546.45709  21361546.30709  21361545.28009 -16870674.46309 -13145972.26509
  24545881.07006  24545880.32806  24545881.26706  -4181319.50606  -3258152.91206
  23033407.62909  23033407.38409  23033407.43109 -10424400.64409  -8122907.10609
  23285433.24609  23285432.64109  23285433.62609  -5954103.45909  -4639552.59909
  23489755.41007  23489755.26807  23489755.91107  -7570999.13607  -5899478.55907
  22080288.53609  22080288.04109  22080288.01809 -14088316.06209 -10977906.90109
  3 10 28  0 34 30.0000000  0  8G03G11G14G15G20G23G25G31
  24019925.70007  24019925.43707  24019925.83507  -4670548.05307  -3639386.15307
  21067329.39709  21067329.37909  21067327.94409 -21472155.51909 -16731544.11909
  21372705.49109  21372705.35209  21372704.21009 -16812034.12309 -13100278.49509
  24565158.33506  24565157.82606  24565159.47106  -4080017.67806  -3179216.43606
  23019358.05609  23019357.70409  23019357.87509 -10498231.80309  -8180437.85109
  23298437.75709  23298437.27409  23298438.22609  -5885763.27809  -4586300.53109
  23474790.86408  23474791.02808  23474791.29008  -7649639.15308  -5960756.48408
  22095692.31509  22095691.79809  22095691.88309 -14007368.79909 -10914831.12609
  3 10 28  0 35  0.0000000  0  8G03G11G14G15G20G23G25G31
  24039885.19707  24039885.09007  24039885.59707  -4565660.15707  -3557655.34507
  21056701.03709  21056701.08109  21056699.57809 -21528008.07309 -16775065.58509
  21383950.04409  21383949.84909  21383948.84309 -16752943.74109 -13054234.04209
  24584461.52305  24584461.53905  24584463.30305  -3978572.88805  -3100168.56205
  23005338.06109  23005337.68709  23005337.73809 -10571907.13809  -8237847.17009
  23311450.61009  23311450.33409  23311451.31609  -5817379.60209  -4533014.56809
  23459862.87008  23459862.47608  23459862.99508  -7728086.68008  -6021884.42008
  22111161.65009  22111161.25209  22111161.28409 -13926076.83409 -10851486.74709
  3 10 28  0 35 30.0000000  0  8G03G11G14G15G20G23G25G31
  24059848.25007  24059848.00207  24059848.33307  -4460753.42207  -3475909.84107
  21046134.91109  21046134.93309  21046133.41009 -21583533.47409 -16818332.12909
  21395276.56409  21395276.32009  21395275.34109 -16693422.35109 -13007853.73909
  24603789.14205  24603789.24505  24603791.49605  -3877002.86905  -3021023.10805
  22991344.31809  22991343.98509  22991344.38909 -10645443.02409  -8295147.83209
  23324468.80009  23324468.28209  23324469.43909  -5748969.48109  -4479708.00409
  23444968.61807  23444968.62207  23444969.24607  -7806355.37507  -6082872.99607
  22126692.99509  22126692.49109  22126692.54209 -13844459.57809 -10787888.90109
  3 10 28  0 36  0.0000000  0  8G03G11G14G15G20G23G25G31
  24079817.73707  24079817.37207  24079818.84407  -4355811.70207  -3394137.08007
  21035634.91409  21035634.90909  21035633.49709 -21638711.10809 -16861327.68809
  21406688.18509  21406688.07509  21406687.13109 -16633453.04809 -12961124.41209
  24623145.32605  24623144.46805  24623146.36805  -3775289.85305  -2941766.21105
  22977381.19009  22977380.73809  22977381.12409 -10718820.33309  -8352324.92809
  23337495.40109  23337494.80709  23337496.04509  -5680514.49209  -4426366.47809
  23430112.61507  23430112.63007  23430113.42007  -7884424.05507  -6143705.71207
  22142289.05709  22142288.68509  22142288.71809 -13762501.01709 -10724025.10309
  3 10 28  0 36 30.0000000  0  8G03G11G14G15G20G23G25G31
  24099793.57907  24099793.45507  24099794.23607  -4250839.02707  -3312340.21207
  21025201.12209  21025201.19009  21025199.86909 -21693540.53209 -16904051.91109
  21418184.30909  21418184.21509  21418183.44809 -16573040.02509 -12914049.33009
  24642527.51805  24642527.24705  24642528.24905  -3673436.53105  -2862400.01005
  22963447.55409  22963447.27409  22963447.75409 -10792040.39809  -8409379.49809
  23350530.14609  23350529.72909  23350530.70509  -5612016.57709  -4372991.50709
  23415295.21308  23415295.26108  23415295.51508  -7962291.27508  -6204381.44308
  22157949.35609  22157948.92509  22157949.31809 -13680205.69309 -10659898.89409
  3 10 28  0 37  0.0000000  0  8G03G11G14G15G20G23G25G31
  24119773.58307  24119773.40907  24119774.75107  -4145843.16107  -3230525.26507
  21014833.25009  21014833.28209  21014831.75309 -21748024.90309 -16946507.26309
  21429763.61809  21429763.47109  21429762.68709 -16512190.53709 -12866634.14509
  24661933.91305  24661933.81205  24661935.92805  -3571449.42105  -2782929.52805
  22949543.36509  22949543.01209  22949543.43809 -10865108.04009  -8466315.29209
  23363572.13109  23363571.68709  23363572.75509  -5543481.16809  -4319587.31509
  23400515.47408  23400515.45008  23400515.88308  -8039958.96408  -6264901.71008
  22173672.15209  22173671.74409  22173672.13909 -13597581.43809 -10595516.37809
  3 10 28  0 37 30.0000000  0  8G03G11G14G15G20G23G25G31
  24139757.74207  24139757.76407  24139758.82107  -4040826.11707  -3148693.81407
  21004531.38209  21004531.43209  21004529.84809 -21802161.63509 -16988691.73209
  21441425.74109  21441425.51609  21441424.64509 -16450906.25509 -12818880.16009
  24681367.20205  24681366.86505  24681369.78805  -3469328.86605  -2703355.09705
  22935668.11109  22935667.77509  22935668.25809 -10938022.40809  -8523131.65709
  23376621.02509  23376620.52309  23376621.72409  -5474907.89709  -4266153.62209
  23385774.69408  23385774.65008  23385774.88708  -8117423.44108  -6325263.62808
  22189457.13609  22189456.66809  22189457.13609 -13514630.37709 -10530879.20709
  3 10 28  0 38  0.0000000  0  8G03G11G14G15G20G23G25G31
  24159744.10907  24159743.75507  24159744.94607  -3935798.11907  -3066853.83707
  20994294.48609  20994294.50509  20994293.03909 -21855956.47409 -17030609.78809
  21453168.51509  21453168.33509  21453167.51509 -16389197.12409 -12770795.12509
  24700824.09805  24700823.38705  24700824.93905  -3367083.52605  -2623683.42605
  22921820.70009  22921820.37609  22921820.86409 -11010791.00309  -8579834.43209
  23389675.76409  23389675.25909  23389676.50609  -5406304.89009  -4212696.75609
  23371071.12508  23371070.91408  23371071.55608  -8194689.79308  -6385471.15708
  22205302.56809  22205302.10309  22205302.43909 -13431363.08909 -10465995.62109
  3 10 28  0 38 30.0000000  0  8G03G11G14G15G20G23G25G31
  24179732.62307  24179732.33707  24179733.88307  -3830756.32907  -2985003.09907
  20984124.02509  20984124.04509  20984122.61509 -21909402.53209 -17072256.06709
  21464992.87509  21464992.70909  21464991.74209 -16327060.40209 -12722376.90309
  24720305.91405  24720304.92405  24720307.40705  -3264709.03505  -2543911.11905
  22908002.29909  22908001.84209  22908002.20909 -11083407.99409  -8636419.07309
  23402737.28809  23402736.83409  23402737.91709  -5337667.10009  -4159212.78309
  23356407.18008  23356407.15208  23356407.64708  -8271749.85408  -6445517.94408
  22221208.38709  22221207.92309  22221208.53909 -13347777.03209 -10400863.64509
  3 10 28  0 39  0.0000000  0  8G03G11G14G15G20G23G25G31
  24199726.64907  24199726.49307  24199727.91707  -3725687.45207  -2903131.27307
  20974023.36709  20974023.44909  20974022.03409 -21962481.31509 -17113616.15909
  21476901.20609  21476901.02609  21476899.99709 -16264481.79009 -12673614.35109
  24739813.97705  24739813.21905  24739815.47805  -3162190.38405  -2464026.46405
  22894215.60009  22894215.08509  22894215.76009 -11155857.07809  -8692872.88209
  23415808.39409  23415807.79809  23415808.95509  -5268978.63709  -4105689.33109
  23341785.72708  23341785.85208  23341786.71608  -8348584.40908  -6505389.02408
  22237177.24709  22237176.84709  22237177.79309 -13263858.86809 -10335472.88509
  3 10 28  0 39 30.0000000  0  8G03G11G14G15G20G23G25G31
  24219720.79007  24219720.70807  24219721.90907  -3620617.05307  -2821258.25707
  20963988.59009  20963988.68409  20963987.24509 -22015214.44209 -17154706.90709
  21488888.67809  21488888.50009  21488887.55909 -16201487.10809 -12624527.59109
  24759345.27105  24759344.53705  24759347.32905  -3059552.11005  -2384048.64305
  22880456.40409  22880456.18109  22880456.60309 -11228161.44609  -8749213.92009
  23428884.59709  23428883.94409  23428885.04409  -5200263.28109  -4052144.92009
  23327203.76008  23327203.81708  23327204.11808  -8425214.02408  -6565100.38908
  22253204.72609  22253204.33509  22253205.21109 -13179634.90509 -10269843.84709
  3 10 28  0 40  0.0000000  0  8G03G11G14G15G20G23G25G31
  24239716.67407  24239716.56107  24239717.49707  -3515539.63607  -2739379.75507
  20954021.51309  20954021.52209  20954020.05309 -22067591.91209 -17195520.52009
