     2.10           OBSERVATION DATA    G (GPS)             RINEX VERSION / TYPE
teqc  2002Dec5      gpsops              20031029 00:45:14UTCPGM / RUN BY / DATE
Linux 2.0.36|Pentium II|gcc -static|Linux|486/DX+           COMMENT
ASC1                                                        MARKER NAME
30602M001                                                   MARKER NUMBER
GGN                 JPL                                     OBSERVER / AGENCY
T337-U              AOA SNR-8000 ACT    3.3.32.2            REC # / TYPE / VERS
203                 AOAD/M_T        NONE                    ANT # / TYPE
  6118526.0694 -1572344.7417  -876451.0977                  APPROX POSITION XYZ
        0.0677        0.0000        0.0000                  ANTENNA: DELTA H/E/N
     1     1                                                WAVELENGTH FACT L1/2
     7    L1    L2    P1    P2    C1    S1    S2            # / TYPES OF OBSERV
    30.0000                                                 INTERVAL
                                                            COMMENT
This data is provided as a public service by NASA/JPL.      COMMENT
No warranty is expressed or implied regarding suitability   COMMENT
for use.  For further information, contact:                 COMMENT
Dave Stowers, NASA/JPL m/s 238-600                          COMMENT
4800 Oak Grove Drive, Pasadena CA 91109 USA                 COMMENT
                                                            COMMENT
    P1 =    P1  TurboRogue; =    Y1  Benchmark              COMMENT
    L1 = L1(CA)                                             COMMENT
    P2 =    P2  TurboRogue; =    Y2  Benchmark              COMMENT
    L2 = L2(P2) TurboRogue; = L2(Y2) Benchmark              COMMENT
 SNR is mapped to RINEX snr flag value [1,4-9]              COMMENT
    SNR:  >=316 >=100 >=31.6 >=10 >=3.2    >0 bad=0         COMMENT
L1 & L2:      9     8     7     6     5     4     1         COMMENT
teqc windowed: start @ 2003 Oct 28 00:00:00.000             COMMENT
teqc windowed: delta = 86399.000 sec                        COMMENT
  2003    10    28     0     0    0.0000000     GPS         TIME OF FIRST OBS
                                                            END OF HEADER
 03 10 28  0  0  0.0000000  0  9G 3G13G 1G27G11G31G20G 2G16
      4432.999 8      3454.584 7  22903239.466    22903251.446    22903239.657
       107.000          66.000
  -4929643.254 7  -3841274.043 6  24052140.691    24052149.635    24052140.534
        33.000          20.000
 -14840101.153 8 -11563686.798 8  22113587.973    22113597.923    22113588.212
       177.000         124.000
   -202429.902 6   -157738.779 5  24234356.369    24234370.812    24234356.231
        22.000           8.000
   2266079.660 6   1765781.051 6  24778465.323    24778479.847    24778465.301
        21.000          11.000
   -976921.310 8   -761239.733 8  22351021.594    22351032.561    22351021.973
       142.000         107.000
   2121425.993 8   1653047.141 8  21714575.369    21714587.072    21714575.949
       255.000         196.000
   7516461.387 8   5856987.466 7  22405638.435    22405648.294    22405639.079
       103.000          62.000
  -2204091.549 6  -1717429.723 6  24974658.464    24974665.445    24974658.721
        23.000          13.000
 03 10 28  0  0 30.0000000  0  9G 3G13G 1G27G11G31G20G 2G16
      9272.554 8      7225.945 7  22904159.929    22904172.261    22904160.339
       114.000          70.000
  -5014235.630 7  -3907190.094 6  24036043.366    24036052.057    24036042.849
        35.000          20.000
 -14896488.543 8 -11607624.947 8  22102857.818    22102867.780    22102858.130
       177.000         124.000
   -224772.258 6   -175148.476 4  24230103.274    24230115.581    24230104.250
        16.000           1.000
   2276506.611 6   1773905.992 6  24780448.994    24780464.312    24780449.188
        21.000          12.000
  -1018505.063 8   -793643.456 8  22343109.101    22343120.351    22343109.593
       144.000         107.000
   2167818.880 8   1689197.403 8  21723403.663    21723415.363    21723404.225
       256.000         192.000
   7601217.197 8   5923031.082 7  22421766.768    22421776.666    22421767.414
       105.000          60.000
  -2101397.230 6  -1637407.991 6  24994200.432    24994207.193    24994200.581
        21.000          14.000
 03 10 28  0  1  0.0000000  0  8G 3G13G 1G11G31G20G 2G16
     14533.744 8     11325.544 7  22905161.255    22905172.744    22905161.623
       106.000          61.000
  -5098853.589 7  -3973126.101 6  24019941.055    24019949.689    24019940.364
        36.000          20.000
 -14952670.833 8 -11651403.278 8  22092166.632    22092176.412    22092166.927
       178.000         126.000
   2286710.927 6   1781857.434 6  24782391.746    24782406.124    24782392.329
        24.000          12.000
  -1059808.590 8   -825828.329 8  22335249.573    22335261.002    22335249.958
       159.000         128.000
   2214661.397 8   1725698.026 8  21732317.509    21732329.375    21732318.071
       254.000         192.000
   7686236.571 8   5989280.072 7  22437945.220    22437955.150    22437945.607
       105.000          58.000
  -1998681.093 6  -1557369.278 6  25013746.535    25013753.585    25013746.462
        19.000          14.000
 03 10 28  0  1 30.0000000  0  8G 3G13G 1G11G31G20G 2G16
     20216.121 8     15752.730 7  22906243.193    22906254.423    22906243.525
       112.000          60.000
  -5183495.780 7  -4039080.998 6  24003834.243    24003842.854    24003834.187
        37.000          22.000
 -15008646.201 8 -11695020.370 8  22081514.653    22081524.537    22081515.032
       176.000         128.000
   2296691.614 6   1789634.638 6  24784290.699    24784305.299    24784290.910
        23.000          11.000
  -1100831.510 8   -857794.683 8  22327443.495    22327455.084    22327443.934
       155.000         116.000
   2261950.414 8   1762546.576 8  21741316.320    21741327.953    21741316.863
       254.000         186.000
   7771515.833 8   6055731.569 7  22454173.250    22454183.143    22454173.626
       105.000          57.000
  -1895946.175 6  -1477315.946 6  25033295.492    25033303.069    25033295.646
        17.000          14.000
 03 10 28  0  7  0.0000000  0  3G 1G20G 3
        -1.08318         -.24618  21159909.211    21159919.113    21159909.573
       176.000         139.000
         -.86718         -.13518  21038601.658    21038613.394    21038602.197
       249.000         170.000
         -.53218          .48817  22116326.446    22116339.031    22116326.989
       114.000          73.000
 03 10 28  0  7 30.0000000  0  7G27G11G 1G31G20G 3G16
         -.62116         -.82716  23363982.909    23363998.114    23363983.319
        25.000          13.000
         -.07016         -.07016  23996520.557    23996535.067    23996520.640
        24.000          13.000
    -53500.771 8    -41688.280 8  21149728.539    21149738.564    21149728.824
       180.000         142.000
         -.40518         -.91618  21430881.770    21430892.138    21430882.199
       175.000         129.000
     52242.735 8     40709.424 8  21048542.695    21048554.662    21048543.235
       246.000         172.000
     10619.198 8      8275.573 7  22118347.185    22118359.800    22118347.111
       113.000          69.000
         -.39216         -.92315  24460792.539    24460798.122    24460793.028
        15.000           5.000
 03 10 28  0  8  0.0000000  0  7G27G11G 1G31G20G 3G16
    -22127.430 6    -17241.608 6  23359771.525    23359788.815    23359772.098
        24.000          17.000
      6844.705 6      5333.641 6  23997822.983    23997837.404    23997822.761
        24.000          12.000
   -106745.532 8    -83177.687 8  21139596.428    21139606.322    21139596.704
       189.000         142.000
    -37356.285 8    -29109.543 8  21423773.388    21423783.678    21423773.838
       170.000         123.000
    104915.183 8     81753.584 8  21058565.725    21058577.412    21058566.206
       252.000         174.000
     21688.028 8     16900.674 7  22120453.242    22120466.087    22120453.525
       107.000          67.000
    102566.182 6     79921.263 5  24480310.343    24480315.191    24480310.939
        16.000           4.000
 03 10 28  0  8 30.0000000  0  9G27G11G13G 1G31G20G 3G 2G16
    -44230.116 6    -34463.804 6  23355565.461    23355582.029    23355566.215
        22.000          16.000
     13469.251 6     10495.754 6  23999083.524    23999097.948    23999083.982
        23.000          13.000
         -.63017          .38116  22970794.508    22970802.569    22970794.523
        44.000          26.000
   -159739.211 8   -124471.456 8  21129512.230    21129521.993    21129512.513
       198.000         146.000
    -74391.054 8    -57967.892 8  21416726.087    21416736.355    21416726.460
       174.000         124.000
    158006.271 8    123123.594 8  21068668.260    21068679.880    21068668.862
       237.000         162.000
     33200.065 8     25870.936 7  22122644.227    22122657.069    22122644.705
       111.000          72.000
         -.58317          .17817  21878958.024    21878967.817    21878958.292
        74.000          45.000
    205126.184 6    159838.330 5  24499826.674    24499831.271    24499827.272
        18.000           4.000
 03 10 28  0  9  0.0000000  0  9G27G11G13G 1G31G20G 3G 2G16
    -66319.374 6    -51675.417 6  23351361.301    23351377.843    23351362.074
        25.000          19.000
     19863.007 6     15478.026 6  24000299.570    24000314.752    24000299.579
        21.000          12.000
    -84935.419 7    -66182.479 6  22954631.854    22954639.907    22954631.755
        44.000          26.000
   -212489.380 8   -165575.480 8  21119474.063    21119483.973    21119474.227
       199.000         148.000
   -111112.358 8    -86581.705 8  21409737.964    21409748.347    21409738.328
       176.000         122.000
    211505.146 8    164811.951 8  21078848.122    21078859.436    21078848.658
       245.000         166.000
     45146.838 8     35180.304 7  22124917.445    22124930.238    22124918.159
       109.000          71.000
     88633.247 7     69065.622 7  21895824.277    21895834.133    21895824.606
        73.000          44.000
    307667.072 6    239740.510 4  24519339.688    24519343.900    24519340.182
        17.000           3.000
 03 10 28  0  9 30.0000000  0  9G27G11G13G 1G31G20G 3G 2G16
    -88401.476 6    -68881.885 6  23347158.982    23347172.893    23347159.544
        23.000          12.000
     26022.087 6     20277.484 6  24001471.790    24001486.737    24001471.703
        23.000          14.000
   -169865.169 7   -132361.428 6  22938469.905    22938478.271    22938469.160
        45.000          27.000
   -264997.354 8   -206490.784 8  21109482.333    21109491.930    21109482.643
       205.000         148.000
   -147522.390 8   -114952.985 8  21402809.203    21402819.476    21402809.523
       178.000         120.000
    265402.787 8    206810.743 8  21089104.066    21089115.304    21089104.682
       242.000         167.000
     57524.549 8     44825.580 7  22127272.453    22127285.360    22127272.564
       108.000          72.000
    177473.647 7    138292.020 7  21912729.951    21912739.975    21912730.650
        72.000          45.000
    410182.845 6    319623.120 4  24538847.855    24538851.404    24538848.130
        19.000           3.000
 03 10 28  0 10  0.0000000  0  9G27G11G13G 1G31G20G 3G 2G16
   -110436.228 6    -86051.094 6  23342964.821    23342981.529    23342965.189
        23.000          18.000
     31985.968 6     24924.837 6  24002606.843    24002620.928    24002606.879
        23.000          12.000
   -254747.556 7   -198503.472 6  22922317.366    22922325.460    22922316.990
        47.000          26.000
   -317220.563 8   -247184.192 8  21099544.603    21099554.222    21099545.003
       208.000         150.000
   -183578.795 8   -143048.652 8  21395947.925    21395957.903    21395948.294
       179.000         118.000
    319738.650 8    249151.390 8  21099442.866    21099454.049    21099443.380
       221.000         150.000
     70373.934 8     54838.274 7  22129717.733    22129730.294    22129717.408
       111.000          69.000
    266557.663 7    207708.254 7  21929682.061    21929692.044    21929682.381
        73.000          43.000
    512711.247 6    399515.593 4  24558357.748    24558361.270    24558358.431
        18.000           2.000
 03 10 28  0 10 30.0000000  0  9G27G11G13G 1G31G20G 3G 2G16
   -132453.527 6   -103206.925 6  23338774.833    23338790.356    23338774.750
        24.000          15.000
     37726.980 6     29398.543 6  24003698.803    24003712.914    24003699.070
        24.000          11.000
   -339608.105 7   -264628.497 6  22906169.115    22906176.853    22906169.193
        49.000          27.000
   -369184.037 8   -287675.211 8  21089656.087    21089665.876    21089656.308
       200.000         151.000
   -219306.320 8   -170887.589 8  21389148.666    21389158.642    21389149.135
       186.000         131.000
    374483.626 8    291811.876 8  21109859.237    21109869.788    21109859.815
       247.000         166.000
     83667.251 8     65196.454 7  22132247.628    22132260.023    22132248.527
       110.000          69.000
    355854.639 7    277290.444 7  21946674.850    21946684.293    21946675.098
        75.000          38.000
    615222.172 6    479394.433 4  24577865.246    24577868.599    24577865.715
        19.000           1.000
 03 10 28  0 11  0.0000000  0  8G27G11G13G 1G31G20G 3G 2
   -154493.820 6   -120380.689 6  23334580.030    23334596.298    23334580.416
        22.000          16.000
     43205.546 6     33667.776 6  24004741.616    24004755.586    24004741.748
        24.000          10.000
   -424483.951 7   -330765.445 6  22890017.750    22890025.406    22890017.418
        51.000          27.000
   -420924.640 8   -327992.560 8  21079810.246    21079819.881    21079810.592
       199.000         152.000
   -254745.270 8   -198502.845 8  21382405.105    21382415.294    21382405.569
       175.000         124.000
    429591.988 8    334754.954 8  21120344.743    21120354.862    21120345.360
       226.000         144.000
     97367.027 8     75871.538 7  22134854.618    22134867.076    22134855.181
       108.000          69.000
    445322.301 7    347005.655 7  21963700.136    21963709.062    21963700.609
        79.000          36.000
 03 10 28  0 11 30.0000000  0  9G27G11G13G 1G31G20G 3G 2G16
   -176566.536 6   -137579.759 6  23330379.637    23330395.398    23330379.629
        22.000          15.000
     48413.265 6     37725.992 6  24005732.108    24005745.958    24005732.021
        24.000          11.000
   -509380.690 7   -396918.679 6  22873862.161    22873870.108    22873861.678
        55.000          28.000
   -472447.878 8   -368140.533 8  21070005.465    21070015.416    21070005.652
       196.000         154.000
   -289900.120 8   -225897.119 8  21375716.004    21375726.387    21375716.451
       178.000         126.000
    485057.535 8    377977.641 8  21130897.207    21130906.717    21130897.796
       208.000         129.000
    111465.703 8     86857.589 7  22137537.254    22137550.085    22137537.579
       107.000          72.000
    534949.452 7    416845.148 7  21980755.692    21980764.426    21980756.340
        78.000          35.000
         -.52816         -.01214  24616843.540    24616847.744    24616843.352
        17.000           3.000
 03 10 28  0 12  0.0000000  0  9G27G11G13G 1G31G20G 3G 2G16
   -198652.438 6   -154789.140 6  23326176.286    23326191.749    23326176.843
        22.000          16.000
     53370.173 6     41588.787 6  24006675.288    24006688.833    24006675.642
        23.000          12.000
   -594275.698 7   -463070.566 6  22857707.123    22857715.185    22857706.826
        58.000          30.000
   -523730.823 8   -408101.271 8  21060246.703    21060256.703    21060247.012
       194.000         156.000
   -324745.853 8   -253049.614 8  21369085.066    21369095.481    21369085.427
       181.000         134.000
    540898.764 8    421495.039 8  21141519.841    21141527.978    21141520.408
       240.000         121.000
    125983.801 8     98170.296 7  22140300.264    22140312.859    22140300.713
       114.000          76.000
    624753.686 7    486822.622 7  21997844.737    21997853.653    21997845.228
        76.000          38.000
    102330.394 6     79738.575 4  24636315.991    24636320.903    24636315.955
        16.000           2.000
 03 10 28  0 12 30.0000000  0  9G27G11G13G 1G31G20G 3G 2G16
   -220741.862 6   -172001.283 5  23321972.637    23321985.085    23321972.804
        23.000           8.000
     58087.074 6     45264.523 6  24007572.617    24007586.054    24007573.203
        23.000          10.000
   -679155.919 7   -529210.925 7  22841555.153    22841563.011    22841555.176
        60.000          32.000
   -574759.965 8   -447864.237 8  21050536.413    21050546.071    21050536.834
       199.000         156.000
   -359270.281 8   -279951.339 8  21362514.849    21362525.405    21362515.292
       173.000         133.000
    597122.915 8    465311.506 8  21152214.090    21152221.957    21152214.704
       242.000         139.000
    140933.391 8    109819.372 7  22143145.266    22143157.464    22143145.058
       109.000          68.000
    714742.959 7    556944.278 7  22014968.838    22014978.043    22014969.458
        75.000          40.000
    204618.640 6    159443.911 4  24655780.473    24655785.391    24655781.088
        15.000           3.000
 03 10 28  0 13  0.0000000  0  9G27G11G13G 1G31G20G 3G 2G16
   -242842.869 6   -189222.438 6  23317767.213    23317780.329    23317767.107
        27.000          12.000
     62557.046 6     48747.870 6  24008423.476    24008436.612    24008423.287
        24.000          10.000
   -764025.772 7   -595343.195 7  22825404.962    22825412.699    22825405.032
        61.000          33.000
   -625539.480 8   -487432.700 8  21040873.165    21040882.967    21040873.364
       200.000         155.000
   -393480.243 8   -306608.705 8  21356005.183    21356015.759    21356005.684
       169.000         133.000
    653713.638 8    509413.545 8  21162979.007    21162984.782    21162979.655
       228.000         135.000
    156309.172 8    121801.006 7  22146070.592    22146082.959    22146069.817
       110.000          73.000
    804907.648 7    627202.625 7  22032126.481    22032135.635    22032126.968
        76.000          42.000
    306855.009 6    239108.842 4  24675235.390    24675239.921    24675235.895
        14.000           3.000
 03 10 28  0 13 30.0000000  0  9G27G11G13G 1G31G20G 3G 2G16
   -264936.878 6   -206438.210 6  23313562.072    23313576.803    23313562.237
        24.000          13.000
     66799.850 6     52054.164 6  24009230.120    24009244.797    24009230.626
        22.000          13.000
   -848862.875 7   -661449.939 7  22809260.688    22809268.667    22809260.246
        61.000          34.000
   -676047.020 8   -526789.243 8  21031262.157    21031271.724    21031262.384
       209.000         153.000
   -427350.601 8   -333000.607 8  21349559.455    21349569.894    21349560.003
       172.000         144.000
    710688.365 8    553812.490 8  21173818.823    21173823.586    21173819.364
       259.000         164.000
    172129.268 8    134128.150 7  22149081.111    22149093.683    22149080.767
       107.000          72.000
    895264.693 7    697610.869 7  22049320.783    22049329.793    22049321.301
        76.000          42.000
    409057.141 6    318747.084 5  24694683.250    24694688.786    24694683.712
        11.000           4.000
 03 10 28  0 14  0.0000000  0  9G27G11G13G 1G31G20G 3G 2G16
   -287011.764 6   -223638.806 5  23309361.211    23309375.252    23309361.051
        22.000           9.000
     70828.491 6     55193.584 6  24009996.903    24010010.679    24009996.512
        23.000          12.000
   -933652.079 7   -727519.356 7  22793125.588    22793133.665    22793124.753
        60.000          34.000
   -726267.410 8   -565922.040 8  21021705.572    21021715.154    21021705.876
       218.000         156.000
   -460868.831 8   -359118.367 8  21343180.724    21343191.220    21343181.170
       170.000         147.000
    768058.998 8    598519.044 8  21184734.366    21184738.817    21184734.910
       232.000         157.000
    188408.853 8    146813.645 7  22152178.975    22152191.584    22152179.749
       107.000          72.000
    985823.778 7    768176.542 7  22066553.333    22066562.549    22066553.877
        72.000          42.000
    511235.618 6    398366.898 4  24714126.886    24714132.565    24714127.476
        10.000           3.000
 03 10 28  0 14 30.0000000  0  9G27G11G13G 1G31G20G 3G 2G16
   -309091.034 6   -240842.558 6  23305158.538    23305174.062    23305158.788
        25.000          18.000
     74620.396 6     58148.494 6  24010718.175    24010731.581    24010717.754
        22.000          10.000
  -1018412.842 7   -793566.605 7  22776996.171    22777004.128    22776995.863
        60.000          35.000
   -776220.002 8   -604846.169 8  21012199.712    21012209.515    21012199.982
       216.000         158.000
   -494055.685 8   -384978.619 8  21336865.850    21336876.298    21336866.333
       166.000         142.000
    825798.124 8    643510.516 8  21195721.627    21195726.158    21195722.157
       241.000         173.000
    205125.747 8    159839.714 7  22155360.092    22155372.756    22155360.594
       104.000          71.000
   1076559.929 7    838880.187 7  22083819.758    22083828.998    22083820.363
        70.000          44.000
    613366.411 5    477949.539 5  24733561.176    24733567.460    24733561.858
         9.000           4.000
 03 10 28  0 15  0.0000000  0  9G27G11G13G 1G31G20G 3G 2G16
   -331155.512 6   -258035.243 6  23300959.897    23300974.357    23300959.574
        23.000          12.000
     78197.079 6     60935.689 6  24011398.127    24011411.836    24011397.769
        22.000          13.000
  -1103121.821 7   -859573.491 7  22760876.652    22760884.422    22760876.709
        61.000          35.000
   -825880.728 8   -643542.878 8  21002749.985    21002759.492    21002750.346
       226.000         160.000
   -526886.362 8   -410561.477 8  21330618.903    21330629.216    21330619.459
       169.000         146.000
    883927.624 8    688805.358 8  21206784.047    21206788.604    21206784.641
       224.000         141.000
    222302.343 8    173224.102 7  22158628.476    22158641.162    22158629.155
       104.000          71.000
   1167491.780 7    909736.320 7  22101123.531    22101132.753    22101124.100
        70.000          45.000
    715468.520 5    557509.823 5  24752990.726    24752996.827    24752991.160
         8.000           4.000
 03 10 28  0 15 30.0000000  0  9G27G11G13G 1G31G 3G 2G16G28
   -353251.404 6   -275252.499 6  23296754.910    23296767.382    23296755.010
        26.000          14.000
     81512.485 6     63519.228 6  24012029.642    24012042.981    24012029.209
        23.000          10.000
  -1187821.983 7   -925573.502 7  22744758.452    22744766.290    22744758.117
        60.000          35.000
   -875292.701 8   -682045.774 8  20993347.060    20993356.749    20993347.306
       226.000         160.000
   -559403.588 8   -435899.809 8  21324431.139    21324441.588    21324431.649
       165.000         143.000
    239893.897 8    186932.135 7  22161975.810    22161988.400    22161975.817
       102.000          70.000
   1258570.956 7    980707.257 7  22118455.297    22118464.367    22118455.811
        70.000          42.000
    817494.326 5    637010.648 5  24772404.206    24772411.882    24772406.153
         7.000           5.000
         -.37515                  25286022.801                    25286022.939
         6.000
 03 10 28  0 16  0.0000000  0  8G31G27G11G13G 1G 3G 2G16
   -591602.930 8   -460991.194 8  21318304.351    21318315.269    21318304.714
       157.000         137.000
   -375375.320 6   -292491.527 6  23292544.124    23292558.506    23292544.712
        23.000          12.000
     84571.489 6     65903.002 6  24012611.611    24012624.998    24012611.489
        24.000          10.000
  -1272506.459 7   -991561.298 7  22728643.233    22728651.273    22728642.855
        59.000          35.000
   -924448.788 8   -720349.275 8  20983993.073    20984002.724    20983993.319
       226.000         165.000
    257904.729 8    200966.886 7  22165403.081    22165415.493    22165402.903
       108.000          73.000
   1349798.906 7   1051794.117 7  22135815.248    22135824.009    22135815.920
        68.000          37.000
    919445.934 5    716453.680 4  24791807.256    24791811.332    24791806.628
         8.000           3.000
 03 10 28  0 16 30.0000000  0  9G27G11G13G 1G31G 3G 2G16G28
   -397532.351 6   -309756.643 6  23288327.945    23288342.627    23288328.377
        24.000          15.000
     87370.363 6     68084.059 6  24013143.462    24013157.665    24013143.255
        21.000          13.000
  -1357176.119 7  -1057537.542 7  22712531.086    22712539.114    22712530.930
        56.000          35.000
   -973349.922 8   -758454.120 8  20974687.488    20974697.371    20974687.750
       227.000         170.000
   -623482.103 8   -485832.053 8  21312238.193    21312248.967    21312238.632
       171.000         154.000
    276331.497 8    215325.479 7  22168909.443    22168922.041    22168909.500
       104.000          72.000
   1441169.383 7   1122992.034 7  22153202.252    22153210.874    22153202.861
        64.000          33.000
   1021317.980 5    795834.663 5  24811192.714    24811198.605    24811191.695
         7.000           4.000
         -.48315         -.21914  25250563.592    25250568.756    25250565.144
         6.000           1.000
 03 10 28  0 17  0.0000000  0  9G27G11G13G 1G31G20G 3G 2G16
   -419705.929 6   -327034.104 6  23284108.045    23284121.214    23284108.487
        26.000          12.000
     89925.353 6     70075.042 6  24013630.082    24013643.656    24013629.680
        21.000          11.000
  -1441812.545 7  -1123487.879 7  22696425.162    22696433.197    22696424.984
        56.000          33.000
  -1021977.453 8   -796345.773 8  20965433.931    20965443.902    20965434.221
       222.000         170.000
   -655025.017 8   -510410.971 8  21306235.952    21306246.662    21306236.495
       169.000         145.000
         -.61218          .36117  21251687.665    21251693.876    21251688.138
       184.000          91.000
    295191.801 8    230022.014 7  22172498.181    22172510.841    22172498.099
       104.000          76.000
   1532695.631 7   1194311.335 7  22170618.809    22170627.616    22170619.208
        62.000          32.000
   1123124.167 5    875164.363 5  24830564.792    24830568.913    24830565.436
         8.000           4.000
 03 10 28  0 17 30.0000000  0  9G27G11G13G 1G31G20G 3G 2G16
   -441881.171 6   -344312.995 6  23279887.384    23279901.092    23279888.534
        22.000          12.000
     92254.236 6     71889.843 6  24014073.744    24014087.079    24014073.742
        25.000          12.000
  -1526395.514 7  -1189396.568 7  22680329.411    22680337.247    22680329.035
        59.000          32.000
  -1070310.960 8   -834008.334 8  20956236.539    20956246.252    20956236.877
       220.000         169.000
   -686212.356 8   -534713.041 8  21300301.290    21300312.153    21300301.771
       173.000         154.000
     59874.572 8     46655.230 8  21263082.315    21263088.190    21263082.892
       220.000         126.000
    314503.471 8    245070.245 7  22176172.980    22176185.512    22176173.110
       100.000          73.000
   1624392.560 7   1265763.625 6  22188068.061    22188076.730    22188068.217
        61.000          31.000
   1224880.888 5    954455.667 4  24849925.242    24849931.546    24849928.308
         8.000           3.000
 03 10 28  0 18  0.0000000  0 10G27G11G13G 1G31G20G 3G 2G16G28
   -464100.444 6   -361626.084 6  23275659.361    23275673.869    23275660.038
        24.000          17.000
     94315.116 6     73495.848 6  24014465.365    24014479.202    24014465.892
        24.000          14.000
  -1610964.489 7  -1255294.360 6  22664236.400    22664244.264    22664236.016
        60.000          31.000
  -1118389.707 8   -871472.397 8  20947087.499    20947097.352    20947087.766
       224.000         172.000
   -717083.356 8   -558768.590 8  21294426.797    21294437.780    21294427.219
       171.000         148.000
    120071.952 8     93561.923 8  21274537.531    21274543.507    21274538.175
       184.000         104.000
    334225.123 8    260437.921 7  22179925.892    22179938.103    22179926.072
       102.000          74.000
   1716215.518 7   1337314.112 7  22205541.291    22205550.020    22205541.762
        62.000          32.000
   1326542.985 5   1033673.157 4  24869273.970    24869275.581    24869274.479
         8.000           3.000
          .11715         -.28514  25197656.830    25197659.692    25197657.002
         8.000           2.000
 03 10 28  0 18 30.0000000  0 10G27G11G13G 1G31G20G 3G 2G16G28
   -486333.184 6   -378949.815 6  23271428.224    23271440.830    23271428.669
        22.000          11.000
     96139.876 6     74917.826 6  24014812.648    24014826.067    24014812.606
        24.000          15.000
  -1695484.787 7  -1321154.219 7  22648152.684    22648160.503    22648152.492
        61.000          32.000
  -1166179.123 8   -908711.020 8  20937993.622    20938003.506    20937993.949
       222.000         173.000
   -747604.199 8   -582551.472 8  21288619.141    21288630.026    21288619.518
       165.000         143.000
    180624.200 8    140745.691 8  21286059.492    21286065.420    21286060.070
       242.000         124.000
    354389.360 8    276150.543 7  22183762.762    22183774.984    22183762.703
       101.000          75.000
   1808193.858 7   1408985.664 6  22223044.021    22223052.876    22223044.488
        59.000          31.000
   1428140.750 6   1112840.412 5  24888606.838    24888611.774    24888606.887
        10.000           6.000
    -92283.502 5    -71909.814 4  25180096.261    25180098.191    25180096.172
         7.000           1.000
 03 10 28  0 19  0.0000000  0  9G27G11G13G 1G31G20G 3G 2G16
   -508548.630 6   -396260.350 6  23267200.667    23267213.265    23267201.203
        25.000          16.000
     97760.766 6     76180.927 6  24015120.353    24015134.599    24015120.504
        21.000          14.000
  -1779921.730 7  -1386949.114 7  22632084.872    22632092.709    22632084.793
        61.000          33.000
  -1213644.543 8   -945697.185 8  20928961.314    20928971.211    20928961.559
       222.000         169.000
   -777739.727 8   -606033.702 8  21282884.591    21282895.415    21282885.022
       175.000         148.000
    241554.240 8    188223.528 8  21297653.859    21297660.199    21297654.558
       199.000         123.000
    375028.305 7    292232.911 7  22187690.005    22187702.515    22187690.225
        96.000          76.000
   1900356.711 7   1480800.995 7  22240582.087    22240590.822    22240582.463
        59.000          32.000
   1529704.280 5   1191981.001 4  24907933.546    24907938.608    24907934.042
         9.000           3.000
 03 10 28  0 19 30.0000000  0 10G27G11G13G 1G31G20G 3G 2G16G28
   -530784.268 6   -413586.867 5  23262969.059    23262981.775    23262969.684
        21.000           9.000
     99141.566 6     77256.899 6  24015383.670    24015397.477    24015384.321
        21.000          16.000
  -1864308.998 7  -1452705.307 7  22616026.454    22616034.079    22616026.053
        64.000          35.000
  -1260818.649 8   -982456.006 8  20919984.045    20919994.120    20919984.262
       222.000         178.000
   -807525.388 8   -629243.690 8  21277216.825    21277227.796    21277217.199
       174.000         144.000
    302828.280 8    235970.475 8  21309313.172    21309319.444    21309313.614
       196.000         122.000
    396106.657 7    308657.668 7  22191701.188    22191713.703    22191701.664
        97.000          78.000
   1992665.152 7   1552729.766 6  22258147.847    22258156.379    22258148.622
        59.000          30.000
   1631195.347 6   1271065.148 4  24927246.252    24927251.121    24927246.200
        10.000           3.000
         -.48215         -.77614  25145105.978    25145110.224    25145106.220
         8.000           1.000
 03 10 28  0 20  0.0000000  0  9G27G11G13G 1G31G20G 3G 2G16
   -553051.434 6   -430937.624 6  23258731.491    23258746.111    23258731.368
        22.000          17.000
    100270.933 6     78136.929 6  24015598.692    24015612.347    24015598.953
        22.000          16.000
  -1948655.733 7  -1518429.924 7  22599975.601    22599983.291    22599974.955
        66.000          34.000
  -1307710.578 8  -1018994.593 8  20911060.470    20911070.329    20911060.782
       221.000         186.000
   -836970.563 8   -652188.651 8  21271614.035    21271625.283    21271614.428
       170.000         144.000
    364428.550 8    283970.901 8  21321035.704    21321041.046    21321036.327
       231.000         141.000
    417613.599 8    325416.601 7  22195793.804    22195806.063    22195793.949
       101.000          79.000
   2085104.867 7   1624760.824 6  22275738.630    22275747.119    22275739.353
        61.000          31.000
   1732600.455 6   1350082.295 5  24946543.649    24946548.760    24946543.485
        10.000           5.000
 03 10 28  0 20 30.0000000  0 10G27G11G13G 1G31G20G 3G 2G16G28
   -575356.445 6   -448318.316 6  23254487.002    23254500.885    23254486.697
        23.000          14.000
    101145.375 6     78818.332 6  24015765.197    24015778.390    24015765.231
        24.000          14.000
  -2032963.310 7  -1584124.040 7  22583932.354    22583939.907    22583931.982
        67.000          34.000
  -1354321.713 8  -1055314.157 8  20902189.826    20902199.665    20902190.091
       216.000         171.000
   -866076.274 8   -674868.918 8  21266075.737    21266087.235    21266076.126
       169.000         146.000
    426349.702 8    332221.382 8  21332818.419    21332824.276    21332818.952
       205.000         128.000
    439545.075 8    342506.272 7  22199966.860    22199979.167    22199967.191
       102.000          79.000
   2177669.271 7   1696889.039 7  22293352.969    22293361.690    22293353.356
        65.000          32.000
   1833913.862 6   1429027.998 5  24965822.365    24965827.700    24965822.829
        12.000           4.000
         -.14815          .25814  25110268.566    25110271.626    25110269.144
         8.000           1.000
 03 10 28  0 21  0.0000000  0  9G27G11G13G 1G31G20G 3G 2G16
   -597704.521 6   -465732.332 6  23250234.376    23250247.725    23250233.780
        23.000          12.000
    101759.885 6     79297.172 6  24015881.816    24015895.388    24015881.255
        22.000          13.000
  -2117234.082 7  -1649789.480 7  22567896.130    22567903.693    22567895.861
        66.000          35.000
  -1400653.942 8  -1091415.858 8  20893372.205    20893381.594    20893372.590
       223.000         195.000
   -894844.856 8   -697286.118 8  21260601.265    21260612.843    21260601.644
       172.000         149.000
    488584.574 8    380716.574 8  21344661.189    21344666.584    21344661.793
       218.000         127.000
    461896.479 7    359923.133 7  22204220.084    22204232.374    22204220.885
        99.000          77.000
   2270350.463 7   1769108.256 6  22310989.498    22310998.202    22310989.792
        65.000          31.000
   1935128.276 6   1507896.554 4  24985082.549    24985087.069    24985083.186
        10.000           3.000
 03 10 28  0 21 30.0000000  0 10G27G11G13G 1G31G20G 3G 2G16G28
   -620095.690 6   -483179.655 6  23245973.308    23245987.612    23245973.107
        24.000          18.000
    102115.065 6     79574.002 6  24015949.351    24015963.246    24015949.369
        22.000          12.000
  -2201464.828 7  -1715423.736 7  22551867.527    22551875.015    22551867.342
        66.000          36.000
  -1446706.153 8  -1127299.872 8  20884608.192    20884617.361    20884608.350
       215.000         177.000
   -923273.885 8   -719438.427 8  21255191.400    21255202.694    21255191.780
       183.000         153.000
    551128.871 8    429452.312 8  21356562.824    21356568.154    21356563.423
       188.000         100.000
    484669.174 8    377668.342 7  22208553.536    22208565.714    22208553.495
       102.000          80.000
   2363146.293 7   1841416.802 6  22328647.911    22328656.435    22328648.267
        67.000          29.000
   2036242.436 6   1586686.995 4  25004324.582    25004328.685    25004324.949
        11.000           3.000
          .23915          .16514  25075580.833    25075584.222    25075581.657
         9.000           1.000
 03 10 28  0 22  0.0000000  0  9G27G11G13G 1G31G20G 3G 2G16
   -642508.044 6   -500643.252 6  23241708.080    23241722.525    23241707.976
        24.000          20.000
    102234.471 6     79667.088 6  24015972.356    24015985.907    24015971.666
        28.000          20.000
  -2285629.428 7  -1781006.459 7  22535851.321    22535859.096    22535851.073
        65.000          38.000
  -1492452.639 8  -1162946.296 8  20875902.826    20875911.717    20875903.079
       210.000         167.000
   -951339.400 8   -741307.748 8  21249851.084    21249862.020    21249851.507
       182.000         140.000
    614007.971 8    478450.672 8  21368526.905    21368532.463    21368527.429
       206.000         130.000
    507886.395 8    395759.896 7  22212971.340    22212983.486    22212971.335
       102.000          78.000
   2456077.457 7   1913830.805 6  22346331.948    22346340.311    22346332.407
        67.000          26.000
   2137277.655 6   1665415.910 4  25023550.499    25023554.685    25023550.762
        12.000           2.000
 03 10 28  0 22 30.0000000  0 10G27G11G13G 1G31G20G 3G 2G16G28
   -664932.897 6   -518117.204 6  23237440.659    23237453.987    23237440.662
        23.000          13.000
    102129.636 6     79585.482 6  24015952.318    24015965.764    24015952.301
        25.000          17.000
  -2369714.517 7  -1846527.224 7  22519850.405    22519858.043    22519850.106
        66.000          40.000
  -1537877.661 8  -1198342.034 8  20867258.397    20867267.226    20867258.827
       240.000         171.000
   -979026.016 8   -762881.159 8  21244582.008    21244592.833    21244582.354
       195.000         153.000
    677072.768 7    527584.845 7  21380561.143    21380555.622    21380562.391
        96.000          46.000
    531559.915 8    414207.032 7  22217476.211    22217488.146    22217476.420
       106.000          75.000
   2549152.584 7   1986356.985 6  22364043.439    22364051.743    22364043.759
        63.000          24.000
   2238243.159 6   1744090.518 4  25042763.782    25042767.869    25042764.165
        13.000           3.000
         -.27816         -.06715  25041058.348    25041061.717    25041058.443
        10.000           4.000
 03 10 28  0 23  0.0000000  0  9G27G11G13G31G20G 3G 2G16G28
   -687362.008 6   -535594.109 6  23233172.283    23233185.031    23233172.376
        26.000          14.000
    101807.882 6     79334.829 6  24015891.233    24015904.262    24015891.262
        26.000          17.000
  -2453709.764 7  -1911977.986 7  22503866.592    22503874.290    22503866.387
        67.000          43.000
  -1006326.778 8   -784154.365 8  21239386.646    21239397.679    21239387.023
       196.000         152.000
    739875.118 7    576501.028 4  21392647.134    21392636.107    21392649.030
        51.000           2.000
    555697.264 8    433015.560 7  22222069.363    22222081.073    22222068.956
       106.000          74.000
   2642376.103 7   2058998.801 6  22381783.009    22381791.334    22381783.337
        60.000          23.000
   2339144.401 6   1822715.036 4  25061964.191    25061968.607    25061964.511
        12.000           2.000
    -90346.839 6    -70399.556 4  25023866.067    25023868.233    25023866.233
        10.000           2.000
 03 10 28  0 23 30.0000000  0  8G31G27G11G13G 3G 2G16G28
  -1033267.894 8   -805147.600 8  21234259.995    21234271.271    21234260.432
       198.000         153.000
   -709826.305 6   -553098.729 6  23228897.540    23228911.834    23228897.879
        26.000          20.000
    101240.583 6     78892.831 6  24015782.595    24015796.383    24015783.002
        22.000          18.000
  -2537641.245 7  -1977379.071 7  22487894.833    22487902.649    22487894.565
        67.000          46.000
    580270.187 8    452163.504 7  22226745.165    22226756.838    22226744.538
       103.000          71.000
   2735716.709 7   2131731.849 6  22399544.865    22399553.511    22399545.518
        55.000          25.000
   2439950.810 6   1901265.644 4  25081147.084    25081149.843    25081147.659
        12.000           1.000
   -180476.062 6   -140629.459 4  25006714.085    25006717.315    25006714.191
        10.000           3.000
 03 10 28  0 24  0.0000000  0  8G27G11G13G 1G31G 3G 2G28
   -732324.849 6   -570629.968 6  23224616.183    23224628.241    23224616.525
        25.000          14.000
    100429.407 6     78260.823 6  24015628.119    24015641.850    24015628.679
        22.000          18.000
  -2621505.171 7  -2042727.524 7  22471936.081    22471943.980    22471935.790
        69.000          48.000
         -.82118         -.43518  20841688.535    20841696.679    20841688.712
       241.000         172.000
  -1059845.962 8   -825858.198 8  21229202.862    21229214.081    21229203.262
       208.000         159.000
    605280.394 8    471652.160 7  22231504.462    22231515.815    22231504.754
       107.000          70.000
   2829173.057 7   2204555.080 6  22417328.856    22417337.687    22417329.455
        52.000          25.000
   -270386.383 5   -210689.230 4  24989603.654    24989607.123    24989604.070
         9.000           2.000
 03 10 28  0 24 30.0000000  0 10G27G11G13G 1G31G20G 3G 2G16G28
   -754868.061 6   -588196.071 6  23220326.273    23220339.823    23220326.789
        26.000          16.000
     99365.625 6     77431.941 6  24015426.408    24015439.929    24015426.444
        23.000          17.000
  -2705307.771 7  -2108028.192 7  22455989.073    22455996.885    22455989.020
        71.000          50.000
    -44179.724 8    -34425.185 8  20833281.343    20833289.405    20833281.624
       237.000         185.000
  -1086067.317 8   -846290.661 8  21224213.311    21224224.406    21224213.722
       214.000         165.000
         -.33918         -.13618  21429290.339    21429295.120    21429290.956
       188.000         121.000
    630719.219 8    491474.863 7  22236345.152    22236356.538    22236345.460
       107.000          71.000
   2922733.335 7   2277459.290 6  22435132.753    22435141.632    22435133.402
        51.000          24.000
         -.07916         -.11015  25119455.355    25119460.285    25119455.675
        12.000           4.000
   -360084.400 5   -280583.896 4  24972535.200    24972538.134    24972535.870
         8.000           2.000
 03 10 28  0 25  0.0000000  0 10G27G11G13G 1G31G20G 3G 2G16G28
   -777440.593 6   -605785.112 6  23216030.993    23216044.718    23216031.247
        26.000          16.000
     98066.019 6     76419.371 6  24015178.667    24015192.127    24015178.729
        21.000          16.000
  -2789030.097 7  -2173266.320 7  22440057.059    22440064.965    22440056.784
        74.000          52.000
    -88038.047 8    -68600.364 8  20824935.100    20824943.382    20824935.483
       240.000         184.000
  -1111913.828 8   -866430.909 8  21219294.901    21219305.998    21219295.328
       208.000         153.000
     64796.106 8     50490.481 8  21441621.058    21441625.500    21441621.644
       201.000         123.000
    656602.745 8    511643.987 7  22241270.209    22241282.003    22241270.478
       104.000          71.000
   3016411.269 7   2350455.190 6  22452959.179    22452967.550    22452959.816
        51.000          24.000
    100512.033 6     78321.208 4  25138581.941    25138587.417    25138582.202
        11.000           1.000
   -449551.190 5   -350298.090 4  24955510.582    24955512.572    24955510.904
         8.000           2.000
 03 10 28  0 25 30.0000000  0  9G27G11G13G 1G31G20G 3G 2G28
   -800025.184 6   -623383.140 6  23211733.239    23211747.276    23211733.622
        27.000          18.000
     96547.760 6     75236.410 6  24014889.107    24014902.980    24014888.860
        21.000          16.000
  -2872652.292 7  -2238426.427 7  22424144.077    22424152.081    22424143.460
        75.000          53.000
   -131557.092 8   -102511.997 8  20816654.234    20816662.479    20816654.513
       216.000         160.000
  -1137365.746 8   -886263.354 8  21214451.344    21214462.556    21214451.771
       214.000         159.000
    129918.044 8    101233.748 8  21454013.933    21454019.062    21454014.570
       179.000         104.000
    682948.609 8    532173.348 7  22246283.788    22246295.285    22246284.409
       105.000          69.000
   3110221.499 7   2423554.181 6  22470810.841    22470818.890    22470811.339
        52.000          24.000
   -538768.251 5   -419817.736 4  24938531.983    24938535.105    24938532.553
         9.000           3.000
 03 10 28  0 26  0.0000000  0 10G27G11G13G 1G31G20G 3G 2G16G28
   -822627.404 6   -640995.140 6  23207431.801    23207445.232    23207432.093
        26.000          15.000
     94807.846 6     73880.739 6  24014558.290    24014571.633    24014558.307
        20.000          15.000
  -2956174.938 7  -2303508.969 7  22408250.276    22408258.315    22408249.830
        76.000          52.000
   -174734.689 8   -136156.756 8  20808437.466    20808445.917    20808437.745
       227.000         166.000
  -1162425.585 8   -905790.487 8  21209682.545    21209694.032    21209682.935
       218.000         172.000
    195361.267 8    152227.466 8  21466468.135    21466473.498    21466468.648
       181.000         105.000
    709754.004 8    553060.811 7  22251384.452    22251395.931    22251385.281
       102.000          69.000
   3204157.992 7   2496751.555 6  22488686.208    22488694.404    22488686.626
        53.000          24.000
         -.62915         -.24714  25176791.069    25176795.196    25176790.538
         9.000           1.000
   -627737.140 5   -489144.106 4  24921602.193    24921605.331    24921602.453
         9.000           3.000
 03 10 28  0 26 30.0000000  0  9G27G11G13G 1G31G20G 3G 2G28
   -845269.010 7   -658637.604 6  23203123.257    23203135.548    23203123.281
        32.000          18.000
     92825.091 6     72335.832 6  24014181.215    24014194.367    24014181.669
        24.000          15.000
  -3039617.110 7  -2368528.816 7  22392372.008    22392379.728    22392371.983
        78.000          50.000
   -217587.711 8   -169547.049 8  20800281.758    20800291.625    20800282.130
       248.000         219.000
  -1187112.728 8   -925027.239 8  21204984.831    21204996.283    21204985.193
       217.000         172.000
    261100.428 8    203451.557 8  21478978.881    21478984.147    21478979.505
       176.000         104.000
    736997.204 7    574289.430 7  22256568.436    22256580.058    22256568.778
        99.000          68.000
   3298196.429 7   2570028.361 6  22506581.152    22506589.405    22506581.651
        52.000          25.000
   -716478.422 6   -558293.427 5  24904716.232    24904719.243    24904716.338
        10.000           4.000
 03 10 28  0 27  0.0000000  0 10G27G11G13G 1G31G20G 3G 2G16G28
   -867963.432 6   -676321.710 6  23198804.464    23198816.391    23198805.264
        26.000          10.000
     90588.580 6     70593.189 6  24013755.740    24013768.733    24013755.976
        22.000          12.000
  -3122987.084 7  -2433492.413 7  22376507.294    22376514.887    22376507.027
        81.000          50.000
   -260132.461 8   -202697.870 8  20792185.749    20792193.922    20792186.059
       210.000         164.000
  -1211436.161 8   -943980.603 8  21200356.351    21200367.648    21200356.728
       221.000         173.000
    327125.464 8    254899.804 8  21491542.930    21491548.576    21491543.552
       184.000         106.000
    764667.542 8    595850.872 7  22261833.974    22261845.403    22261834.377
       102.000          68.000
   3392323.337 7   2643374.116 6  22524492.924    22524501.159    22524493.415
        52.000          25.000
         -.31915          .08514  25214921.747    25214925.175    25214922.406
         9.000           1.000
   -805000.316 6   -627271.829 5  24887871.010    24887874.517    24887871.465
        11.000           5.000
 03 10 28  0 27 30.0000000  0  9G27G11G13G 1G31G20G 3G 2G28
   -890697.253 6   -694035.986 6  23194478.216    23194490.322    23194478.842
        28.000          14.000
     88111.108 6     68662.788 6  24013284.095    24013297.332    24013284.121
        20.000          14.000
  -3206269.717 7  -2498387.958 7  22360658.797    22360666.759    22360658.387
        83.000          51.000
   -302352.405 8   -235598.185 8  20784152.726    20784161.424    20784153.052
       199.000         168.000
  -1235381.602 8   -962639.357 8  21195799.677    21195810.881    21195800.108
       222.000         170.000
    393443.060 8    306576.191 8  21504162.729    21504167.988    21504163.334
       185.000         102.000
    792777.469 7    617754.894 7  22267182.856    22267194.417    22267182.728
        99.000          68.000
   3486548.172 7   2716796.171 6  22542423.199    22542431.481    22542423.743
        51.000          24.000
   -893290.613 5   -696070.677 4  24871070.633    24871074.063    24871071.379
         9.000           3.000
 03 10 28  0 28  0.0000000  0  9G27G11G13G 1G31G20G 3G 2G28
   -913452.260 6   -711766.867 6  23190147.877    23190161.491    23190148.175
        28.000          18.000
     85413.312 6     66560.691 6  24012769.913    24012783.558    24012769.314
        20.000          18.000
  -3289442.033 7  -2563197.550 7  22344831.733    22344839.550    22344831.400
        85.000          52.000
   -344218.171 8   -268221.214 8  20776185.877    20776194.559    20776186.190
       213.000         183.000
  -1258926.690 8   -980986.050 8  21191319.077    21191330.245    21191319.508
       221.000         175.000
    460069.818 8    358493.135 8  21516841.093    21516846.229    21516841.636
       179.000         100.000
    821347.533 8    640017.478 7  22272619.523    22272630.899    22272619.448
       100.000          67.000
   3580888.695 7   2790308.368 6  22560375.528    22560383.767    22560376.117
        46.000          24.000
   -981325.942 6   -764670.888 5  24854319.275    24854322.943    24854319.809
        10.000           4.000
 03 10 28  0 28 30.0000000  0 10G27G11G13G 1G31G20G 3G 2G16G28
   -936253.678 6   -729533.847 6  23185808.469    23185821.963    23185808.902
        28.000          18.000
     82471.061 6     64268.092 6  24012210.138    24012223.461    24012209.597
        19.000          15.000
  -3372525.721 7  -2627938.075 7  22329021.757    22329029.082    22329021.726
        87.000          52.000
   -385753.569 8   -300586.561 8  20768281.063    20768289.501    20768281.326
       206.000         152.000
  -1282094.563 8   -999038.962 8  21186910.359    21186921.506    21186910.751
       223.000         179.000
    526978.808 8    410629.902 8  21529573.365    21529578.783    21529573.837
       184.000         105.000
    850353.282 7    662619.540 7  22278138.871    22278150.336    22278139.350
        99.000          69.000
   3675317.679 7   2863889.502 6  22578344.487    22578352.770    22578345.143
        42.000          24.000
        -1.11915                  25271964.162                    25271965.690
         7.000
  -1069128.348 6   -833089.639 4  24837612.211    24837615.783    24837612.848
        10.000           2.000
 03 10 28  0 29  0.0000000  0  9G27G11G13G 1G31G20G 3G 2G28
   -959086.788 6   -747325.697 6  23181463.420    23181475.489    23181464.061
        26.000          14.000
     79300.650 6     61797.782 6  24011607.592    24011619.699    24011607.432
        21.000          13.000
  -3455502.084 7  -2692594.972 7  22313231.671    22313239.210    22313231.534
        86.000          51.000
   -426940.726 8   -332678.482 8  20760441.602    20760449.491    20760441.820
       249.000         229.000
  -1304867.005 8  -1016783.702 8  21182576.953    21182588.094    21182577.382
       216.000         171.000
    594183.251 8    462996.719 7  21542362.450    21542367.904    21542363.037
       179.000          96.000
    879810.688 7    685573.543 7  22283744.273    22283755.720    22283744.193
        98.000          67.000
   3769848.667 7   2937550.116 6  22596332.871    22596341.318    22596333.445
        38.000          24.000
  -1156679.524 5   -901312.216 5  24820951.010    24820956.789    24820951.569
         8.000           4.000
 03 10 28  0 29 30.0000000  0 10G27G11G13G 1G31G20G 3G 2G16G28
   -981917.057 6   -765115.486 6  23177119.092    23177131.353    23177119.725
        28.000          15.000
     75937.969 6     59177.597 6  24010967.140    24010979.844    24010966.855
        21.000          14.000
  -3538332.872 7  -2757138.438 7  22297469.282    22297477.090    22297468.629
        86.000          53.000
   -467746.566 8   -364475.326 8  20752676.892    20752684.781    20752677.203
       245.000         212.000
  -1327206.923 8  -1034191.562 8  21178325.950    21178337.074    21178326.409
       216.000         174.000
    661716.740 8    515620.338 8  21555213.691    21555218.739    21555214.214
       198.000         107.000
    909755.480 8    708907.340 7  22289442.789    22289453.749    22289443.359
       103.000          67.000
   3864514.797 7   3011316.025 6  22614347.163    22614355.684    22614347.581
        36.000          25.000
         -.80415                  25309902.744                    25309902.539
         6.000
  -1243943.153 6   -969310.865 5  24804347.009    24804351.438    24804347.076
        10.000           4.000
 03 10 28  0 30  0.0000000  0  9G27G11G13G 1G31G20G 3G 2G28
  -1004809.465 6   -782953.418 6  23172762.502    23172774.793    23172763.102
        30.000          18.000
     72318.340 6     56357.200 6  24010277.374    24010291.019    24010277.380
        17.000          12.000
  -3621080.390 7  -2821617.014 7  22281723.025    22281730.742    22281722.733
        88.000          56.000
   -508232.110 8   -396023.501 8  20744973.388    20744980.876    20744973.751
       230.000         156.000
  -1349177.138 8  -1051311.271 8  21174145.053    21174156.411    21174145.414
       212.000         171.000
    729509.093 8    568444.988 7  21568114.315    21568119.627    21568114.876
       187.000          98.000
    940122.625 8    732570.242 7  22295221.164    22295232.225    22295221.419
       102.000          68.000
   3959248.339 7   3085134.463 6  22632374.100    22632382.860    22632374.460
        35.000          26.000
  -1330982.526 6  -1037134.913 4  24787785.104    24787789.293    24787784.941
        11.000           2.000
 03 10 28  0 30 30.0000000  0  9G27G11G13G 1G31G20G 3G 2G28
  -1027794.863 6   -800864.081 6  23168388.393    23168400.715    23168388.867
        28.000          14.000
     68413.403 6     53314.414 6  24009535.000    24009548.205    24009534.904
        20.000          14.000
  -3703770.625 7  -2886050.935 7  22265987.742    22265995.250    22265987.727
        91.000          59.000
   -548420.074 8   -427339.091 8  20737326.264    20737334.081    20737326.645
       220.000         136.000
  -1370804.527 8  -1068163.771 8  21170029.511    21170040.745    21170029.938
       211.000         172.000
    797530.485 8    621448.250 7  21581058.535    21581064.465    21581059.150
       162.000          83.000
    970883.579 8    756540.017 7  22301074.505    22301085.723    22301074.799
       101.000          69.000
   4054017.972 7   3158981.021 6  22650408.050    22650416.827    22650408.351
        35.000          27.000
  -1417822.576 6  -1104802.720 4  24771259.936    24771264.154    24771260.239
        11.000           3.000
 03 10 28  0 31  0.0000000  0  9G27G11G13G 1G31G20G 3G 2G28
  -1050818.771 6   -818804.505 6  23164007.254    23164019.380    23164007.748
        30.000          17.000
     64277.841 6     50091.949 6  24008748.468    24008761.487    24008748.245
        21.000          14.000
  -3786346.301 7  -2950395.590 7  22250273.979    22250281.805    22250273.619
        93.000          61.000
   -588251.195 8   -458373.997 8  20729745.529    20729753.406    20729745.781
       267.000         265.000
  -1392032.935 8  -1084705.229 8  21165989.731    21166000.956    21165990.142
       207.000         172.000
    865832.988 8    674671.044 7  21594056.241    21594061.486    21594056.750
       185.000          94.000
   1002092.446 8    780858.803 7  22307013.314    22307024.489    22307014.000
       101.000          67.000
   4148875.410 7   3232896.005 6  22668458.781    22668467.362    22668459.127
        35.000          26.000
  -1504409.453 6  -1172273.332 5  24754783.404    24754788.600    24754783.666
        10.000           4.000
 03 10 28  0 31 30.0000000  0 10G27G11G13G 1G31G20G 3G 2G 8G28
  -1073908.334 6   -836795.960 6  23159612.854    23159622.739    23159613.656
        30.000          14.000
     59885.874 6     46669.700 6  24007912.186    24007925.446    24007912.626
        19.000          14.000
  -3868830.876 7  -3014669.266 7  22234577.672    22234585.622    22234577.178
        96.000          62.000
   -627756.810 8   -489158.304 8  20722228.263    20722236.200    20722228.509
       226.000         187.000
  -1412886.772 8  -1100954.752 8  21162021.124    21162032.376    21162021.515
       206.000         173.000
    934386.807 8    728089.795 7  21607101.282    21607106.633    21607101.849
       177.000          88.000
   1033723.113 8    805506.264 7  22313032.248    22313043.286    22313032.467
       102.000          66.000
   4243791.862 7   3306856.971 6  22686520.735    22686529.042    22686521.359
        37.000          26.000
         -.79216                  25132867.278                    25132867.961
        11.000
  -1590766.984 6  -1239565.202 5  24738350.374    24738355.365    24738350.516
        10.000           4.000
 03 10 28  0 32  0.0000000  0  9G27G11G13G 1G31G20G 3G 2G28
  -1097080.629 6   -854852.045 6  23155202.985    23155215.290    23155203.711
        27.000          15.000
     55222.779 6     43036.167 6  24007024.275    24007037.945    24007024.677
        18.000          16.000
  -3951237.128 7  -3078881.897 7  22218896.270    22218903.981    22218896.144
        93.000          61.000
   -666943.795 8   -519693.177 8  20714770.906    20714778.885    20714771.236
       218.000         162.000
  -1433379.796 8  -1116923.089 8  21158121.163    21158132.456    21158121.564
       206.000         172.000
   1003174.340 8    781690.178 7  21620190.796    21620196.018    21620191.353
       177.000          81.000
   1065760.373 8    830470.540 7  22319128.560    22319139.498    22319129.067
       103.000          66.000
   4338749.495 7   3380850.025 6  22704590.727    22704598.964    22704591.212
        41.000          25.000
  -1676909.517 6  -1306689.799 5  24721957.584    24721963.817    24721958.147
        11.000           4.000
 03 10 28  0 32 30.0000000  0 10G27G11G13G 1G31G20G 3G 2G 8G28
  -1120297.816 6   -872943.084 6  23150784.718    23150797.172    23150785.274
        29.000          20.000
     50326.903 6     39221.269 6  24006092.945    24006106.202    24006092.820
        20.000          17.000
  -4033523.988 7  -3143001.479 7  22203237.521    22203244.972    22203237.286
        88.000          57.000
