     2.10           OBSERVATION DATA    G (GPS)             RINEX VERSION / TYPE
rinexwrt            gAGE                20100505 12:46:02UTCPGM / RUN BY / DATE
gAGE                                                        MARKER NAME
gAGE                gAGE                                    OBSERVER / AGENCY
Unknown             Unknown             Unknown             REC # / TYPE / VERS
Unknown             Unknown                                 ANT # / TYPE
  5436447.3690 -1496036.6390  2971380.3580                  APPROX POSITION XYZ
        0.0000        0.0000        0.0000                  ANTENNA: DELTA H/E/N
     1     1                                                WAVELENGTH FACT L1/2
     4    L1    L2    C1    P2                              # / TYPES OF OBSERV
  1998     9    30    11    23   20.9990000     GPS         TIME OF FIRST OBS
                                                            END OF HEADER
 98  9 30 11 23 20.9990000  0  4G14G18G19G16
   2860105.998           0.000    23345169.068           0.000  
   1063982.002           0.000    19939572.665           0.000  
  -4352053.002           0.000    22123438.322           0.000  
    539998.001           0.000    20653631.857           0.000  
 98  9 30 11 23 21.9990000  0  4G14G18G19G16
   2859809.998           0.000    23345112.749           0.000  
   1061014.000           0.000    19939007.879           0.000  
  -4357856.001           0.000    22122334.164           0.000  
    538135.002           0.000    20653277.310           0.000  
 98  9 30 11 23 22.9990000  0  4G14G18G19G16
   2859512.999           0.000    23345056.337           0.000  
   1058045.998           0.000    19938443.281           0.000  
  -4363659.000           0.000    22121229.918           0.000  
    536271.997           0.000    20652922.706           0.000  
 98  9 30 11 23 23.9990000  0  4G14G18G19G16
   2859216.000           0.000    23344999.720           0.000  
   1055076.998           0.000    19937878.464           0.000  
  -4369462.998           0.000    22120125.482           0.000  
    534408.000           0.000    20652568.021           0.000  
 98  9 30 11 23 24.9990000  0  4G14G18G19G16
   2858917.998           0.000    23344942.985           0.000  
   1052107.997           0.000    19937313.562           0.000  
  -4375267.999           0.000    22119020.968           0.000  
    532542.998           0.000    20652213.190           0.000  
 98  9 30 11 23 25.9990000  0  4G14G18G19G16
   2858620.000           0.000    23344886.060           0.000  
   1049139.002           0.000    19936748.588           0.000  
  -4381073.000           0.000    22117916.403           0.000  
    530679.000           0.000    20651858.278           0.000  
 98  9 30 11 23 26.9990000  0  4G14G18G19G16
   2858320.999           0.000    23344829.093           0.000  
   1046170.002           0.000    19936183.614           0.000  
  -4386878.001           0.000    22116811.815           0.000  
    528813.000           0.000    20651503.326           0.000  
 98  9 30 11 23 27.9990000  0  4G14G18G19G16
   2858021.000           0.000    23344772.029           0.000  
   1043199.998           0.000    19935618.702           0.000  
  -4392683.003           0.000    22115707.199           0.000  
    526947.998           0.000    20651148.292           0.000  
 98  9 30 11 23 28.9990000  0  4G14G18G19G16
   2857721.999           0.000    23344714.911           0.000  
   1040231.002           0.000    19935053.908           0.000  
  -4398489.002           0.000    22114602.537           0.000  
    525081.998           0.000    20650793.242           0.000  
 98  9 30 11 23 29.9990000  0  4G14G18G19G16
   2857421.001           0.000    23344657.666           0.000  
   1037262.002           0.000    19934488.940           0.000  
  -4404295.002           0.000    22113497.813           0.000  
    523215.998           0.000    20650438.124           0.000  
 98  9 30 11 23 30.9990000  0  5G 4G14G18G19G16
   1573185.002           0.000    20607227.302           0.000  
   2857119.998           0.000    23344600.315           0.000  
   1034291.998           0.000    19933923.855           0.000  
  -4410101.002           0.000    22112392.946           0.000  
    521349.000           0.000    20650082.920           0.000  
 98  9 30 11 23 31.9990000  0  5G 4G14G18G19G16
   1569508.001           0.000    20606533.096           0.000  
   2856818.001           0.000    23344542.755           0.000  
   1031321.000           0.000    19933358.802           0.000  
  -4415908.998           0.000    22111287.847           0.000  
    519480.998           0.000    20649727.540           0.000  
 98  9 30 11 23 32.9990000  0  5G 4G14G18G19G16
   1565831.000           0.000    20605827.223           0.000  
   2856515.001           0.000    23344484.972           0.000  
   1028349.998           0.000    19932793.584           0.000  
  -4421717.000           0.000    22110182.563           0.000  
    517613.001           0.000    20649371.987           0.000  
 98  9 30 11 23 33.9990000  0  5G 4G14G18G19G16
   1562154.998           0.000    20605124.528           0.000  
   2856211.003           0.000    23344427.120           0.000  
   1025378.002           0.000    19932228.284           0.000  
  -4427525.002           0.000    22109077.263           0.000  
    515744.000           0.000    20649016.357           0.000  
 98  9 30 11 23 34.9990000  0  5G 4G14G18G19G16
   1558479.001           0.000    20604423.701           0.000  
   2855906.999           0.000    23344369.198           0.000  
   1022406.999           0.000    19931662.915           0.000  
  -4433334.002           0.000    22107971.920           0.000  
    513874.001           0.000    20648660.660           0.000  
 98  9 30 11 23 35.9990000  0  5G 4G14G18G19G16
   1554802.998           0.000    20603721.329           0.000  
   2855602.002           0.000    23344311.195           0.000  
   1019434.998           0.000    19931097.501           0.000  
  -4439143.002           0.000    22106866.489           0.000  
    512005.000           0.000    20648304.891           0.000  
 98  9 30 11 23 36.9990000  0  5G 4G14G18G19G16
   1551127.999           0.000    20603020.727           0.000  
   2855297.000           0.000    23344253.168           0.000  
   1016464.001           0.000    19930532.135           0.000  
  -4444952.003           0.000    22105761.158           0.000  
    510135.001           0.000    20647949.193           0.000  
 98  9 30 11 23 37.9990000  0  5G 4G14G18G19G16
   1547454.998           0.000    20602317.408           0.000  
   2854992.003           0.000    23344195.083           0.000  
   1013492.998           0.000    19929966.770           0.000  
  -4450760.998           0.000    22104655.800           0.000  
    508265.002           0.000    20647593.495           0.000  
 98  9 30 11 23 38.9990000  0  5G 4G14G18G19G16
   1543779.999           0.000    20601615.386           0.000  
   2854687.000           0.000    23344136.956           0.000  
   1010521.002           0.000    19929401.457           0.000  
  -4456569.998           0.000    22103550.407           0.000  
    506396.001           0.000    20647237.764           0.000  
 98  9 30 11 23 39.9990000  0  5G 4G14G18G19G16
   1540102.998           0.000    20600915.399           0.000  
   2854381.000           0.000    23344078.640           0.000  
   1007550.000           0.000    19928835.871           0.000  
  -4462380.002           0.000    22102444.904           0.000  
    504524.999           0.000    20646881.881           0.000  
 98  9 30 11 23 40.9990000  0  5G 4G14G18G19G16
   1536428.998           0.000    20600219.014           0.000  
   2854074.999           0.000    23344020.255           0.000  
   1004579.002           0.000    19928270.239           0.000  
  -4468189.002           0.000    22101339.390           0.000  
    502654.001           0.000    20646525.923           0.000  
 98  9 30 11 23 41.9990000  0  5G 4G14G18G19G16
   1532753.001           0.000    20599522.436           0.000  
   2853768.000           0.000    23343961.924           0.000  
   1001607.001           0.000    19927704.706           0.000  
  -4473999.001           0.000    22100233.906           0.000  
    500784.002           0.000    20646169.988           0.000  
 98  9 30 11 23 42.9990000  0  5G 4G14G18G19G16
   1529078.002           0.000    20598829.757           0.000  
   2853461.001           0.000    23343903.350           0.000  
    998635.999           0.000    19927134.413           0.000  
  -4479809.000           0.000    22099128.296           0.000  
    498912.001           0.000    20645813.864           0.000  
 98  9 30 11 23 43.9990000  0  5G 4G14G18G19G16
   1525402.998           0.000    20598129.930           0.000  
   2853152.998           0.000    23343844.627           0.000  
    995662.999           0.000    19926559.686           0.000  
  -4485620.002           0.000    22098022.500           0.000  
    497039.999           0.000    20645457.605           0.000  
 98  9 30 11 23 44.9990000  0  5G 4G14G18G19G16
   1521726.002           0.000    20597429.227           0.000  
   2852844.002           0.000    23343785.805           0.000  
    992690.998           0.000    19925994.077           0.000  
  -4491431.998           0.000    22096916.608           0.000  
    495167.000           0.000    20645101.277           0.000  
 98  9 30 11 23 45.9990000  0  5G 4G14G18G19G16
   1518050.000           0.000    20596725.668           0.000  
   2852535.000           0.000    23343726.901           0.000  
    989717.999           0.000    19925429.456           0.000  
  -4497243.000           0.000    22095810.594           0.000  
    493294.000           0.000    20644744.849           0.000  
 98  9 30 11 23 46.9990000  0  4G 4G14G19G16
   1514372.001           0.000    20596023.012           0.000  
   2852225.001           0.000    23343667.859           0.000  
  -4503055.001           0.000    22094704.547           0.000  
    491421.000           0.000    20644388.379           0.000  
 98  9 30 11 23 47.9990000  0  5G 4G14G18G19G16
   1510695.000           0.000    20595323.035           0.000  
   2851915.001           0.000    23343608.744           0.000  
    983772.998           0.000    19924303.581           0.000  
  -4508867.002           0.000    22093598.519           0.000  
    489548.000           0.000    20644031.879           0.000  
 98  9 30 11 23 48.9990000  0  5G 4G14G18G19G16
   1507020.001           0.000    20594624.195           0.000  
   2851605.001           0.000    23343549.610           0.000  
    980801.002           0.000    19923739.976           0.000  
  -4514680.002           0.000    22092492.437           0.000  
    487674.002           0.000    20643675.344           0.000  
 98  9 30 11 23 49.9990000  0  5G 4G14G18G19G16
   1503343.999           0.000    20593925.686           0.000  
   2851294.003           0.000    23343490.419           0.000  
    977827.997           0.000    19923174.006           0.000  
  -4520492.002           0.000    22091386.219           0.000  
    485799.999           0.000    20643318.723           0.000  
 98  9 30 11 23 50.9990000  0  5G 4G14G18G19G16
   1499668.002           0.000    20593227.833           0.000  
   2850982.001           0.000    23343431.108           0.000  
    974854.998           0.000    19922607.955           0.000  
  -4526305.002           0.000    22090280.047           0.000  
    483926.001           0.000    20642962.063           0.000  
 98  9 30 11 23 51.9990000  0  5G 4G14G18G19G16
   1495991.999           0.000    20592529.232           0.000  
   2850671.002           0.000    23343371.787           0.000  
    971883.002           0.000    19922041.595           0.000  
  -4532118.001           0.000    22089173.785           0.000  
    482050.999           0.000    20642605.410           0.000  
 98  9 30 11 23 52.9990000  0  5G 4G14G18G19G16
   1492316.002           0.000    20591830.086           0.000  
   2850359.001           0.000    23343312.340           0.000  
    968909.997           0.000    19921475.705           0.000  
  -4537931.001           0.000    22088067.392           0.000  
    480177.000           0.000    20642248.682           0.000  
 98  9 30 11 23 53.9990000  0  5G 4G14G18G19G16
   1488640.998           0.000    20591130.988           0.000  
   2850046.000           0.000    23343252.836           0.000  
    965936.998           0.000    19920910.806           0.000  
  -4543744.000           0.000    22086961.082           0.000  
    478301.998           0.000    20641891.915           0.000  
 98  9 30 11 23 54.9990000  0  5G 4G14G18G19G16
   1484965.001           0.000    20590431.484           0.000  
   2849733.998           0.000    23343193.260           0.000  
    962963.998           0.000    19920345.288           0.000  
  -4549556.999           0.000    22085854.700           0.000  
    476427.002           0.000    20641535.129           0.000  
 98  9 30 11 23 55.9990000  0  5G 4G14G18G19G16
   1481288.998           0.000    20589731.386           0.000  
   2849419.999           0.000    23343133.522           0.000  
    959990.999           0.000    19919779.000           0.000  
  -4555372.001           0.000    22084748.199           0.000  
    474551.001           0.000    20641178.173           0.000  
 98  9 30 11 23 56.9990000  0  5G 4G14G18G19G16
   1477614.000           0.000    20589031.431           0.000  
   2849106.000           0.000    23343073.759           0.000  
    957017.999           0.000    19919213.648           0.000  
  -4561185.999           0.000    22083641.652           0.000  
    472675.001           0.000    20640821.177           0.000  
 98  9 30 11 23 57.9990000  0  5G 4G14G18G19G16
   1473937.997           0.000    20588331.368           0.000  
   2848790.998           0.000    23343013.892           0.000  
    954045.000           0.000    19918648.176           0.000  
  -4567000.002           0.000    22082535.064           0.000  
    470798.002           0.000    20640464.103           0.000  
 98  9 30 11 23 58.9990000  0  5G 4G14G18G19G16
   1470262.000           0.000    20587631.797           0.000  
   2848476.000           0.000    23342953.950           0.000  
    951071.002           0.000    19918082.761           0.000  
  -4572814.998           0.000    22081428.526           0.000  
    468920.998           0.000    20640107.004           0.000  
 98  9 30 11 23 59.9990000  0  5G 4G14G18G19G16
   1466587.002           0.000    20586932.428           0.000  
   2848160.998           0.000    23342893.926           0.000  
    948096.998           0.000    19917517.416           0.000  
  -4578630.000           0.000    22080321.969           0.000  
    467043.999           0.000    20639749.849           0.000  
 98  9 30 11 24  0.9990000  0  5G 4G14G18G19G16
   1462910.001           0.000    20586242.956           0.000  
   2847845.002           0.000    23342833.810           0.000  
    945123.999           0.000    19916951.629           0.000  
  -4584446.000           0.000    22079215.360           0.000  
    465167.001           0.000    20639392.623           0.000  
 98  9 30 11 24  1.9990000  0  5G 4G14G18G19G16
   1459233.000           0.000    20585543.490           0.000  
   2847528.003           0.000    23342773.538           0.000  
    942150.001           0.000    19916386.392           0.000  
  -4590262.000           0.000    22078108.699           0.000  
    463288.998           0.000    20639035.316           0.000  
 98  9 30 11 24  2.9990000  0  5G 4G14G18G19G16
   1455556.997           0.000    20584841.950           0.000  
   2847210.998           0.000    23342713.156           0.000  
    939175.998           0.000    19915820.733           0.000  
  -4596078.000           0.000    22077001.956           0.000  
    461411.001           0.000    20638677.942           0.000  
 98  9 30 11 24  3.9990000  0  5G 4G14G18G19G16
   1451881.999           0.000    20584144.690           0.000  
   2846893.000           0.000    23342652.751           0.000  
    936201.001           0.000    19915254.889           0.000  
  -4601894.000           0.000    22075895.183           0.000  
    459532.000           0.000    20638320.527           0.000  
 98  9 30 11 24  4.9990000  0  5G 4G14G18G19G16
   1448203.001           0.000    20583444.846           0.000  
   2846575.002           0.000    23342592.161           0.000  
    933226.998           0.000    19914689.184           0.000  
  -4607710.998           0.000    22074788.243           0.000  
    457652.999           0.000    20637963.013           0.000  
 98  9 30 11 24  5.9990000  0  5G 4G14G18G19G16
   1444526.000           0.000    20582742.860           0.000  
   2846256.000           0.000    23342531.517           0.000  
    930252.002           0.000    19914123.572           0.000  
  -4613528.002           0.000    22073681.275           0.000  
    455773.998           0.000    20637605.479           0.000  
 98  9 30 11 24  6.9990000  0  5G 4G14G18G19G16
   1440849.998           0.000    20582040.686           0.000  
   2845936.000           0.000    23342470.706           0.000  
    927277.000           0.000    19913557.568           0.000  
  -4619345.999           0.000    22072574.138           0.000  
    453893.998           0.000    20637247.807           0.000  
 98  9 30 11 24  7.9990000  0  5G 4G14G18G19G16
   1437173.002           0.000    20581339.485           0.000  
   2845616.000           0.000    23342409.856           0.000  
    924303.002           0.000    19912991.906           0.000  
  -4625164.001           0.000    22071467.115           0.000  
    452013.999           0.000    20636890.144           0.000  
 98  9 30 11 24  8.9990000  0  5G 4G14G18G19G16
   1433497.998           0.000    20580639.006           0.000  
   2845296.000           0.000    23342348.931           0.000  
    921328.000           0.000    19912426.158           0.000  
  -4630981.998           0.000    22070360.050           0.000  
    450133.999           0.000    20636532.397           0.000  
 98  9 30 11 24  9.9980000  0  5G 4G14G18G19G16
   3005246.998           0.000    20879732.781           0.000  
   4420396.000           0.000    23642080.468           0.000  
   2493775.999           0.000    20211653.366           0.000  
  -3061373.999           0.000    22369046.439           0.000  
   2023674.998           0.000    20935967.457           0.000  
 98  9 30 11 24 10.9980000  0  5G 4G14G18G19G16
   3001569.998           0.000    20879033.836           0.000  
   4420074.003           0.000    23642019.380           0.000  
   2490800.997           0.000    20211087.666           0.000  
  -3067192.999           0.000    22367939.165           0.000  
   2021794.001           0.000    20935609.561           0.000  
 98  9 30 11 24 11.9980000  0  5G 4G14G18G19G16
   2997894.999           0.000    20878334.225           0.000  
   4419752.000           0.000    23641958.138           0.000  
   2487826.001           0.000    20210521.950           0.000  
  -3073012.000           0.000    22366831.853           0.000  
   2019912.997           0.000    20935251.561           0.000  
 98  9 30 11 24 12.9980000  0  5G 4G14G18G19G16
   2994217.998           0.000    20877634.709           0.000  
   4419429.998           0.000    23641896.848           0.000  
   2484850.001           0.000    20209956.021           0.000  
  -3078831.000           0.000    22365724.484           0.000  
   2018031.001           0.000    20934893.573           0.000  
 98  9 30 11 24 13.9980000  0  5G 4G14G18G19G16
   2990541.002           0.000    20876935.573           0.000  
   4419107.003           0.000    23641835.419           0.000  
   2481874.999           0.000    20209390.117           0.000  
  -3084651.000           0.000    22364617.047           0.000  
   2016148.999           0.000    20934535.472           0.000  
 98  9 30 11 24 14.9980000  0  5G 4G14G18G19G16
   2986865.000           0.000    20876236.308           0.000  
   4418782.998           0.000    23641773.833           0.000  
   2478898.999           0.000    20208824.188           0.000  
  -3090470.999           0.000    22363509.487           0.000  
   2014265.999           0.000    20934177.216           0.000  
 98  9 30 11 24 15.9980000  0  5G 4G14G18G19G16
   2983186.002           0.000    20875534.586           0.000  
   4418458.000           0.000    23641712.110           0.000  
   2475922.999           0.000    20208257.921           0.000  
  -3096292.001           0.000    22362401.870           0.000  
   2012382.999           0.000    20933818.870           0.000  
 98  9 30 11 24 16.9980000  0  4G14G18G19G16
   4418133.003           0.000    23641650.281           0.000  
   2472946.000           0.000    20207691.643           0.000  
  -3102112.999           0.000    22361294.195           0.000  
   2010499.999           0.000    20933460.494           0.000  
 98  9 30 11 24 17.9980000  0  4G14G18G19G16
   4417808.000           0.000    23641588.301           0.000  
   2469970.000           0.000    20207125.358           0.000  
  -3107934.002           0.000    22360186.422           0.000  
   2008616.001           0.000    20933102.038           0.000  
 98  9 30 11 24 18.9980000  0  4G14G18G19G16
   4417481.000           0.000    23641526.287           0.000  
   2466993.001           0.000    20206559.008           0.000  
  -3113755.998           0.000    22359078.582           0.000  
   2006730.998           0.000    20932743.511           0.000  
 98  9 30 11 24 19.9980000  0  4G14G18G19G16
   4417154.999           0.000    23641464.152           0.000  
   2464017.001           0.000    20205992.612           0.000  
  -3119577.000           0.000    22357970.733           0.000  
   2004847.000           0.000    20932384.978           0.000  
 98  9 30 11 24 20.9980000  0  4G14G18G19G16
   4416827.999           0.000    23641401.949           0.000  
   2461039.997           0.000    20205426.412           0.000  
  -3125399.002           0.000    22356862.816           0.000  
   2002963.001           0.000    20932026.431           0.000  
 98  9 30 11 24 21.9980000  0  4G14G18G19G16
   4416500.999           0.000    23641339.758           0.000  
   2458063.997           0.000    20204860.027           0.000  
  -3131220.998           0.000    22355754.907           0.000  
   2001077.999           0.000    20931667.860           0.000  
 98  9 30 11 24 22.9980000  0  4G14G18G19G16
   4416173.999           0.000    23641277.513           0.000  
   2455088.002           0.000    20204293.614           0.000  
  -3137042.999           0.000    22354647.061           0.000  
   1999193.002           0.000    20931309.251           0.000  
 98  9 30 11 24 23.9980000  0  4G14G18G19G16
   4415845.002           0.000    23641215.131           0.000  
   2452110.998           0.000    20203727.105           0.000  
  -3142865.999           0.000    22353539.041           0.000  
   1997308.000           0.000    20930950.562           0.000  
 98  9 30 11 24 24.9980000  0  4G14G18G19G16
   4415516.000           0.000    23641152.440           0.000  
   2449133.001           0.000    20203160.406           0.000  
  -3148688.998           0.000    22352430.810           0.000  
   1995421.999           0.000    20930591.647           0.000  
 98  9 30 11 24 25.9980000  0  4G14G18G19G16
   4415186.000           0.000    23641089.690           0.000  
   2446155.997           0.000    20202593.577           0.000  
  -3154513.002           0.000    22351322.577           0.000  
   1993535.000           0.000    20930232.638           0.000  
 98  9 30 11 24 26.9980000  0  4G14G18G19G16
   4414855.001           0.000    23641026.903           0.000  
   2443178.000           0.000    20202026.994           0.000  
  -3160337.000           0.000    22350214.335           0.000  
   1991648.001           0.000    20929873.606           0.000  
 98  9 30 11 24 27.9980000  0  4G14G18G19G16
   4414525.000           0.000    23640964.042           0.000  
   2440199.998           0.000    20201460.433           0.000  
  -3166160.998           0.000    22349106.127           0.000  
   1989761.002           0.000    20929514.541           0.000  
 98  9 30 11 24 28.9980000  0  4G14G18G19G16
   4414194.002           0.000    23640901.117           0.000  
   2437222.999           0.000    20200893.737           0.000  
  -3171985.002           0.000    22347997.899           0.000  
   1987873.997           0.000    20929155.457           0.000  
 98  9 30 11 24 29.9980000  0  4G14G18G19G16
   4413861.999           0.000    23640838.097           0.000  
   2434246.001           0.000    20200327.187           0.000  
  -3177809.998           0.000    22346889.510           0.000  
   1985986.000           0.000    20928796.297           0.000  
 98  9 30 11 24 30.9980000  0  4G14G18G19G16
   4413531.000           0.000    23640775.072           0.000  
   2431267.999           0.000    20199760.633           0.000  
  -3183634.002           0.000    22345781.218           0.000  
   1984099.000           0.000    20928437.161           0.000  
 98  9 30 11 24 31.9980000  0  4G14G18G19G16
   4413197.999           0.000    23640711.862           0.000  
   2428291.000           0.000    20199194.108           0.000  
  -3189458.998           0.000    22344672.903           0.000  
   1982210.998           0.000    20928077.954           0.000  
 98  9 30 11 24 32.9980000  0  4G14G18G19G16
   4412866.002           0.000    23640648.602           0.000  
   2425314.001           0.000    20198627.584           0.000  
  -3195284.000           0.000    22343564.663           0.000  
   1980323.000           0.000    20927718.717           0.000  
 98  9 30 11 24 33.9980000  0  4G14G18G19G16
   4412533.000           0.000    23640585.313           0.000  
   2422335.999           0.000    20198060.998           0.000  
  -3201109.002           0.000    22342456.323           0.000  
   1978435.002           0.000    20927359.466           0.000  
 98  9 30 11 24 34.9980000  0  4G14G18G19G16
   4412199.001           0.000    23640521.869           0.000  
   2419358.002           0.000    20197494.362           0.000  
  -3206933.999           0.000    22341347.844           0.000  
   1976546.001           0.000    20927000.102           0.000  
 98  9 30 11 24 35.9980000  0  4G14G18G19G16
   4411863.998           0.000    23640458.156           0.000  
   2416380.000           0.000    20196927.717           0.000  
  -3212761.003           0.000    22340239.245           0.000  
   1974657.000           0.000    20926640.517           0.000  
 98  9 30 11 24 36.9980000  0  4G14G18G19G16
   4411529.000           0.000    23640394.392           0.000  
   2413400.999           0.000    20196360.985           0.000  
  -3218586.998           0.000    22339130.492           0.000  
   1972767.000           0.000    20926280.874           0.000  
 98  9 30 11 24 37.9980000  0  4G14G18G19G16
   4411192.998           0.000    23640330.558           0.000  
   2410421.998           0.000    20195794.233           0.000  
  -3224414.002           0.000    22338021.760           0.000  
   1970877.000           0.000    20925921.203           0.000  
 98  9 30 11 24 38.9980000  0  4G14G18G19G16
   4410857.001           0.000    23640266.715           0.000  
   2407444.001           0.000    20195227.567           0.000  
  -3230241.000           0.000    22336912.971           0.000  
   1968986.002           0.000    20925561.460           0.000  
 98  9 30 11 24 39.9980000  0  4G14G18G19G16
   4410521.000           0.000    23640202.775           0.000  
   2404465.000           0.000    20194660.861           0.000  
  -3236067.999           0.000    22335804.104           0.000  
   1967096.002           0.000    20925201.648           0.000  
 98  9 30 11 24 40.9980000  0  4G14G18G19G16
   4410184.000           0.000    23640138.675           0.000  
   2401485.999           0.000    20194094.110           0.000  
  -3241896.002           0.000    22334695.159           0.000  
   1965204.999           0.000    20924841.744           0.000  
 98  9 30 11 24 41.9980000  0  4G14G18G19G16
   4409846.999           0.000    23640074.610           0.000  
   2398508.002           0.000    20193527.499           0.000  
  -3247723.001           0.000    22333586.220           0.000  
   1963314.000           0.000    20924481.906           0.000  
 98  9 30 11 24 42.9980000  0  4G14G18G19G16
   4409509.001           0.000    23640010.395           0.000  
   2395529.002           0.000    20192967.691           0.000  
  -3253550.998           0.000    22332477.242           0.000  
   1961421.998           0.000    20924121.988           0.000  
 98  9 30 11 24 43.9980000  0  4G14G18G19G16
   4409171.002           0.000    23639946.140           0.000  
   2392550.001           0.000    20192399.146           0.000  
  -3259379.000           0.000    22331368.321           0.000  
   1959531.000           0.000    20923762.107           0.000  
 98  9 30 11 24 44.9980000  0  4G14G18G19G16
   4408834.002           0.000    23639881.853           0.000  
   2389571.998           0.000    20191832.319           0.000  
  -3265207.003           0.000    22330259.408           0.000  
   1957640.002           0.000    20923402.227           0.000  
 98  9 30 11 24 45.9980000  0  4G14G18G19G16
   4408495.000           0.000    23639817.569           0.000  
   2386592.998           0.000    20191264.946           0.000  
  -3271035.000           0.000    22329150.405           0.000  
   1955748.000           0.000    20923042.266           0.000  
 98  9 30 11 24 46.9980000  0  4G14G18G19G16
   4408157.001           0.000    23639753.250           0.000  
   2383615.001           0.000    20190696.944           0.000  
  -3276863.002           0.000    22328041.327           0.000  
   1953857.002           0.000    20922682.313           0.000  
 98  9 30 11 24 47.9980000  0  4G14G18G19G16
   4407817.999           0.000    23639688.929           0.000  
   2380636.998           0.000    20190129.264           0.000  
  -3282690.001           0.000    22326932.281           0.000  
   1951965.998           0.000    20922322.411           0.000  
 98  9 30 11 24 48.9980000  0  4G14G18G19G16
   4407480.000           0.000    23639624.469           0.000  
   2377659.001           0.000    20189561.724           0.000  
  -3288517.999           0.000    22325823.265           0.000  
   1950074.002           0.000    20921962.498           0.000  
 98  9 30 11 24 49.9980000  0  4G14G18G19G16
   4407139.999           0.000    23639559.942           0.000  
   2374680.999           0.000    20188993.251           0.000  
  -3294346.999           0.000    22324714.178           0.000  
   1948182.000           0.000    20921602.512           0.000  
 98  9 30 11 24 50.9980000  0  4G14G18G19G16
   4406799.998           0.000    23639495.375           0.000  
   2371703.002           0.000    20188425.738           0.000  
  -3300175.002           0.000    22323605.027           0.000  
   1946289.998           0.000    20921242.483           0.000  
 98  9 30 11 24 51.9980000  0  4G14G18G19G16
   4406459.998           0.000    23639430.694           0.000  
   2368724.999           0.000    20187858.649           0.000  
  -3306003.998           0.000    22322495.877           0.000  
   1944396.997           0.000    20920882.408           0.000  
 98  9 30 11 24 52.9980000  0  4G14G18G19G16
   4406120.002           0.000    23639365.971           0.000  
   2365747.002           0.000    20187291.391           0.000  
  -3311832.999           0.000    22321386.710           0.000  
   1942504.002           0.000    20920522.290           0.000  
 98  9 30 11 24 53.9980000  0  4G14G18G19G16
   4405778.998           0.000    23639301.169           0.000  
   2362768.002           0.000    20186723.638           0.000  
  -3317662.000           0.000    22320277.510           0.000  
   1940611.002           0.000    20920162.098           0.000  
 98  9 30 11 24 54.9980000  0  4G14G18G19G16
   4405437.000           0.000    23639236.198           0.000  
   2359789.001           0.000    20186148.893           0.000  
  -3323491.999           0.000    22319168.144           0.000  
   1938718.001           0.000    20919801.753           0.000  
 98  9 30 11 24 55.9980000  0  4G14G18G19G16
   4405093.999           0.000    23639171.030           0.000  
   2356810.000           0.000    20185580.508           0.000  
  -3329323.002           0.000    22318058.657           0.000  
   1936822.999           0.000    20919441.313           0.000  
 98  9 30 11 24 56.9980000  0  4G14G18G19G16
   4404751.002           0.000    23639105.803           0.000  
   2353830.999           0.000    20185015.596           0.000  
  -3335154.000           0.000    22316949.191           0.000  
   1934929.000           0.000    20919080.797           0.000  
 98  9 30 11 24 57.9980000  0  4G14G18G19G16
   4404408.001           0.000    23639040.598           0.000  
   2350851.999           0.000    20184447.999           0.000  
  -3340983.999           0.000    22315839.625           0.000  
   1933033.997           0.000    20918720.278           0.000  
 98  9 30 11 24 58.9980000  0  4G14G18G19G16
   4404065.000           0.000    23638975.356           0.000  
   2347872.998           0.000    20183879.227           0.000  
  -3346815.002           0.000    22314730.152           0.000  
   1931139.000           0.000    20918359.788           0.000  
 98  9 30 11 24 59.9980000  0  4G14G18G19G16
   4403721.000           0.000    23638910.034           0.000  
   2344895.001           0.000    20183311.769           0.000  
  -3352646.000           0.000    22313620.632           0.000  
   1929245.001           0.000    20917999.277           0.000  
 98  9 30 11 25  0.9980000  0  4G14G18G19G16
   4403377.000           0.000    23638844.606           0.000  
   2341916.000           0.000    20182744.624           0.000  
  -3358476.998           0.000    22312511.045           0.000  
   1927349.999           0.000    20917638.683           0.000  
 98  9 30 11 25  1.9980000  0  4G14G18G19G16
   4403032.001           0.000    23638779.129           0.000  
   2338936.999           0.000    20182177.156           0.000  
  -3364309.000           0.000    22311401.426           0.000  
   1925453.998           0.000    20917278.017           0.000  
 98  9 30 11 25  2.9980000  0  4G14G18G19G16
   4402686.998           0.000    23638713.515           0.000  
   2335957.000           0.000    20181610.290           0.000  
  -3370141.001           0.000    22310291.798           0.000  
   1923559.000           0.000    20916917.300           0.000  
 98  9 30 11 25  3.9980000  0  4G14G18G19G16
   4402342.000           0.000    23638647.820           0.000  
   2332977.999           0.000    20181044.133           0.000  
  -3375972.998           0.000    22309182.071           0.000  
   1921662.999           0.000    20916556.560           0.000  
 98  9 30 11 25  4.9980000  0  4G14G18G19G16
   4401996.003           0.000    23638582.031           0.000  
   2329998.998           0.000    20180478.144           0.000  
  -3381804.999           0.000    22308072.263           0.000  
   1919766.000           0.000    20916195.720           0.000  
 98  9 30 11 25  5.9980000  0  4G14G18G19G16
   4401649.002           0.000    23638516.166           0.000  
   2327019.998           0.000    20179912.038           0.000  
  -3387637.999           0.000    22306962.382           0.000  
   1917869.999           0.000    20915834.856           0.000  
 98  9 30 11 25  6.9980000  0  4G14G18G19G16
   4401303.000           0.000    23638450.249           0.000  
   2324039.998           0.000    20179345.904           0.000  
  -3393470.999           0.000    22305852.557           0.000  
   1915972.999           0.000    20915473.983           0.000  
 98  9 30 11 25  7.9980000  0  4G14G18G19G16
   4400956.000           0.000    23638384.166           0.000  
   2321060.997           0.000    20178779.789           0.000  
  -3399303.999           0.000    22304742.533           0.000  
   1914076.000           0.000    20915112.991           0.000  
 98  9 30 11 25  8.9980000  0  4G14G18G19G16
   4400608.001           0.000    23638317.994           0.000  
   2318080.998           0.000    20178213.706           0.000  
  -3405136.999           0.000    22303632.441           0.000  
   1912179.000           0.000    20914751.925           0.000  
 98  9 30 11 25  9.9980000  0  4G14G18G19G16
   4400260.002           0.000    23638251.769           0.000  
   2315100.999           0.000    20177647.337           0.000  
  -3410970.998           0.000    22302522.302           0.000  
   1910281.002           0.000    20914390.764           0.000  
 98  9 30 11 25 10.9980000  0  4G14G18G19G16
   4399910.999           0.000    23638185.462           0.000  
   2312121.000           0.000    20177080.477           0.000  
  -3416805.002           0.000    22301412.052           0.000  
   1908382.999           0.000    20914029.554           0.000  
 98  9 30 11 25 11.9980000  0  4G14G18G19G16
   4399562.002           0.000    23638119.057           0.000  
   2309141.001           0.000    20176513.910           0.000  
  -3422639.999           0.000    22300301.839           0.000  
   1906483.997           0.000    20913668.289           0.000  
 98  9 30 11 25 12.9980000  0  4G14G18G19G16
   4399211.002           0.000    23638052.458           0.000  
   2306159.998           0.000    20175955.836           0.000  
  -3428475.001           0.000    22299191.479           0.000  
   1904585.001           0.000    20913306.897           0.000  
 98  9 30 11 25 13.9980000  0  4G14G18G19G16
   4398861.001           0.000    23637985.814           0.000  
   2303179.000           0.000    20175390.900           0.000  
  -3434311.001           0.000    22298081.076           0.000  
   1902685.001           0.000    20912945.453           0.000  
 98  9 30 11 25 14.9980000  0  4G14G18G19G16
   4398510.001           0.000    23637919.076           0.000  
   2300199.001           0.000    20174822.810           0.000  
  -3440145.998           0.000    22296970.551           0.000  
   1900785.999           0.000    20912583.948           0.000  
 98  9 30 11 25 15.9980000  0  4G14G18G19G16
   4398157.998           0.000    23637852.156           0.000  
   2297216.999           0.000    20174254.369           0.000  
  -3445983.003           0.000    22295859.916           0.000  
   1898885.001           0.000    20912222.337           0.000  
 98  9 30 11 25 16.9980000  0  4G14G18G19G16
   4397806.000           0.000    23637785.195           0.000  
   2294236.002           0.000    20173686.216           0.000  
  -3451818.998           0.000    22294749.237           0.000  
   1896985.001           0.000    20911860.661           0.000  
 98  9 30 11 25 17.9980000  0  4G14G18G19G16
   4397454.002           0.000    23637718.239           0.000  
   2291254.999           0.000    20173118.243           0.000  
  -3457656.003           0.000    22293638.513           0.000  
   1895084.002           0.000    20911498.939           0.000  
 98  9 30 11 25 18.9980000  0  4G14G18G19G16
   4397101.000           0.000    23637651.169           0.000  
   2288274.001           0.000    20172550.302           0.000  
  -3463493.002           0.000    22292527.853           0.000  
   1893182.998           0.000    20911137.214           0.000  
 98  9 30 11 25 19.9980000  0  4G14G18G19G16
   4396747.998           0.000    23637583.994           0.000  
   2285292.998           0.000    20171983.002           0.000  
  -3469329.002           0.000    22291417.091           0.000  
   1891282.000           0.000    20910775.507           0.000  
 98  9 30 11 25 20.9980000  0  4G14G18G19G16
   4396395.002           0.000    23637516.773           0.000  
   2282312.000           0.000    20171415.720           0.000  
  -3475167.000           0.000    22290306.263           0.000  
   1889381.001           0.000    20910413.696           0.000  
 98  9 30 11 25 21.9980000  0  4G14G18G19G16
   4396041.002           0.000    23637449.565           0.000  
   2279330.997           0.000    20170841.810           0.000  
  -3481003.999           0.000    22289195.452           0.000  
   1887479.997           0.000    20910051.898           0.000  
 98  9 30 11 25 22.9980000  0  4G14G18G19G16
   4395687.002           0.000    23637382.275           0.000  
   2276350.998           0.000    20170275.667           0.000  
  -3486840.998           0.000    22288084.667           0.000  
   1885578.000           0.000    20909690.049           0.000  
 98  9 30 11 25 23.9980000  0  5G 4G14G18G19G16
   3146429.002           0.000    20827967.031           0.000  
   4395333.001           0.000    23637314.814           0.000  
   2273369.002           0.000    20169707.012           0.000  
  -3492678.003           0.000    22286973.786           0.000  
   1883675.998           0.000    20909328.057           0.000  
 98  9 30 11 25 24.9980000  0  5G 4G14G18G19G16
   3142756.000           0.000    20827268.944           0.000  
   4394978.003           0.000    23637247.324           0.000  
   2270387.999           0.000    20169139.798           0.000  
  -3498516.000           0.000    22285862.909           0.000  
   1881774.001           0.000    20908966.053           0.000  
 98  9 30 11 25 25.9980000  0  5G 4G14G18G19G16
   3139082.998           0.000    20826563.966           0.000  
   4394622.999           0.000    23637179.812           0.000  
   2267407.001           0.000    20168572.119           0.000  
  -3504353.998           0.000    22284752.005           0.000  
   1879871.999           0.000    20908604.046           0.000  
 98  9 30 11 25 26.9980000  0  5G 4G14G18G19G16
   3135407.001           0.000    20825861.645           0.000  
   4394267.002           0.000    23637112.191           0.000  
   2264425.998           0.000    20168004.502           0.000  
  -3510192.000           0.000    22283641.040           0.000  
   1877968.998           0.000    20908241.930           0.000  
 98  9 30 11 25 27.9980000  0  4G14G18G19G16
   4393911.998           0.000    23637044.499           0.000  
   2261445.001           0.000    20167437.864           0.000  
  -3516031.002           0.000    22282530.050           0.000  
   1876067.001           0.000    20907879.819           0.000  
 98  9 30 11 25 28.9980000  0  4G14G18G19G16
   4393555.002           0.000    23636976.705           0.000  
   2258463.998           0.000    20166870.503           0.000  
  -3521868.999           0.000    22281418.941           0.000  
   1874163.002           0.000    20907517.603           0.000  
 98  9 30 11 25 29.9980000  0  4G14G18G19G16
   4393198.001           0.000    23636908.830           0.000  
   2255482.002           0.000    20166302.774           0.000  
  -3527708.001           0.000    22280307.718           0.000  
   1872260.001           0.000    20907155.317           0.000  
 98  9 30 11 25 30.9980000  0  4G14G18G19G16
   4392841.000           0.000    23636840.829           0.000  
   2252500.999           0.000    20165734.937           0.000  
  -3533548.000           0.000    22279196.434           0.000  
   1870356.002           0.000    20906792.959           0.000  
 98  9 30 11 25 31.9980000  0  4G14G18G19G16
   4392483.001           0.000    23636772.765           0.000  
   2249519.002           0.000    20165167.004           0.000  
  -3539387.002           0.000    22278085.138           0.000  
   1868451.997           0.000    20906430.584           0.000  
 98  9 30 11 25 32.9980000  0  4G14G18G19G16
   4392125.002           0.000    23636704.558           0.000  
   2246537.001           0.000    20164594.911           0.000  
  -3545227.001           0.000    22276973.748           0.000  
   1866547.000           0.000    20906068.062           0.000  
 98  9 30 11 25 33.9980000  0  4G14G18G19G16
   4391765.999           0.000    23636636.369           0.000  
   2243555.000           0.000    20164025.458           0.000  
  -3551067.001           0.000    22275862.355           0.000  
   1864642.002           0.000    20905705.510           0.000  
 98  9 30 11 25 34.9980000  0  4G14G18G19G16
   4391407.001           0.000    23636567.989           0.000  
   2240572.998           0.000    20163457.110           0.000  
  -3556907.999           0.000    22274750.771           0.000  
   1862736.999           0.000    20905342.870           0.000  
 98  9 30 11 25 35.9980000  0  4G14G18G19G16
   4391047.000           0.000    23636499.463           0.000  
   2237591.002           0.000    20162891.237           0.000  
  -3562749.003           0.000    22273639.120           0.000  
   1860830.998           0.000    20904980.105           0.000  
 98  9 30 11 25 36.9980000  0  4G14G18G19G16
   4390686.000           0.000    23636430.820           0.000  
   2234608.002           0.000    20162325.166           0.000  
  -3568590.999           0.000    22272527.429           0.000  
   1858925.002           0.000    20904617.253           0.000  
 98  9 30 11 25 37.9980000  0  4G14G18G19G16
   4390325.000           0.000    23636362.190           0.000  
   2231625.002           0.000    20161758.749           0.000  
  -3574431.998           0.000    22271415.716           0.000  
   1857018.002           0.000    20904254.388           0.000  
 98  9 30 11 25 38.9980000  0  4G14G18G19G16
   4389964.000           0.000    23636293.438           0.000  
   2228641.997           0.000    20161192.223           0.000  
  -3580274.000           0.000    22270303.972           0.000  
   1855112.000           0.000    20903891.504           0.000  
 98  9 30 11 25 39.9980000  0  4G14G18G19G16
   4389603.000           0.000    23636224.601           0.000  
   2225658.997           0.000    20160625.171           0.000  
  -3586116.001           0.000    22269192.183           0.000  
   1853205.001           0.000    20903528.585           0.000  
 98  9 30 11 25 40.9980000  0  4G14G18G19G16
   4389241.002           0.000    23636155.692           0.000  
   2222675.997           0.000    20160058.345           0.000  
  -3591957.998           0.000    22268080.345           0.000  
   1851298.001           0.000    20903165.618           0.000  
 98  9 30 11 25 41.9980000  0  4G14G18G19G16
   4388878.000           0.000    23636086.714           0.000  
   2219692.998           0.000    20159491.366           0.000  
  -3597800.998           0.000    22266968.467           0.000  
   1849389.997           0.000    20902802.585           0.000  
 98  9 30 11 25 42.9980000  0  4G14G18G19G16
   4388515.003           0.000    23636017.589           0.000  
   2216709.998           0.000    20158924.538           0.000  
  -3603643.999           0.000    22265856.619           0.000  
   1847481.999           0.000    20902439.394           0.000  
 98  9 30 11 25 43.9980000  0  4G14G18G19G16
   4388151.002           0.000    23635948.287           0.000  
   2213725.999           0.000    20158357.469           0.000  
  -3609487.998           0.000    22264744.633           0.000  
   1845573.002           0.000    20902076.138           0.000  
 98  9 30 11 25 44.9980000  0  4G14G18G19G16
   4387787.002           0.000    23635878.923           0.000  
   2210742.001           0.000    20157797.250           0.000  
  -3615332.002           0.000    22263632.605           0.000  
   1843664.999           0.000    20901712.850           0.000  
 98  9 30 11 25 45.9980000  0  4G14G18G19G16
   4387422.003           0.000    23635809.517           0.000  
   2207757.998           0.000    20157230.806           0.000  
  -3621176.001           0.000    22262520.550           0.000  
   1841756.002           0.000    20901349.506           0.000  
 98  9 30 11 25 46.9980000  0  4G14G18G19G16
   4387056.998           0.000    23635740.067           0.000  
   2204773.999           0.000    20156662.388           0.000  
  -3627019.999           0.000    22261408.414           0.000  
   1839847.000           0.000    20900986.178           0.000  
 98  9 30 11 25 47.9980000  0  4G14G18G19G16
   4386691.999           0.000    23635670.515           0.000  
   2201790.001           0.000    20156093.826           0.000  
  -3632863.998           0.000    22260296.197           0.000  
   1837936.999           0.000    20900622.833           0.000  
 98  9 30 11 25 48.9980000  0  4G14G18G19G16
   4386327.000           0.000    23635600.981           0.000  
   2198807.001           0.000    20155525.490           0.000  
  -3638708.002           0.000    22259184.048           0.000  
   1836027.997           0.000    20900259.487           0.000  
 98  9 30 11 25 49.9980000  0  4G14G18G19G16
   4385960.998           0.000    23635531.399           0.000  
   2195822.997           0.000    20154957.260           0.000  
  -3644553.000           0.000    22258071.871           0.000  
   1834119.001           0.000    20899896.115           0.000  
 98  9 30 11 25 50.9980000  0  4G14G18G19G16
   4385595.000           0.000    23635461.712           0.000  
   2192838.999           0.000    20154389.395           0.000  
  -3650396.998           0.000    22256959.601           0.000  
   1832209.000           0.000    20899532.642           0.000  
 98  9 30 11 25 51.9980000  0  4G14G18G19G16
   4385229.003           0.000    23635392.024           0.000  
   2189855.999           0.000    20153821.481           0.000  
  -3656242.001           0.000    22255847.369           0.000  
   1830299.998           0.000    20899169.213           0.000  
 98  9 30 11 25 52.9980000  0  4G14G18G19G16
   4384863.000           0.000    23635322.284           0.000  
   2186872.001           0.000    20153254.310           0.000  
  -3662086.998           0.000    22254735.155           0.000  
   1828389.998           0.000    20898805.744           0.000  
 98  9 30 11 25 53.9980000  0  4G14G18G19G16
   4384495.999           0.000    23635252.496           0.000  
   2183887.997           0.000    20152686.955           0.000  
  -3667932.001           0.000    22253622.813           0.000  
   1826479.997           0.000    20898442.262           0.000  
 98  9 30 11 25 54.9980000  0  4G14G18G19G16
   4384127.999           0.000    23635182.512           0.000  
   2180903.999           0.000    20152119.504           0.000  
  -3673776.998           0.000    22252510.470           0.000  
   1824568.999           0.000    20898078.680           0.000  
 98  9 30 11 25 55.9980000  0  4G14G18G19G16
   4383759.001           0.000    23635112.291           0.000  
   2177919.002           0.000    20151551.991           0.000  
  -3679624.003           0.000    22251397.945           0.000  
   1822658.000           0.000    20897714.891           0.000  
 98  9 30 11 25 56.9980000  0  4G14G18G19G16
   4383389.998           0.000    23635041.989           0.000  
   2174934.999           0.000    20150984.237           0.000  
  -3685469.998           0.000    22250285.334           0.000  
   1820746.002           0.000    20897351.116           0.000  
 98  9 30 11 25 57.9980000  0  4G14G18G19G16
   4383021.000           0.000    23634971.664           0.000  
   2171950.002           0.000    20150416.736           0.000  
  -3691316.998           0.000    22249172.567           0.000  
   1818834.000           0.000    20896987.302           0.000  
 98  9 30 11 25 58.9980000  0  4G14G18G19G16
   4382652.002           0.000    23634901.417           0.000  
   2168965.000           0.000    20149849.238           0.000  
  -3697162.999           0.000    22248059.854           0.000  
   1816923.001           0.000    20896623.537           0.000  
 98  9 30 11 25 59.9980000  0  4G14G18G19G16
   4382282.000           0.000    23634830.998           0.000  
   2165981.002           0.000    20149281.646           0.000  
  -3703009.998           0.000    22246947.166           0.000  
   1815010.998           0.000    20896259.737           0.000  
 98  9 30 11 26  0.9980000  0  4G14G18G19G16
   4381911.000           0.000    23634760.414           0.000  
   2162995.001           0.000    20148713.931           0.000  
  -3708858.002           0.000    22245834.213           0.000  
   1813098.002           0.000    20895895.749           0.000  
 98  9 30 11 26  1.9980000  0  4G14G18G19G16
   4381539.999           0.000    23634689.775           0.000  
   2160009.999           0.000    20148145.933           0.000  
  -3714705.999           0.000    22244721.237           0.000  
   1811185.001           0.000    20895531.741           0.000  
 98  9 30 11 26  2.9980000  0  4G14G18G19G16
   4381168.001           0.000    23634619.093           0.000  
   2157025.002           0.000    20147577.988           0.000  
  -3720554.003           0.000    22243608.373           0.000  
   1809272.000           0.000    20895167.732           0.000  
 98  9 30 11 26  3.9980000  0  4G14G18G19G16
   4380797.000           0.000    23634548.338           0.000  
   2154039.002           0.000    20147010.099           0.000  
  -3726402.001           0.000    22242495.540           0.000  
   1807359.998           0.000    20894803.705           0.000  
 98  9 30 11 26  4.9980000  0  4G14G18G19G16
   4380425.002           0.000    23634477.610           0.000  
   2151054.000           0.000    20146441.997           0.000  
  -3732249.998           0.000    22241382.708           0.000  
   1805447.002           0.000    20894439.681           0.000  
 98  9 30 11 26  5.9980000  0  4G14G18G19G16
   4380052.998           0.000    23634406.782           0.000  
   2148068.998           0.000    20145874.024           0.000  
  -3738098.002           0.000    22240269.801           0.000  
   1803534.001           0.000    20894075.686           0.000  
 98  9 30 11 26  6.9980000  0  5G 7G14G18G19G16
   3150747.002           0.000    24264184.682           0.000  
   4379680.001           0.000    23634335.877           0.000  
   2145084.001           0.000    20145306.097           0.000  
  -3743945.999           0.000    22239156.884           0.000  
   1801620.001           0.000    20893711.624           0.000  
 98  9 30 11 26  7.9980000  0  5G 7G14G18G19G16
   3150662.001           0.000    24264171.800           0.000  
   4379308.002           0.000    23634264.996           0.000  
   2142099.997           0.000    20144738.311           0.000  
  -3749794.003           0.000    22238044.064           0.000  
   1799707.999           0.000    20893347.611           0.000  
 98  9 30 11 26  8.9980000  0  6G 4G 7G14G18G19G16
   3146393.000           0.000    20796493.864           0.000  
   3150578.998           0.000    24264156.967           0.000  
   4378934.999           0.000    23634194.021           0.000  
   2139115.001           0.000    20144170.330           0.000  
  -3755642.001           0.000    22236931.183           0.000  
   1797793.999           0.000    20892983.496           0.000  
 98  9 30 11 26  9.9980000  0  6G 4G 7G14G18G19G16
   3142719.000           0.000    20795794.385           0.000  
   3150496.000           0.000    24264143.105           0.000  
   4378562.002           0.000    23634123.033           0.000  
   2136129.999           0.000    20143602.428           0.000  
  -3761491.002           0.000    22235818.310           0.000  
   1795880.998           0.000    20892619.410           0.000  
 98  9 30 11 26 10.9980000  0  6G 4G 7G14G18G19G16
   3139045.998           0.000    20795095.364           0.000  
   3150413.002           0.000    24264129.713           0.000  
   4378188.001           0.000    23634051.983           0.000  
   2133146.000           0.000    20143034.437           0.000  
  -3767339.000           0.000    22234705.381           0.000  
   1793968.002           0.000    20892255.348           0.000  
 98  9 30 11 26 11.9980000  0  6G 4G 7G14G18G19G16
   3135374.000           0.000    20794397.376           0.000  
   3150329.000           0.000    24264113.494           0.000  
   4377814.999           0.000    23633980.915           0.000  
   2130162.002           0.000    20142466.241           0.000  
  -3773186.998           0.000    22233592.474           0.000  
   1792055.001           0.000    20891891.314           0.000  
 98  9 30 11 26 12.9980000  0  6G 4G 7G14G18G19G16
   3131702.002           0.000    20793699.363           0.000  
   3150243.002           0.000    24264099.000           0.000  
   4377440.998           0.000    23633909.802           0.000  
   2127177.000           0.000    20141898.012           0.000  
  -3779035.001           0.000    22232479.517           0.000  
   1790142.000           0.000    20891527.249           0.000  
 98  9 30 11 26 13.9980000  0  6G 4G 7G14G18G19G16
   3128032.000           0.000    20792995.227           0.000  
   3150159.000           0.000    24264083.376           0.000  
   4377067.003           0.000    23633838.580           0.000  
   2124193.002           0.000    20141329.924           0.000  
  -3784884.003           0.000    22231366.583           0.000  
   1788228.000           0.000    20891163.155           0.000  
 98  9 30 11 26 14.9980000  0  6G 4G 7G14G18G19G16
   3124358.000           0.000    20792305.839           0.000  
   3150073.001           0.000    24264067.840           0.000  
   4376693.002           0.000    23633767.335           0.000  
   2121208.998           0.000    20140761.919           0.000  
  -3790732.001           0.000    22230253.654           0.000  
   1786314.999           0.000    20890799.047           0.000  
 98  9 30 11 26 15.9980000  0  6G 4G 7G14G18G19G16
   3120684.998           0.000    20791609.797           0.000  
   3149985.000           0.000    24264051.698           0.000  
   4376318.002           0.000    23633695.964           0.000  
   2118225.000           0.000    20140193.876           0.000  
  -3796581.002           0.000    22229140.618           0.000  
   1784401.000           0.000    20890434.854           0.000  
 98  9 30 11 26 16.9980000  0  6G 4G 7G14G18G19G16
   3117013.000           0.000    20790912.192           0.000  
   3149897.998           0.000    24264035.009           0.000  
   4375942.998           0.000    23633624.530           0.000  
   2115239.998           0.000    20139625.869           0.000  
  -3802429.999           0.000    22228027.588           0.000  
   1782487.000           0.000    20890070.577           0.000  
 98  9 30 11 26 17.9980000  0  6G 4G 7G14G18G19G16
   3113341.002           0.000    20790212.971           0.000  
   3149811.999           0.000    24264019.001           0.000  
   4375567.000           0.000    23633553.029           0.000  
   2112255.999           0.000    20139057.633           0.000  
  -3808279.000           0.000    22226914.529           0.000  
