     2.10           OBSERVATION DATA    G (GPS)             RINEX VERSION / TYPE
rinexwrt            gAGE                20100505 12:45:58UTCPGM / RUN BY / DATE
gAGE                                                        MARKER NAME
gAGE                gAGE                                    OBSERVER / AGENCY
Unknown             Unknown             Unknown             REC # / TYPE / VERS
Unknown             Unknown                                 ANT # / TYPE
  5436447.3690 -1496036.6390  2971380.3580                  APPROX POSITION XYZ
        0.0000        0.0000        0.0000                  ANTENNA: DELTA H/E/N
     1     1                                                WAVELENGTH FACT L1/2
     4    L1    L2    C1    P2                              # / TYPES OF OBSERV
  1998     9    29    11    23   20.9980000     GPS         TIME OF FIRST OBS
                                                            END OF HEADER
 98  9 29 11 23 20.9980000  0  4G 4G14G16G19
   3139903.998           0.000    20721041.565           0.000  
   5745229.003           0.000    23295869.389           0.000  
   1211563.998           0.000    20672990.265           0.000  
  -4642710.002           0.000    22327899.124           0.000  
 98  9 29 11 23 21.9980000  0  5G 4G14G16G18G19
   3136460.999           0.000    20720388.632           0.000  
   5745274.002           0.000    23295878.061           0.000  
   1210003.999           0.000    20672693.460           0.000  
   2910675.000           0.000    20011100.214           0.000  
  -4648217.001           0.000    22326851.166           0.000  
 98  9 29 11 23 22.9980000  0  5G 4G14G16G18G19
   3133014.999           0.000    20719734.020           0.000  
   5745319.000           0.000    23295886.437           0.000  
   1208443.999           0.000    20672396.509           0.000  
   2907961.998           0.000    20010583.739           0.000  
  -4653724.998           0.000    22325803.057           0.000  
 98  9 29 11 23 23.9980000  0  5G 4G14G16G18G19
   3129571.001           0.000    20719079.662           0.000  
   5745360.999           0.000    23295894.599           0.000  
   1206883.002           0.000    20672099.243           0.000  
   2905247.000           0.000    20010066.592           0.000  
  -4659233.998           0.000    22324754.693           0.000  
 98  9 29 11 23 24.9980000  0  4G 4G14G16G19
   3126125.999           0.000    20718426.762           0.000  
   5745404.001           0.000    23295902.638           0.000  
   1205320.002           0.000    20671801.899           0.000  
  -4664743.998           0.000    22323706.137           0.000  
 98  9 29 11 23 25.9980000  0  4G 4G14G16G19
   3122679.999           0.000    20717772.849           0.000  
   5745445.000           0.000    23295910.493           0.000  
   1203758.000           0.000    20671504.482           0.000  
  -4670255.001           0.000    22322657.429           0.000  
 98  9 29 11 23 26.9980000  0  4G 4G14G16G19
   3119234.998           0.000    20717118.596           0.000  
   5745486.000           0.000    23295918.325           0.000  
   1202195.000           0.000    20671207.043           0.000  
  -4675765.000           0.000    22321608.774           0.000  
 98  9 29 11 23 27.9980000  0  4G 4G14G16G19
   3115788.998           0.000    20716463.571           0.000  
   5745527.000           0.000    23295926.088           0.000  
   1200632.000           0.000    20670909.487           0.000  
  -4681275.998           0.000    22320560.050           0.000  
 98  9 29 11 23 28.9980000  0  4G 4G14G16G19
   3112345.000           0.000    20715808.168           0.000  
   5745567.001           0.000    23295933.792           0.000  
   1199068.002           0.000    20670611.914           0.000  
  -4686787.001           0.000    22319511.246           0.000  
 98  9 29 11 23 29.9980000  0  4G 4G14G16G19
   3108899.998           0.000    20715153.162           0.000  
   5745607.003           0.000    23295941.392           0.000  
   1197503.998           0.000    20670314.273           0.000  
  -4692299.002           0.000    22318462.438           0.000  
 98  9 29 11 23 30.9980000  0  4G 4G14G16G19
   3105453.998           0.000    20714497.525           0.000  
   5745646.999           0.000    23295948.930           0.000  
   1195940.000           0.000    20670016.557           0.000  
  -4697810.000           0.000    22317413.577           0.000  
 98  9 29 11 23 31.9980000  0  4G 4G14G16G19
   3102007.998           0.000    20713842.332           0.000  
   5745686.002           0.000    23295956.424           0.000  
   1194376.001           0.000    20669718.792           0.000  
  -4703322.001           0.000    22316364.692           0.000  
 98  9 29 11 23 32.9980000  0  4G 4G14G16G19
   3098563.002           0.000    20713186.910           0.000  
   5745724.001           0.000    23295963.755           0.000  
   1192810.999           0.000    20669420.861           0.000  
  -4708835.001           0.000    22315315.699           0.000  
 98  9 29 11 23 33.9980000  0  4G 4G14G16G19
   3095117.002           0.000    20712532.206           0.000  
   5745762.000           0.000    23295970.967           0.000  
   1191244.999           0.000    20669122.921           0.000  
  -4714348.001           0.000    22314266.629           0.000  
 98  9 29 11 23 34.9980000  0  4G 4G14G16G19
   3091669.998           0.000    20711883.558           0.000  
   5745798.002           0.000    23295977.966           0.000  
   1189678.998           0.000    20668824.799           0.000  
  -4719862.000           0.000    22313217.325           0.000  
 98  9 29 11 23 35.9980000  0  4G 4G14G16G19
   3088223.000           0.000    20711224.787           0.000  
   5745833.999           0.000    23295984.767           0.000  
   1188111.999           0.000    20668526.473           0.000  
  -4725375.998           0.000    22312167.892           0.000  
 98  9 29 11 23 36.9980000  0  4G 4G14G16G19
   3084777.000           0.000    20710571.140           0.000  
   5745868.998           0.000    23295991.304           0.000  
   1186542.998           0.000    20668228.051           0.000  
  -4730891.998           0.000    22311118.358           0.000  
 98  9 29 11 23 37.9980000  0  4G 4G14G16G19
   3081330.999           0.000    20709913.621           0.000  
   5745902.998           0.000    23295997.774           0.000  
   1184975.000           0.000    20667929.572           0.000  
  -4736407.999           0.000    22310068.811           0.000  
 98  9 29 11 23 38.9980000  0  4G 4G14G16G19
   3077884.001           0.000    20709257.844           0.000  
   5745936.998           0.000    23296004.175           0.000  
   1183405.999           0.000    20667631.046           0.000  
  -4741924.000           0.000    22309019.202           0.000  
 98  9 29 11 23 39.9980000  0  4G 4G14G16G19
   3074435.000           0.000    20708599.933           0.000  
   5745970.000           0.000    23296010.424           0.000  
   1181836.998           0.000    20667332.399           0.000  
  -4747440.000           0.000    22307969.362           0.000  
 98  9 29 11 23 40.9980000  0  4G 4G14G16G19
   3070986.000           0.000    20707942.105           0.000  
   5746003.001           0.000    23296016.633           0.000  
   1180268.002           0.000    20667033.736           0.000  
  -4752956.999           0.000    22306919.497           0.000  
 98  9 29 11 23 41.9980000  0  4G 4G14G16G19
   3067540.998           0.000    20707285.006           0.000  
   5746034.999           0.000    23296022.786           0.000  
   1178698.002           0.000    20666734.951           0.000  
  -4758475.002           0.000    22305869.590           0.000  
 98  9 29 11 23 42.9980000  0  5G 4G14G16G18G19
   3064093.001           0.000    20706627.126           0.000  
   5746067.002           0.000    23296028.803           0.000  
   1177126.999           0.000    20666436.136           0.000  
   3146417.000           0.000    20000247.647           0.000  
  -4763992.001           0.000    22304819.566           0.000  
 98  9 29 11 23 43.9980000  0  5G 4G14G16G18G19
   3060643.002           0.000    20705970.177           0.000  
   5746098.002           0.000    23296034.709           0.000  
   1175556.999           0.000    20666137.174           0.000  
   3143696.000           0.000    19999726.944           0.000  
  -4769509.998           0.000    22303769.470           0.000  
 98  9 29 11 23 44.9980000  0  5G 4G14G16G18G19
   3057195.000           0.000    20705314.701           0.000  
   5746129.001           0.000    23296040.535           0.000  
   1173984.998           0.000    20665838.165           0.000  
   3140974.002           0.000    19999210.093           0.000  
  -4775028.999           0.000    22302719.288           0.000  
 98  9 29 11 23 45.9980000  0  5G 4G14G16G18G19
   3053746.998           0.000    20704658.229           0.000  
   5746157.998           0.000    23296046.085           0.000  
   1172413.001           0.000    20665538.867           0.000  
   3138254.001           0.000    19998689.621           0.000  
  -4780548.999           0.000    22301668.824           0.000  
 98  9 29 11 23 46.9980000  0  5G 4G14G16G18G19
   3050296.999           0.000    20704002.334           0.000  
   5746187.001           0.000    23296051.507           0.000  
   1170840.001           0.000    20665239.501           0.000  
   3135531.998           0.000    19998172.623           0.000  
  -4786068.000           0.000    22300618.318           0.000  
 98  9 29 11 23 47.9980000  0  5G 4G14G16G18G19
   3046847.998           0.000    20703345.461           0.000  
   5746215.000           0.000    23296056.902           0.000  
   1169267.000           0.000    20664940.163           0.000  
   3132806.999           0.000    19997654.909           0.000  
  -4791588.998           0.000    22299567.765           0.000  
 98  9 29 11 23 48.9980000  0  5G 4G14G16G18G19
   3043400.001           0.000    20702689.304           0.000  
   5746242.999           0.000    23296062.182           0.000  
   1167694.000           0.000    20664640.659           0.000  
   3130085.999           0.000    19997137.819           0.000  
  -4797108.998           0.000    22298517.131           0.000  
 98  9 29 11 23 49.9980000  0  5G 4G14G16G18G19
   3039950.002           0.000    20702032.433           0.000  
   5746269.999           0.000    23296067.279           0.000  
   1166120.001           0.000    20664341.054           0.000  
   3127362.998           0.000    19996619.945           0.000  
  -4802631.000           0.000    22297466.382           0.000  
 98  9 29 11 23 51.9980000  0  5G 4G14G16G18G19
   3033049.999           0.000    20700717.024           0.000  
   5746320.999           0.000    23296076.983           0.000  
   1162968.998           0.000    20663741.337           0.000  
   3121916.999           0.000    19995585.267           0.000  
  -4813674.998           0.000    22295364.642           0.000  
 98  9 29 11 23 52.9980000  0  4G 4G14G16G19
   3029596.999           0.000    20700049.753           0.000  
   5746346.003           0.000    23296081.661           0.000  
   1161392.997           0.000    20663441.346           0.000  
  -4819199.002           0.000    22294313.680           0.000  
 98  9 29 11 23 55.9980000  0  4G14G16G18G19
   5746415.001           0.000    23296094.815           0.000  
   1156661.999           0.000    20662540.958           0.000  
   3111016.001           0.000    19993510.639           0.000  
  -4835770.998           0.000    22291160.220           0.000  
 98  9 29 11 24  9.9980000  0  4G14G16G18G19
   5746647.999           0.000    23296139.296           0.000  
   1134508.998           0.000    20658325.916           0.000  
   3147601.001           0.000    19986239.518           0.000  
  -4913181.002           0.000    22276430.505           0.000  
 98  9 29 11 24 10.9980000  0  4G14G16G18G19
   5746657.999           0.000    23296141.352           0.000  
   1132921.998           0.000    20658023.933           0.000  
   3144867.999           0.000    19985719.508           0.000  
  -4918715.001           0.000    22275377.460           0.000  
 98  9 29 11 24 11.9980000  0  4G14G16G18G19
   5746668.000           0.000    23296143.323           0.000  
   1131334.000           0.000    20657721.866           0.000  
   3142137.998           0.000    19985199.170           0.000  
  -4924249.000           0.000    22274324.422           0.000  
 98  9 29 11 24 12.9980000  0  4G14G16G18G19
   5746677.001           0.000    23296145.136           0.000  
   1129746.002           0.000    20657419.662           0.000  
   3139405.001           0.000    19984678.151           0.000  
  -4929785.001           0.000    22273271.276           0.000  
 98  9 29 11 24 13.9980000  0  4G14G16G18G19
   5746685.998           0.000    23296146.747           0.000  
   1128157.000           0.000    20657117.329           0.000  
   3136671.000           0.000    19984163.916           0.000  
  -4935319.999           0.000    22272217.974           0.000  
 98  9 29 11 24 14.9980000  0  4G14G16G18G19
   5746692.998           0.000    23296148.189           0.000  
   1126567.998           0.000    20656814.904           0.000  
   3133937.998           0.000    19983642.001           0.000  
  -4940856.998           0.000    22271164.587           0.000  
 98  9 29 11 24 15.9980000  0  4G14G16G18G19
   5746700.003           0.000    23296149.491           0.000  
   1124977.998           0.000    20656512.408           0.000  
   3131203.998           0.000    19983122.986           0.000  
  -4946393.998           0.000    22270111.124           0.000  
 98  9 29 11 24 16.9980000  0  4G14G16G18G19
   5746705.999           0.000    23296150.723           0.000  
   1123387.997           0.000    20656209.839           0.000  
   3128470.002           0.000    19982599.655           0.000  
  -4951930.998           0.000    22269057.545           0.000  
 98  9 29 11 24 17.9980000  0  4G14G16G18G19
   5746712.000           0.000    23296151.803           0.000  
   1121796.999           0.000    20655907.201           0.000  
   3125736.002           0.000    19982079.038           0.000  
  -4957469.001           0.000    22268003.861           0.000  
 98  9 29 11 24 18.9980000  0  4G14G16G18G19
   5746715.999           0.000    23296152.600           0.000  
   1120205.001           0.000    20655604.350           0.000  
   3122999.999           0.000    19981559.777           0.000  
  -4963007.998           0.000    22266949.977           0.000  
 98  9 29 11 24 19.9980000  0  4G14G16G18G19
   5746719.000           0.000    23296153.154           0.000  
   1118612.000           0.000    20655301.290           0.000  
   3120262.000           0.000    19981040.443           0.000  
  -4968547.998           0.000    22265895.879           0.000  
 98  9 29 11 24 20.9980000  0  4G14G16G18G19
   5746721.002           0.000    23296153.591           0.000  
   1117018.999           0.000    20654998.092           0.000  
   3117524.000           0.000    19980520.110           0.000  
  -4974089.002           0.000    22264841.683           0.000  
 98  9 29 11 24 21.9980000  0  4G14G16G18G19
   5746722.000           0.000    23296153.823           0.000  
   1115424.002           0.000    20654694.752           0.000  
   3114787.997           0.000    19980000.203           0.000  
  -4979630.999           0.000    22263787.304           0.000  
 98  9 29 11 24 22.9980000  0  4G14G16G18G19
   5746722.999           0.000    23296153.910           0.000  
   1113828.999           0.000    20654391.341           0.000  
   3112049.998           0.000    19979479.235           0.000  
  -4985173.002           0.000    22262732.796           0.000  
 98  9 29 11 24 23.9980000  0  4G14G16G18G19
   5746722.000           0.000    23296153.827           0.000  
   1112234.001           0.000    20654087.806           0.000  
   3109311.000           0.000    19978957.841           0.000  
  -4990716.002           0.000    22261678.089           0.000  
 98  9 29 11 24 24.9980000  0  4G14G16G18G19
   5746721.002           0.000    23296153.595           0.000  
   1110637.001           0.000    20653784.095           0.000  
   3106572.002           0.000    19978436.435           0.000  
  -4996258.998           0.000    22260623.271           0.000  
 98  9 29 11 24 25.9980000  0  4G14G16G18G19
   5746718.001           0.000    23296153.186           0.000  
   1109040.001           0.000    20653480.243           0.000  
   3103832.998           0.000    19977914.767           0.000  
  -5001803.003           0.000    22259568.352           0.000  
 98  9 29 11 24 26.9980000  0  4G14G16G18G19
   5746715.999           0.000    23296152.686           0.000  
   1107443.001           0.000    20653176.306           0.000  
   3101091.998           0.000    19977392.931           0.000  
  -5007348.001           0.000    22258513.423           0.000  
 98  9 29 11 24 27.9980000  0  4G14G16G18G19
   5746712.000           0.000    23296152.069           0.000  
   1105845.002           0.000    20652872.269           0.000  
   3098352.002           0.000    19976871.766           0.000  
  -5012892.998           0.000    22257458.331           0.000  
 98  9 29 11 24 28.9980000  0  4G14G16G18G19
   5746708.001           0.000    23296151.292           0.000  
   1104246.998           0.000    20652568.150           0.000  
   3095612.000           0.000    19976350.783           0.000  
  -5018439.000           0.000    22256403.161           0.000  
 98  9 29 11 24 29.9980000  0  4G14G16G18G19
   5746702.998           0.000    23296150.438           0.000  
   1102649.000           0.000    20652263.968           0.000  
   3092871.998           0.000    19975829.157           0.000  
  -5023985.001           0.000    22255347.991           0.000  
 98  9 29 11 24 30.9980000  0  4G14G16G18G19
   5746698.001           0.000    23296149.460           0.000  
   1101049.998           0.000    20651959.716           0.000  
   3090130.998           0.000    19975307.844           0.000  
  -5029530.998           0.000    22254292.684           0.000  
 98  9 29 11 24 31.9980000  0  4G14G16G18G19
   5746691.999           0.000    23296148.327           0.000  
   1099450.002           0.000    20651655.292           0.000  
   3087388.999           0.000    19974786.268           0.000  
  -5035077.998           0.000    22253237.195           0.000  
 98  9 29 11 24 32.9980000  0  4G14G16G18G19
   5746685.000           0.000    23296146.967           0.000  
   1097848.998           0.000    20651350.772           0.000  
   3084647.999           0.000    19974264.579           0.000  
  -5040626.001           0.000    22252181.550           0.000  
 98  9 29 11 24 33.9980000  0  4G14G16G18G19
   5746677.001           0.000    23296145.412           0.000  
   1096247.999           0.000    20651046.084           0.000  
   3081906.000           0.000    19973742.706           0.000  
  -5046174.998           0.000    22251125.795           0.000  
 98  9 29 11 24 34.9980000  0  4G14G16G18G19
   5746668.000           0.000    23296143.754           0.000  
   1094646.001           0.000    20650741.253           0.000  
   3079162.998           0.000    19973220.838           0.000  
  -5051724.000           0.000    22250069.890           0.000  
 98  9 29 11 24 35.9980000  0  4G14G16G18G19
   5746657.999           0.000    23296141.903           0.000  
   1093043.998           0.000    20650436.235           0.000  
   3076420.001           0.000    19972698.829           0.000  
  -5057274.001           0.000    22249013.808           0.000  
 98  9 29 11 24 36.9980000  0  4G14G16G18G19
   5746646.002           0.000    23296139.780           0.000  
   1091439.999           0.000    20650131.043           0.000  
   3073675.001           0.000    19972176.601           0.000  
  -5062825.000           0.000    22247957.540           0.000  
 98  9 29 11 24 37.9980000  0  4G14G16G18G19
   5746634.000           0.000    23296137.536           0.000  
   1089835.999           0.000    20649825.735           0.000  
   3070931.001           0.000    19971654.175           0.000  
  -5068376.998           0.000    22246901.148           0.000  
 98  9 29 11 24 38.9980000  0  4G14G16G18G19
   5746622.002           0.000    23296135.172           0.000  
   1088231.001           0.000    20649520.325           0.000  
   3068186.001           0.000    19971132.011           0.000  
  -5073929.000           0.000    22245844.683           0.000  
 98  9 29 11 24 39.9980000  0  4G14G16G18G19
   5746607.998           0.000    23296132.686           0.000  
   1086625.997           0.000    20649214.842           0.000  
   3065441.002           0.000    19970609.702           0.000  
  -5079482.002           0.000    22244788.217           0.000  
 98  9 29 11 24 40.9980000  0  4G14G16G18G19
   5746593.998           0.000    23296130.008           0.000  
   1085020.001           0.000    20648909.187           0.000  
   3062695.997           0.000    19970087.139           0.000  
  -5085034.998           0.000    22243731.543           0.000  
 98  9 29 11 24 41.9980000  0  4G14G16G18G19
   5746579.000           0.000    23296127.256           0.000  
   1083413.999           0.000    20648603.401           0.000  
   3059950.000           0.000    19969564.739           0.000  
  -5090589.003           0.000    22242674.764           0.000  
 98  9 29 11 24 42.9980000  0  4G14G16G18G19
   5746564.002           0.000    23296124.357           0.000  
   1081806.998           0.000    20648297.519           0.000  
   3057204.002           0.000    19969042.317           0.000  
  -5096143.002           0.000    22241617.840           0.000  
 98  9 29 11 24 43.9980000  0  4G14G16G18G19
   5746548.001           0.000    23296121.276           0.000  
   1080199.998           0.000    20647991.558           0.000  
   3054457.999           0.000    19968519.711           0.000  
  -5101698.000           0.000    22240560.915           0.000  
 98  9 29 11 24 44.9980000  0  4G14G16G18G19
   5746530.002           0.000    23296118.065           0.000  
   1078591.999           0.000    20647685.508           0.000  
   3051710.997           0.000    19967997.087           0.000  
  -5107254.002           0.000    22239503.788           0.000  
 98  9 29 11 24 45.9980000  0  4G14G16G18G19
   5746511.999           0.000    23296114.683           0.000  
   1076983.002           0.000    20647379.289           0.000  
   3048964.001           0.000    19967474.178           0.000  
  -5112809.999           0.000    22238446.500           0.000  
 98  9 29 11 24 46.9980000  0  4G14G16G18G19
   5746493.002           0.000    23296111.138           0.000  
   1075373.001           0.000    20647072.932           0.000  
   3046216.001           0.000    19966951.290           0.000  
  -5118366.999           0.000    22237389.074           0.000  
 98  9 29 11 24 47.9980000  0  4G14G16G18G19
   5746473.999           0.000    23296107.381           0.000  
   1073763.000           0.000    20646766.510           0.000  
   3043468.001           0.000    19966428.360           0.000  
  -5123923.999           0.000    22236331.528           0.000  
 98  9 29 11 24 48.9980000  0  4G14G16G18G19
   5746453.000           0.000    23296103.494           0.000  
   1072152.999           0.000    20646459.958           0.000  
   3040718.998           0.000    19965905.350           0.000  
  -5129483.002           0.000    22235273.856           0.000  
 98  9 29 11 24 49.9980000  0  4G14G16G18G19
   5746431.003           0.000    23296099.362           0.000  
   1070541.001           0.000    20646153.258           0.000  
   3037969.999           0.000    19965382.101           0.000  
  -5135041.999           0.000    22234216.021           0.000  
 98  9 29 11 24 50.9980000  0  4G14G16G18G19
   5746409.000           0.000    23296094.984           0.000  
   1068928.998           0.000    20645846.416           0.000  
   3035220.002           0.000    19964858.811           0.000  
  -5140601.002           0.000    22233158.031           0.000  
 98  9 29 11 24 51.9980000  0  4G14G16G18G19
   5746385.000           0.000    23296090.483           0.000  
   1067314.998           0.000    20645539.459           0.000  
   3032470.000           0.000    19964335.534           0.000  
  -5146162.001           0.000    22232099.897           0.000  
 98  9 29 11 24 52.9980000  0  4G14G16G18G19
   5746360.002           0.000    23296085.860           0.000  
   1065702.002           0.000    20645232.435           0.000  
   3029719.000           0.000    19963812.046           0.000  
  -5151723.000           0.000    22231041.653           0.000  
 98  9 29 11 24 53.9980000  0  4G14G16G18G19
   5746336.002           0.000    23296081.091           0.000  
   1064088.002           0.000    20644925.323           0.000  
   3026968.998           0.000    19963288.718           0.000  
  -5157284.000           0.000    22229983.335           0.000  
 98  9 29 11 24 54.9980000  0  4G14G16G18G19
   5746310.000           0.000    23296076.180           0.000  
   1062472.998           0.000    20644618.089           0.000  
   3024218.002           0.000    19962765.357           0.000  
  -5162845.998           0.000    22228924.904           0.000  
 98  9 29 11 24 55.9980000  0  4G14G16G18G19
   5746283.998           0.000    23296071.235           0.000  
   1060857.999           0.000    20644310.812           0.000  
   3021465.998           0.000    19962241.793           0.000  
  -5168408.999           0.000    22227866.397           0.000  
 98  9 29 11 24 56.9980000  0  4G14G16G18G19
   5746256.000           0.000    23296066.081           0.000  
   1059242.002           0.000    20644003.359           0.000  
   3018713.999           0.000    19961718.220           0.000  
  -5173972.001           0.000    22226807.743           0.000  
 98  9 29 11 24 57.9980000  0  4G14G16G18G19
   5746228.999           0.000    23296060.862           0.000  
   1057626.999           0.000    20643695.928           0.000  
   3015962.998           0.000    19961194.657           0.000  
  -5179535.002           0.000    22225749.196           0.000  
 98  9 29 11 24 58.9980000  0  4G14G16G18G19
   5746200.002           0.000    23296055.368           0.000  
   1056009.998           0.000    20643388.256           0.000  
   3013210.001           0.000    19960670.725           0.000  
  -5185099.002           0.000    22224690.320           0.000  
 98  9 29 11 24 59.9980000  0  4G14G16G18G19
   5746170.001           0.000    23296049.702           0.000  
   1054391.999           0.000    20643080.394           0.000  
   3010456.998           0.000    19960146.819           0.000  
  -5190664.001           0.000    22223631.296           0.000  
 98  9 29 11 25  0.9980000  0  4G14G16G18G19
   5746140.000           0.000    23296043.950           0.000  
   1052774.000           0.000    20642772.561           0.000  
   3007704.001           0.000    19959623.003           0.000  
  -5196228.999           0.000    22222572.221           0.000  
 98  9 29 11 25  1.9980000  0  4G14G16G18G19
   5746109.000           0.000    23296037.903           0.000  
   1051155.002           0.000    20642464.466           0.000  
   3004950.000           0.000    19959099.045           0.000  
  -5201796.000           0.000    22221512.879           0.000  
 98  9 29 11 25  2.9980000  0  4G14G16G18G19
   5746075.999           0.000    23296031.767           0.000  
   1049535.001           0.000    20642156.210           0.000  
   3002195.998           0.000    19958574.946           0.000  
  -5207363.001           0.000    22220453.389           0.000  
 98  9 29 11 25  3.9980000  0  4G14G16G18G19
   5746044.001           0.000    23296025.636           0.000  
   1047914.999           0.000    20641847.989           0.000  
   2999440.999           0.000    19958050.876           0.000  
  -5212930.001           0.000    22219393.974           0.000  
 98  9 29 11 25  4.9980000  0  4G14G16G18G19
   5746010.999           0.000    23296019.258           0.000  
   1046294.998           0.000    20641539.599           0.000  
   2996686.998           0.000    19957526.779           0.000  
  -5218498.000           0.000    22218334.343           0.000  
 98  9 29 11 25  5.9980000  0  4G14G16G18G19
   5745976.001           0.000    23296012.745           0.000  
   1044673.000           0.000    20641231.104           0.000  
   2993931.998           0.000    19957002.597           0.000  
  -5224066.000           0.000    22217274.572           0.000  
 98  9 29 11 25  6.9980000  0  4G14G16G18G19
   5745941.002           0.000    23296006.125           0.000  
   1043052.000           0.000    20640922.583           0.000  
   2991176.000           0.000    19956478.327           0.000  
  -5229635.002           0.000    22216214.716           0.000  
 98  9 29 11 25  7.9980000  0  4G14G16G18G19
   5745905.000           0.000    23295999.279           0.000  
   1041428.998           0.000    20640613.868           0.000  
   2988420.002           0.000    19955953.952           0.000  
  -5235204.000           0.000    22215154.809           0.000  
 98  9 29 11 25  8.9980000  0  4G14G16G18G19
   5745868.998           0.000    23295992.344           0.000  
   1039806.001           0.000    20640305.097           0.000  
   2985663.998           0.000    19955429.486           0.000  
  -5240774.001           0.000    22214094.762           0.000  
 98  9 29 11 25  9.9980000  0  4G14G16G18G19
   5745832.002           0.000    23295985.156           0.000  
   1038182.001           0.000    20639996.108           0.000  
   2982907.002           0.000    19954904.642           0.000  
  -5246345.001           0.000    22213034.572           0.000  
 98  9 29 11 25 10.9980000  0  4G14G16G18G19
   5745792.001           0.000    23295977.706           0.000  
   1036557.002           0.000    20639686.905           0.000  
   2980149.002           0.000    19954379.511           0.000  
  -5251916.999           0.000    22211974.111           0.000  
 98  9 29 11 25 11.9980000  0  4G14G16G18G19
   5745752.000           0.000    23295970.022           0.000  
   1034931.000           0.000    20639377.499           0.000  
   2977391.001           0.000    19953854.445           0.000  
  -5257490.001           0.000    22210913.444           0.000  
 98  9 29 11 25 12.9980000  0  5G 4G14G16G18G19
   3146679.000           0.000    20647361.917           0.000  
   5745711.998           0.000    23295962.303           0.000  
   1033305.002           0.000    20639068.076           0.000  
   2974631.997           0.000    19953329.337           0.000  
  -5263064.001           0.000    22209852.750           0.000  
 98  9 29 11 25 13.9980000  0  5G 4G14G16G18G19
   3143201.002           0.000    20646698.902           0.000  
   5745670.000           0.000    23295954.536           0.000  
   1031678.001           0.000    20638758.566           0.000  
   2971874.002           0.000    19952804.276           0.000  
  -5268636.998           0.000    22208792.010           0.000  
 98  9 29 11 25 14.9980000  0  5G 4G14G16G18G19
   3139719.998           0.000    20646031.594           0.000  
   5745628.002           0.000    23295946.414           0.000  
   1030050.002           0.000    20638448.758           0.000  
   2969114.000           0.000    19952279.165           0.000  
  -5274212.002           0.000    22207731.011           0.000  
 98  9 29 11 25 15.9980000  0  5G 4G14G16G18G19
   3136241.002           0.000    20645371.230           0.000  
   5745584.001           0.000    23295938.134           0.000  
   1028422.002           0.000    20638138.798           0.000  
   2966352.999           0.000    19951753.821           0.000  
  -5279787.999           0.000    22206669.788           0.000  
 98  9 29 11 25 16.9980000  0  5G 4G14G16G18G19
   3132762.000           0.000    20644706.919           0.000  
   5745540.001           0.000    23295929.740           0.000  
   1026792.999           0.000    20637828.778           0.000  
   2963593.002           0.000    19951228.559           0.000  
  -5285364.002           0.000    22205608.559           0.000  
 98  9 29 11 25 17.9980000  0  5G 4G14G16G18G19
   3129284.002           0.000    20644041.840           0.000  
   5745495.002           0.000    23295921.206           0.000  
   1025162.997           0.000    20637518.618           0.000  
   2960832.001           0.000    19950703.107           0.000  
  -5290940.998           0.000    22204547.198           0.000  
 98  9 29 11 25 18.9980000  0  5G 4G14G16G18G19
   3125805.999           0.000    20643379.725           0.000  
   5745448.001           0.000    23295912.348           0.000  
   1023531.997           0.000    20637208.286           0.000  
   2958070.002           0.000    19950177.553           0.000  
  -5296517.999           0.000    22203485.659           0.000  
 98  9 29 11 25 19.9980000  0  5G 4G14G16G18G19
   3122325.000           0.000    20642719.529           0.000  
   5745401.000           0.000    23295903.294           0.000  
   1021900.997           0.000    20636897.768           0.000  
   2955308.002           0.000    19949651.886           0.000  
  -5302097.002           0.000    22202423.953           0.000  
 98  9 29 11 25 20.9980000  0  5G 4G14G16G18G19
   3118844.002           0.000    20642060.479           0.000  
   5745353.001           0.000    23295894.147           0.000  
   1020268.999           0.000    20636587.141           0.000  
   2952544.999           0.000    19949126.032           0.000  
  -5307676.000           0.000    22201362.114           0.000  
 98  9 29 11 25 21.9980000  0  4G14G16G18G19
   5745305.001           0.000    23295884.890           0.000  
   1018636.002           0.000    20636276.490           0.000  
   2949782.001           0.000    19948600.033           0.000  
  -5313255.003           0.000    22200300.251           0.000  
 98  9 29 11 25 22.9980000  0  4G14G16G18G19
   5745255.998           0.000    23295875.572           0.000  
   1017003.998           0.000    20635965.752           0.000  
   2947020.002           0.000    19948074.286           0.000  
  -5318834.999           0.000    22199238.396           0.000  
 98  9 29 11 25 23.9980000  0  4G14G16G18G19
   5745204.998           0.000    23295866.044           0.000  
   1015370.002           0.000    20635654.840           0.000  
   2944256.001           0.000    19947548.108           0.000  
  -5324415.999           0.000    22198176.309           0.000  
 98  9 29 11 25 24.9980000  0  4G14G16G18G19
   5745153.998           0.000    23295856.259           0.000  
   1013734.998           0.000    20635343.695           0.000  
   2941491.001           0.000    19947021.875           0.000  
  -5329997.998           0.000    22197114.023           0.000  
 98  9 29 11 25 25.9980000  0  4G14G16G18G19
   5745101.999           0.000    23295846.396           0.000  
   1012099.999           0.000    20635032.477           0.000  
   2938726.999           0.000    19946495.708           0.000  
  -5335580.002           0.000    22196051.700           0.000  
 98  9 29 11 25 26.9980000  0  4G14G16G18G19
   5745049.002           0.000    23295836.319           0.000  
   1010464.001           0.000    20634721.157           0.000  
   2935961.999           0.000    19945969.330           0.000  
  -5341162.999           0.000    22194989.171           0.000  
 98  9 29 11 25 29.9980000  0  4G14G16G18G19
   5744882.002           0.000    23295804.636           0.000  
   1005550.002           0.000    20633785.890           0.000  
   2927662.002           0.000    19944378.941           0.000  
  -5357918.001           0.000    22191800.154           0.000  
 98  9 29 11 25 30.9980000  0  4G14G16G18G19
   5744825.001           0.000    23295793.798           0.000  
   1003910.998           0.000    20633473.940           0.000  
   2924894.001           0.000    19943850.192           0.000  
  -5363503.999           0.000    22190736.914           0.000  
 98  9 29 11 25 31.9980000  0  4G14G16G18G19
   5744767.001           0.000    23295782.816           0.000  
   1002271.001           0.000    20633161.918           0.000  
   2922126.999           0.000    19943326.716           0.000  
  -5369091.000           0.000    22189673.597           0.000  
 98  9 29 11 25 32.9980000  0  4G14G16G18G19
   5744709.001           0.000    23295771.753           0.000  
   1000630.999           0.000    20632849.778           0.000  
   2919358.998           0.000    19942797.528           0.000  
  -5374678.001           0.000    22188610.186           0.000  
 98  9 29 11 25 33.9980000  0  4G14G16G18G19
   5744648.999           0.000    23295760.524           0.000  
    998990.997           0.000    20632537.567           0.000  
   2916589.999           0.000    19942271.902           0.000  
  -5380266.001           0.000    22187546.670           0.000  
 98  9 29 11 25 34.9980000  0  5G 4G14G16G18G19
   3147424.999           0.000    20632762.912           0.000  
   5744589.002           0.000    23295749.147           0.000  
    997348.999           0.000    20632225.246           0.000  
   2913821.999           0.000    19941745.320           0.000  
  -5385854.999           0.000    22186483.045           0.000  
 98  9 29 11 25 35.9980000  0  5G 4G14G16G18G19
   3143937.001           0.000    20632093.095           0.000  
   5744528.002           0.000    23295737.513           0.000  
    995707.000           0.000    20631912.734           0.000  
   2911052.001           0.000    19941218.680           0.000  
  -5391443.998           0.000    22185419.214           0.000  
 98  9 29 11 25 36.9980000  0  5G 4G14G16G18G19
   3140451.000           0.000    20631429.339           0.000  
   5744465.998           0.000    23295725.752           0.000  
    994064.002           0.000    20631600.085           0.000  
   2908281.998           0.000    19940691.939           0.000  
  -5397034.998           0.000    22184355.295           0.000  
 98  9 29 11 25 37.9980000  0  5G 4G14G16G18G19
   3136960.999           0.000    20630764.318           0.000  
   5744402.002           0.000    23295713.725           0.000  
    992420.001           0.000    20631287.308           0.000  
   2905512.001           0.000    19940165.844           0.000  
  -5402625.998           0.000    22183291.195           0.000  
 98  9 29 11 25 38.9980000  0  5G 4G14G16G18G19
   3133474.998           0.000    20630109.608           0.000  
   5744338.001           0.000    23295701.532           0.000  
    990775.002           0.000    20630974.375           0.000  
   2902741.000           0.000    19939639.881           0.000  
  -5408216.999           0.000    22182227.026           0.000  
 98  9 29 11 25 39.9980000  0  5G 4G14G16G18G19
   3129986.001           0.000    20629444.146           0.000  
   5744273.001           0.000    23295689.004           0.000  
    989128.999           0.000    20630661.222           0.000  
   2899968.001           0.000    19939112.889           0.000  
  -5413810.001           0.000    22181162.615           0.000  
 98  9 29 11 25 40.9980000  0  5G 4G14G16G18G19
   3126495.002           0.000    20628782.098           0.000  
   5744206.000           0.000    23295676.300           0.000  
    987482.002           0.000    20630347.831           0.000  
   2897194.998           0.000    19938585.332           0.000  
  -5419405.001           0.000    22180097.985           0.000  
 98  9 29 11 25 41.9980000  0  5G 4G14G16G18G19
   3123006.000           0.000    20628120.209           0.000  
   5744138.000           0.000    23295663.488           0.000  
    985835.000           0.000    20630034.335           0.000  
   2894422.000           0.000    19938058.050           0.000  
  -5424999.002           0.000    22179033.219           0.000  
 98  9 29 11 25 42.9980000  0  5G 4G14G16G18G19
   3119516.000           0.000    20627458.045           0.000  
   5744069.999           0.000    23295650.562           0.000  
    984187.000           0.000    20629720.749           0.000  
   2891647.998           0.000    19937530.512           0.000  
  -5430594.001           0.000    22177968.432           0.000  
 98  9 29 11 25 43.9980000  0  5G 4G14G16G18G19
   3116025.001           0.000    20626794.150           0.000  
   5744001.001           0.000    23295637.464           0.000  
    982538.002           0.000    20629407.047           0.000  
   2888874.002           0.000    19937003.063           0.000  
  -5436189.999           0.000    22176903.464           0.000  
 98  9 29 11 25 44.9980000  0  5G 4G14G16G18G19
   3112532.999           0.000    20626127.488           0.000  
   5743930.998           0.000    23295624.204           0.000  
    980888.998           0.000    20629093.157           0.000  
   2886100.000           0.000    19936475.584           0.000  
  -5441786.003           0.000    22175838.405           0.000  
 98  9 29 11 25 45.9980000  0  5G 4G14G16G18G19
   3109042.998           0.000    20625462.043           0.000  
   5743859.998           0.000    23295610.844           0.000  
    979239.001           0.000    20628779.232           0.000  
   2883324.999           0.000    19935947.720           0.000  
  -5447382.999           0.000    22174773.297           0.000  
 98  9 29 11 25 46.9980000  0  5G 4G14G16G18G19
   3105552.998           0.000    20624797.424           0.000  
   5743789.002           0.000    23295597.385           0.000  
    977588.998           0.000    20628465.283           0.000  
   2880549.999           0.000    19935420.022           0.000  
  -5452980.001           0.000    22173708.087           0.000  
 98  9 29 11 25 47.9980000  0  5G 4G14G16G18G19
   3102061.000           0.000    20624131.170           0.000  
   5743716.998           0.000    23295583.731           0.000  
    975937.998           0.000    20628151.146           0.000  
   2877774.999           0.000    19934892.101           0.000  
  -5458578.001           0.000    22172642.736           0.000  
 98  9 29 11 25 48.9980000  0  5G 4G14G16G18G19
   3098567.999           0.000    20623466.069           0.000  
   5743644.000           0.000    23295569.878           0.000  
    974285.998           0.000    20627836.849           0.000  
   2874998.002           0.000    19934364.355           0.000  
  -5464176.999           0.000    22171577.231           0.000  
 98  9 29 11 25 49.9980000  0  5G 4G14G16G18G19
   3095076.002           0.000    20622802.030           0.000  
   5743569.000           0.000    23295555.816           0.000  
    972633.001           0.000    20627522.421           0.000  
   2872220.999           0.000    19933836.325           0.000  
  -5469777.001           0.000    22170511.558           0.000  
 98  9 29 11 25 50.9980000  0  5G 4G14G16G18G19
   3091583.001           0.000    20622136.750           0.000  
   5743494.000           0.000    23295541.618           0.000  
    970979.998           0.000    20627207.842           0.000  
   2869444.002           0.000    19933307.965           0.000  
  -5475378.002           0.000    22169445.812           0.000  
 98  9 29 11 25 51.9980000  0  5G 4G14G16G18G19
   3088090.000           0.000    20621472.276           0.000  
   5743418.002           0.000    23295527.170           0.000  
    969324.998           0.000    20626893.041           0.000  
   2866666.001           0.000    19932779.688           0.000  
  -5480978.998           0.000    22168379.855           0.000  
 98  9 29 11 25 52.9980000  0  5G 4G14G16G18G19
   3084596.999           0.000    20620807.144           0.000  
   5743340.001           0.000    23295512.470           0.000  
    967669.998           0.000    20626578.048           0.000  
   2863887.002           0.000    19932260.157           0.000  
  -5486581.002           0.000    22167313.827           0.000  
 98  9 29 11 25 53.9980000  0  5G 4G14G16G18G19
   3081103.998           0.000    20620142.387           0.000  
   5743262.999           0.000    23295497.757           0.000  
    966014.998           0.000    20626263.048           0.000  
   2861108.002           0.000    19931731.844           0.000  
  -5492184.000           0.000    22166247.822           0.000  
 98  9 29 11 25 54.9980000  0  5G 4G14G16G18G19
   3077609.000           0.000    20619477.317           0.000  
   5743184.000           0.000    23295482.776           0.000  
    964358.002           0.000    20625947.849           0.000  
   2858327.999           0.000    19931202.389           0.000  
  -5497787.003           0.000    22165181.531           0.000  
 98  9 29 11 25 55.9980000  0  5G 4G14G16G18G19
   3074114.002           0.000    20618812.650           0.000  
   5743103.998           0.000    23295467.634           0.000  
    962700.999           0.000    20625632.572           0.000  
   2855548.001           0.000    19930673.755           0.000  
  -5503390.999           0.000    22164115.169           0.000  
 98  9 29 11 25 56.9980000  0  5G 4G14G16G18G19
   3070618.999           0.000    20618146.768           0.000  
   5743024.000           0.000    23295452.381           0.000  
    961042.999           0.000    20625317.168           0.000  
   2852767.998           0.000    19930143.949           0.000  
  -5508995.999           0.000    22163048.658           0.000  
 98  9 29 11 25 57.9980000  0  4G14G16G18G19
   5742942.999           0.000    23295437.053           0.000  
    959384.999           0.000    20625001.685           0.000  
   2849987.002           0.000    19929615.608           0.000  
  -5514600.998           0.000    22161982.037           0.000  
 98  9 29 11 25 58.9980000  0  5G 4G14G16G18G19
   3063624.998           0.000    20616811.545           0.000  
   5742860.001           0.000    23295421.443           0.000  
    957726.000           0.000    20624686.017           0.000  
   2847206.000           0.000    19929087.190           0.000  
  -5520205.998           0.000    22160915.292           0.000  
 98  9 29 11 25 59.9980000  0  5G 4G14G16G18G19
   3060127.998           0.000    20616145.697           0.000  
   5742778.002           0.000    23295405.683           0.000  
    956067.001           0.000    20624370.235           0.000  
   2844424.000           0.000    19928558.378           0.000  
  -5525813.000           0.000    22159848.496           0.000  
 98  9 29 11 26  0.9980000  0  5G 4G14G16G18G19
   3056633.999           0.000    20615481.459           0.000  
   5742694.000           0.000    23295389.865           0.000  
    954406.998           0.000    20624054.380           0.000  
   2841642.999           0.000    19928028.971           0.000  
  -5531418.998           0.000    22158781.624           0.000  
 98  9 29 11 26  1.9980000  0  5G 4G14G16G18G19
   3053138.002           0.000    20614817.274           0.000  
   5742609.998           0.000    23295373.888           0.000  
    952746.002           0.000    20623738.416           0.000  
   2838860.999           0.000    19927499.650           0.000  
  -5537026.999           0.000    22157714.651           0.000  
 98  9 29 11 26  2.9980000  0  5G 4G14G16G18G19
   3049639.998           0.000    20614160.898           0.000  
   5742524.998           0.000    23295357.777           0.000  
    951085.001           0.000    20623422.326           0.000  
   2836078.000           0.000    19926970.313           0.000  
  -5542634.999           0.000    22156647.592           0.000  
 98  9 29 11 26  3.9980000  0  5G 4G14G16G18G19
   3046142.998           0.000    20613500.373           0.000  
   5742438.999           0.000    23295341.442           0.000  
    949423.002           0.000    20623106.093           0.000  
   2833295.002           0.000    19926440.729           0.000  
  -5548243.000           0.000    22155580.411           0.000  
 98  9 29 11 26  4.9980000  0  5G 4G14G16G18G19
   3042645.000           0.000    20612837.159           0.000  
   5742353.001           0.000    23295324.997           0.000  
    947761.002           0.000    20622789.793           0.000  
   2830511.998           0.000    19925910.639           0.000  
  -5553851.999           0.000    22154513.111           0.000  
 98  9 29 11 26  5.9980000  0  5G 4G14G16G18G19
   3039144.999           0.000    20612181.756           0.000  
   5742265.998           0.000    23295308.480           0.000  
    946097.999           0.000    20622473.438           0.000  
   2827728.001           0.000    19925380.562           0.000  
  -5559462.001           0.000    22153445.771           0.000  
 98  9 29 11 26  6.9980000  0  5G 4G14G16G18G19
   3035649.002           0.000    20611518.195           0.000  
   5742178.003           0.000    23295291.774           0.000  
    944435.001           0.000    20622156.925           0.000  
   2824943.999           0.000    19924850.758           0.000  
  -5565071.999           0.000    22152378.266           0.000  
 98  9 29 11 26  7.9980000  0  5G 4G14G16G18G19
   3032150.000           0.000    20610851.278           0.000  
   5742088.998           0.000    23295274.922           0.000  
    942770.999           0.000    20621840.308           0.000  
   2822160.002           0.000    19924320.651           0.000  
  -5570682.001           0.000    22151310.697           0.000  
 98  9 29 11 26  8.9980000  0  5G 4G14G16G18G19
   3028652.002           0.000    20610178.573           0.000  
   5741999.000           0.000    23295257.911           0.000  
    941105.999           0.000    20621523.539           0.000  
   2819375.001           0.000    19923790.281           0.000  
  -5576294.001           0.000    22150243.000           0.000  
 98  9 29 11 26  9.9980000  0  5G 4G14G16G18G19
   3025152.001           0.000    20609510.093           0.000  
   5741909.003           0.000    23295240.753           0.000  
    939440.999           0.000    20621206.685           0.000  
   2816590.001           0.000    19923260.140           0.000  
  -5581906.000           0.000    22149175.070           0.000  
 98  9 29 11 26 10.9980000  0  4G14G16G18G19
   5741818.001           0.000    23295223.339           0.000  
    937775.000           0.000    20620889.730           0.000  
   2813804.002           0.000    19922729.862           0.000  
  -5587518.000           0.000    22148107.013           0.000  
 98  9 29 11 26 11.9980000  0  4G14G16G18G19
   5741726.001           0.000    23295205.923           0.000  
    936109.001           0.000    20620572.721           0.000  
   2811019.001           0.000    19922199.781           0.000  
  -5593130.998           0.000    22147038.951           0.000  
 98  9 29 11 26 12.9980000  0  4G14G16G18G19
   5741634.001           0.000    23295188.343           0.000  
    934441.999           0.000    20620255.522           0.000  
   2808233.002           0.000    19921669.833           0.000  
  -5598744.001           0.000    22145970.605           0.000  
 98  9 29 11 26 13.9980000  0  4G14G16G18G19
   5741539.999           0.000    23295170.550           0.000  
    932773.998           0.000    20619938.178           0.000  
   2805445.999           0.000    19921139.565           0.000  
  -5604359.001           0.000    22144902.132           0.000  
 98  9 29 11 26 14.9980000  0  4G14G16G18G19
   5741446.003           0.000    23295152.570           0.000  
    931105.997           0.000    20619620.674           0.000  
   2802657.998           0.000    19920609.273           0.000  
  -5609974.001           0.000    22143833.564           0.000  
 98  9 29 11 26 15.9980000  0  4G14G16G18G19
   5741349.998           0.000    23295134.454           0.000  
    929436.998           0.000    20619303.061           0.000  
   2799871.000           0.000    19920078.796           0.000  
  -5615589.001           0.000    22142764.807           0.000  
 98  9 29 11 26 16.9980000  0  4G14G16G18G19
   5741253.999           0.000    23295116.111           0.000  
    927767.000           0.000    20618985.307           0.000  
   2797082.001           0.000    19919548.219           0.000  
  -5621205.998           0.000    22141695.899           0.000  
 98  9 29 11 26 17.9980000  0  4G14G16G18G19
   5741155.998           0.000    23295097.584           0.000  
    926095.000           0.000    20618667.414           0.000  
   2794293.001           0.000    19919017.470           0.000  
  -5626823.001           0.000    22140626.936           0.000  
 98  9 29 11 26 18.9980000  0  4G14G16G18G19
   5741056.999           0.000    23295078.736           0.000  
    924423.001           0.000    20618349.182           0.000  
   2791501.999           0.000    19918486.389           0.000  
  -5632442.000           0.000    22139557.692           0.000  
 98  9 29 11 26 19.9980000  0  4G14G16G18G19
   5740957.000           0.000    23295059.652           0.000  
    922748.999           0.000    20618030.751           0.000  
   2788711.002           0.000    19917955.422           0.000  
  -5638061.998           0.000    22138488.210           0.000  
 98  9 29 11 26 20.9980000  0  4G14G16G18G19
   5740855.999           0.000    23295040.476           0.000  
    921075.002           0.000    20617712.254           0.000  
   2785919.002           0.000    19917424.317           0.000  
  -5643682.999           0.000    22137418.650           0.000  
 98  9 29 11 26 21.9980000  0  4G14G16G18G19
   5740755.002           0.000    23295021.153           0.000  
    919401.000           0.000    20617393.696           0.000  
   2783128.000           0.000    19916893.122           0.000  
  -5649304.000           0.000    22136349.038           0.000  
 98  9 29 11 26 22.9980000  0  4G14G16G18G19
   5740651.998           0.000    23295001.666           0.000  
    917725.999           0.000    20617074.940           0.000  
   2780335.001           0.000    19916361.817           0.000  
  -5654925.002           0.000    22135279.238           0.000  
 98  9 29 11 26 23.9980000  0  4G14G16G18G19
   5740549.000           0.000    23294982.019           0.000  
    916050.000           0.000    20616756.107           0.000  
   2777541.997           0.000    19915830.296           0.000  
  -5660547.002           0.000    22134209.373           0.000  
 98  9 29 11 26 24.9980000  0  4G14G16G18G19
   5740445.002           0.000    23294962.213           0.000  
    914374.001           0.000    20616437.119           0.000  
   2774748.998           0.000    19915298.723           0.000  
  -5666170.000           0.000    22133139.317           0.000  
 98  9 29 11 26 25.9980000  0  4G14G16G18G19
   5740341.000           0.000    23294942.362           0.000  
    912696.999           0.000    20616118.106           0.000  
   2771956.000           0.000    19914767.209           0.000  
  -5671792.998           0.000    22132069.268           0.000  
 98  9 29 11 26 26.9980000  0  4G14G16G18G19
   5740237.003           0.000    23294922.398           0.000  
    911020.001           0.000    20615798.942           0.000  
   2769163.001           0.000    19914235.676           0.000  
  -5677416.002           0.000    22130999.176           0.000  
 98  9 29 11 26 27.9980000  0  4G14G16G18G19
   5740130.998           0.000    23294902.406           0.000  
    909342.998           0.000    20615479.700           0.000  
   2766368.998           0.000    19913704.244           0.000  
  -5683039.000           0.000    22129929.039           0.000  
 98  9 29 11 26 28.9980000  0  4G14G16G18G19
   5740024.999           0.000    23294882.200           0.000  
    907664.997           0.000    20615160.359           0.000  
   2763575.999           0.000    19913172.501           0.000  
  -5688664.001           0.000    22128858.804           0.000  
 98  9 29 11 26 29.9970000  0  4G14G16G18G19
   7315339.000           0.000    23594654.385           0.000  
   2481408.000           0.000    20914633.688           0.000  
   4336203.999           0.000    20212433.657           0.000  
  -4118863.000           0.000    22427581.917           0.000  
 98  9 29 11 26 30.9970000  0  4G14G16G18G19
   7315230.998           0.000    23594633.888           0.000  
   2479728.002           0.000    20914314.016           0.000  
   4333408.998           0.000    20211901.777           0.000  
  -4124488.000           0.000    22426511.379           0.000  
 98  9 29 11 26 31.9970000  0  4G14G16G18G19
   7315123.002           0.000    23594613.184           0.000  
   2478047.998           0.000    20913994.248           0.000  
   4330613.997           0.000    20211369.666           0.000  
  -4130113.999           0.000    22425440.772           0.000  
 98  9 29 11 26 32.9970000  0  4G14G16G18G19
   7315012.998           0.000    23594592.360           0.000  
   2476367.002           0.000    20913674.392           0.000  
   4327817.998           0.000    20210837.608           0.000  
  -4135741.002           0.000    22424370.013           0.000  
 98  9 29 11 26 33.9970000  0  4G14G16G18G19
   7314903.998           0.000    23594571.496           0.000  
   2474686.999           0.000    20913354.526           0.000  
   4325023.002           0.000    20210305.579           0.000  
  -4141367.999           0.000    22423299.381           0.000  
 98  9 29 11 26 34.9970000  0  4G14G16G18G19
   7314794.000           0.000    23594550.580           0.000  
   2473006.002           0.000    20913034.566           0.000  
   4322226.997           0.000    20209773.567           0.000  
  -4146995.002           0.000    22422228.587           0.000  
 98  9 29 11 26 35.9970000  0  4G14G16G18G19
   7314682.998           0.000    23594529.445           0.000  
   2471324.002           0.000    20912714.441           0.000  
   4319430.998           0.000    20209241.583           0.000  
  -4152622.998           0.000    22421157.647           0.000  
 98  9 29 11 26 36.9970000  0  4G14G16G18G19
   7314572.001           0.000    23594508.184           0.000  
   2469640.998           0.000    20912394.212           0.000  
   4316634.000           0.000    20208709.422           0.000  
  -4158250.999           0.000    22420086.576           0.000  
 98  9 29 11 26 37.9970000  0  4G14G16G18G19
   7314459.002           0.000    23594486.789           0.000  
   2467957.999           0.000    20912073.824           0.000  
   4313837.002           0.000    20208177.055           0.000  
  -4163879.998           0.000    22419015.426           0.000  
 98  9 29 11 26 38.9970000  0  4G14G16G18G19
   7314345.998           0.000    23594465.211           0.000  
   2466272.998           0.000    20911753.285           0.000  
   4311039.001           0.000    20207644.761           0.000  
  -4169510.002           0.000    22417944.188           0.000  
 98  9 29 11 26 39.9970000  0  4G14G16G18G19
