     2.10           OBSERVATION DATA    G (GPS)             RINEX VERSION / TYPE
rinexwrt            gAGE                20100505 12:45:55UTCPGM / RUN BY / DATE
gAGE                                                        MARKER NAME
gAGE                gAGE                                    OBSERVER / AGENCY
Unknown             Unknown             Unknown             REC # / TYPE / VERS
Unknown             Unknown                                 ANT # / TYPE
  5436447.3690 -1496036.6390  2971380.3580                  APPROX POSITION XYZ
        0.0000        0.0000        0.0000                  ANTENNA: DELTA H/E/N
     1     1                                                WAVELENGTH FACT L1/2
     4    L1    L2    C1    P2                              # / TYPES OF OBSERV
  1998     9    28    11    23   27.9980000     GPS         TIME OF FIRST OBS
                                                            END OF HEADER
 98  9 28 11 23 27.9980000  0  4G18G14G16G19
   3147057.998           0.000    19985334.667           0.000  
  -2849474.000           0.000    23147947.392           0.000  
   -276399.999           0.000    20593317.872           0.000  
 -18839640.001           0.000    22428324.581           0.000  
 98  9 28 11 23 28.9980000  0  4G18G14G16G19
   3143287.001           0.000    19984613.519           0.000  
  -2850403.999           0.000    23147770.565           0.000  
   -278970.001           0.000    20592828.859           0.000  
 -18846160.002           0.000    22427083.868           0.000  
 98  9 28 11 23 29.9980000  0  4G18G14G16G19
   3139515.998           0.000    19983893.368           0.000  
  -2851333.000           0.000    23147593.843           0.000  
   -281538.998           0.000    20592339.938           0.000  
 -18852679.000           0.000    22425843.319           0.000  
 98  9 28 11 23 30.9980000  0  4G18G14G16G19
   3135747.002           0.000    19983175.987           0.000  
  -2852261.003           0.000    23147417.222           0.000  
   -284107.003           0.000    20591851.230           0.000  
 -18859196.999           0.000    22424602.920           0.000  
 98  9 28 11 23 31.9980000  0  4G18G14G16G19
   3131979.000           0.000    19982458.340           0.000  
  -2853189.998           0.000    23147240.690           0.000  
   -286673.998           0.000    20591362.585           0.000  
 -18865714.998           0.000    22423362.589           0.000  
 98  9 28 11 23 32.9980000  0  4G18G14G16G19
   3128212.001           0.000    19981748.148           0.000  
  -2854117.002           0.000    23147064.230           0.000  
   -289240.999           0.000    20590874.076           0.000  
 -18872231.999           0.000    22422122.350           0.000  
 98  9 28 11 23 33.9980000  0  4G18G14G16G19
   3124447.000           0.000    19981030.501           0.000  
  -2855045.000           0.000    23146887.826           0.000  
   -291808.000           0.000    20590385.676           0.000  
 -18878748.001           0.000    22420882.226           0.000  
 98  9 28 11 23 34.9980000  0  4G18G14G16G19
   3120680.001           0.000    19980315.212           0.000  
  -2855971.000           0.000    23146711.558           0.000  
   -294372.998           0.000    20589897.512           0.000  
 -18885263.998           0.000    22419642.307           0.000  
 98  9 28 11 23 35.9980000  0  4G18G14G16G19
   3116915.998           0.000    19979598.558           0.000  
  -2856897.000           0.000    23146535.330           0.000  
   -296938.002           0.000    20589409.408           0.000  
 -18891779.002           0.000    22418402.438           0.000  
 98  9 28 11 23 36.9980000  0  4G18G14G16G19
   3113149.998           0.000    19978881.668           0.000  
  -2857823.001           0.000    23146359.134           0.000  
   -299503.001           0.000    20588921.403           0.000  
 -18898294.001           0.000    22417162.610           0.000  
 98  9 28 11 23 37.9980000  0  4G18G14G16G19
   3109386.998           0.000    19978164.834           0.000  
  -2858748.002           0.000    23146183.059           0.000  
   -302067.001           0.000    20588433.458           0.000  
 -18904808.001           0.000    22415922.901           0.000  
 98  9 28 11 23 38.9980000  0  4G18G14G16G19
   3105625.002           0.000    19977449.339           0.000  
  -2859672.999           0.000    23146007.138           0.000  
   -304630.002           0.000    20587945.694           0.000  
 -18911321.002           0.000    22414683.369           0.000  
 98  9 28 11 23 39.9980000  0  4G18G14G16G19
   3101864.000           0.000    19976734.201           0.000  
  -2860598.001           0.000    23145831.228           0.000  
   -307192.999           0.000    20587458.042           0.000  
 -18917833.999           0.000    22413443.910           0.000  
 98  9 28 11 23 40.9980000  0  4G18G14G16G19
   3098103.002           0.000    19976018.393           0.000  
  -2861521.999           0.000    23145655.389           0.000  
   -309755.002           0.000    20586970.601           0.000  
 -18924347.000           0.000    22412204.583           0.000  
 98  9 28 11 23 41.9980000  0  4G18G14G16G19
   3094344.002           0.000    19975303.183           0.000  
  -2862444.999           0.000    23145479.623           0.000  
   -312316.002           0.000    20586483.238           0.000  
 -18930858.000           0.000    22410965.341           0.000  
 98  9 28 11 23 42.9980000  0  4G18G14G16G19
   3090583.998           0.000    19974588.382           0.000  
  -2863367.998           0.000    23145303.930           0.000  
   -314877.001           0.000    20585996.016           0.000  
 -18937368.999           0.000    22409726.194           0.000  
 98  9 28 11 23 43.9980000  0  4G18G14G16G19
   3086825.002           0.000    19973872.659           0.000  
  -2864290.000           0.000    23145128.397           0.000  
   -317437.002           0.000    20585508.961           0.000  
 -18943879.999           0.000    22408487.216           0.000  
 98  9 28 11 23 44.9980000  0  4G18G14G16G19
   3083064.998           0.000    19973156.504           0.000  
  -2865212.999           0.000    23144952.919           0.000  
   -319996.998           0.000    20585021.866           0.000  
 -18950390.000           0.000    22407248.278           0.000  
 98  9 28 11 23 45.9980000  0  4G18G14G16G19
   3079307.002           0.000    19972441.284           0.000  
  -2866135.001           0.000    23144777.479           0.000  
   -322556.000           0.000    20584534.921           0.000  
 -18956899.002           0.000    22406009.505           0.000  
 98  9 28 11 23 46.9980000  0  4G18G14G16G19
   3075549.998           0.000    19971726.811           0.000  
  -2867055.998           0.000    23144602.106           0.000  
   -325113.999           0.000    20584048.105           0.000  
 -18963408.000           0.000    22404770.879           0.000  
 98  9 28 11 23 47.9980000  0  4G18G14G16G19
   3071795.002           0.000    19971012.062           0.000  
  -2867977.001           0.000    23144426.856           0.000  
   -327671.998           0.000    20583561.483           0.000  
 -18969915.998           0.000    22403532.421           0.000  
 98  9 28 11 23 48.9980000  0  4G18G14G16G19
   3068039.002           0.000    19970296.684           0.000  
  -2868897.000           0.000    23144251.679           0.000  
   -330230.002           0.000    20583074.889           0.000  
 -18976424.002           0.000    22402294.047           0.000  
 98  9 28 11 23 49.9980000  0  4G18G14G16G19
   3064284.999           0.000    19969581.335           0.000  
  -2869818.003           0.000    23144076.520           0.000  
   -332787.003           0.000    20582588.389           0.000  
 -18982931.003           0.000    22401055.764           0.000  
 98  9 28 11 23 50.9980000  0  4G18G14G16G19
   3060529.998           0.000    19968866.674           0.000  
  -2870736.998           0.000    23143901.473           0.000  
   -335342.999           0.000    20582101.977           0.000  
 -18989437.998           0.000    22399817.589           0.000  
 98  9 28 11 23 51.9980000  0  4G18G14G16G19
   3056776.000           0.000    19968152.402           0.000  
  -2871657.002           0.000    23143726.541           0.000  
   -337899.001           0.000    20581615.754           0.000  
 -18995944.000           0.000    22398579.505           0.000  
 98  9 28 11 23 52.9980000  0  4G18G14G16G19
   3053024.998           0.000    19967438.525           0.000  
  -2872574.999           0.000    23143551.661           0.000  
   -340454.000           0.000    20581129.612           0.000  
 -19002450.002           0.000    22397341.573           0.000  
 98  9 28 11 23 53.9980000  0  4G18G14G16G19
   3049271.999           0.000    19966723.490           0.000  
  -2873494.000           0.000    23143376.891           0.000  
   -343007.999           0.000    20580643.629           0.000  
 -19008954.001           0.000    22396103.820           0.000  
 98  9 28 11 23 54.9980000  0  4G18G14G16G19
   3045522.000           0.000    19966009.501           0.000  
  -2874410.998           0.000    23143202.254           0.000  
   -345561.999           0.000    20580157.776           0.000  
 -19015458.001           0.000    22394866.162           0.000  
 98  9 28 11 23 55.9980000  0  4G18G14G16G19
   3041770.998           0.000    19965295.327           0.000  
  -2875328.002           0.000    23143027.741           0.000  
   -348115.000           0.000    20579672.066           0.000  
 -19021961.003           0.000    22393628.564           0.000  
 98  9 28 11 23 56.9980000  0  4G18G14G16G19
   3038023.001           0.000    19964581.283           0.000  
  -2876245.999           0.000    23142853.227           0.000  
   -350668.002           0.000    20579186.367           0.000  
 -19028463.999           0.000    22392391.046           0.000  
 98  9 28 11 23 57.9980000  0  4G18G14G16G19
   3034277.002           0.000    19963867.652           0.000  
  -2877161.999           0.000    23142678.856           0.000  
   -353219.999           0.000    20578700.877           0.000  
 -19034967.000           0.000    22391153.659           0.000  
 98  9 28 11 23 58.9980000  0  4G18G14G16G19
   3030528.002           0.000    19963153.392           0.000  
  -2878077.999           0.000    23142504.522           0.000  
   -355770.999           0.000    20578215.482           0.000  
 -19041467.999           0.000    22389916.370           0.000  
 98  9 28 11 23 59.9980000  0  4G18G14G16G19
   3026779.002           0.000    19962439.343           0.000  
  -2878993.999           0.000    23142330.252           0.000  
   -358321.998           0.000    20577730.173           0.000  
 -19047970.002           0.000    22388679.217           0.000  
 98  9 28 11 24  1.9980000  0  4G18G14G16G19
   3019286.998           0.000    19961010.867           0.000  
  -2880824.002           0.000    23141982.058           0.000  
   -363421.999           0.000    20576759.868           0.000  
 -19060969.998           0.000    22386205.406           0.000  
 98  9 28 11 24  2.9980000  0  4G18G14G16G19
   3015540.998           0.000    19960298.678           0.000  
  -2881738.000           0.000    23141808.075           0.000  
   -365971.001           0.000    20576274.871           0.000  
 -19067469.000           0.000    22384968.698           0.000  
 98  9 28 11 24  3.9980000  0  4G18G14G16G19
   3011797.001           0.000    19959585.921           0.000  
  -2882652.003           0.000    23141634.143           0.000  
   -368519.000           0.000    20575790.020           0.000  
 -19073968.002           0.000    22383732.065           0.000  
 98  9 28 11 24  4.9980000  0  4G18G14G16G19
   3008052.000           0.000    19958872.557           0.000  
  -2883566.001           0.000    23141460.139           0.000  
   -371068.002           0.000    20575305.087           0.000  
 -19080466.999           0.000    22382495.380           0.000  
 98  9 28 11 24  5.9980000  0  4G18G14G16G19
   3004309.999           0.000    19958160.170           0.000  
  -2884479.000           0.000    23141286.299           0.000  
   -373615.002           0.000    20574820.454           0.000  
 -19086964.998           0.000    22381258.939           0.000  
 98  9 28 11 24  6.9980000  0  4G18G14G16G19
   3000566.002           0.000    19957447.341           0.000  
  -2885391.999           0.000    23141112.629           0.000  
   -376162.002           0.000    20574335.974           0.000  
 -19093461.998           0.000    22380022.657           0.000  
 98  9 28 11 24  7.9980000  0  4G18G14G16G19
   2996825.000           0.000    19956734.396           0.000  
  -2886304.000           0.000    23140939.105           0.000  
   -378707.999           0.000    20573851.668           0.000  
 -19099957.999           0.000    22378786.546           0.000  
 98  9 28 11 24  8.9980000  0  4G18G14G16G19
   2993086.000           0.000    19956023.547           0.000  
  -2887216.001           0.000    23140765.478           0.000  
   -381254.000           0.000    20573367.326           0.000  
 -19106454.001           0.000    22377550.389           0.000  
 98  9 28 11 24  9.9980000  0  4G18G14G16G19
   2989346.002           0.000    19955312.260           0.000  
  -2888126.998           0.000    23140592.032           0.000  
   -383798.998           0.000    20572883.187           0.000  
 -19112948.999           0.000    22376314.511           0.000  
 98  9 28 11 24 10.9980000  0  4G18G14G16G19
   2985608.001           0.000    19954601.149           0.000  
  -2889038.001           0.000    23140418.752           0.000  
   -386342.998           0.000    20572399.189           0.000  
 -19119444.002           0.000    22375078.757           0.000  
 98  9 28 11 24 11.9980000  0  4G18G14G16G19
   2981870.998           0.000    19953890.933           0.000  
  -2889947.001           0.000    23140245.574           0.000  
   -388885.999           0.000    20571915.338           0.000  
 -19125936.998           0.000    22373843.144           0.000  
 98  9 28 11 24 12.9980000  0  4G18G14G16G19
   2978134.000           0.000    19953180.388           0.000  
  -2890857.000           0.000    23140072.529           0.000  
   -391428.001           0.000    20571431.621           0.000  
 -19132429.999           0.000    22372607.724           0.000  
 98  9 28 11 24 13.9980000  0  4G18G14G16G19
   2974398.001           0.000    19952475.880           0.000  
  -2891765.001           0.000    23139899.599           0.000  
   -393969.999           0.000    20570948.025           0.000  
 -19138922.001           0.000    22371372.445           0.000  
 98  9 28 11 24 14.9980000  0  4G18G14G16G19
   2970663.000           0.000    19951764.078           0.000  
  -2892674.002           0.000    23139726.707           0.000  
   -396511.003           0.000    20570464.498           0.000  
 -19145413.000           0.000    22370137.185           0.000  
 98  9 28 11 24 15.9980000  0  4G18G14G16G19
   2966928.000           0.000    19951053.419           0.000  
  -2893581.998           0.000    23139553.850           0.000  
   -399052.001           0.000    20569981.109           0.000  
 -19151903.999           0.000    22368902.066           0.000  
 98  9 28 11 24 16.9980000  0  4G18G14G16G19
   2963196.000           0.000    19950340.809           0.000  
  -2894490.000           0.000    23139381.049           0.000  
   -401593.000           0.000    20569497.759           0.000  
 -19158395.003           0.000    22367667.022           0.000  
 98  9 28 11 24 17.9980000  0  4G18G14G16G19
   2959460.999           0.000    19949627.624           0.000  
  -2895398.002           0.000    23139208.197           0.000  
   -404133.001           0.000    20569014.368           0.000  
 -19164886.002           0.000    22366431.937           0.000  
 98  9 28 11 24 18.9980000  0  4G18G14G16G19
   2955728.000           0.000    19948916.091           0.000  
  -2896305.998           0.000    23139035.475           0.000  
   -406673.001           0.000    20568531.120           0.000  
 -19171376.002           0.000    22365196.954           0.000  
 98  9 28 11 24 19.9980000  0  4G18G14G16G19
   2951996.999           0.000    19948207.294           0.000  
  -2897213.002           0.000    23138862.908           0.000  
   -409211.998           0.000    20568048.052           0.000  
 -19177864.999           0.000    22363962.150           0.000  
 98  9 28 11 24 20.9980000  0  4G18G14G16G19
   2948267.001           0.000    19947498.445           0.000  
  -2898119.001           0.000    23138690.403           0.000  
   -411750.001           0.000    20567565.099           0.000  
 -19184353.002           0.000    22362727.359           0.000  
 98  9 28 11 24 21.9980000  0  5G18G14G16G 4G19
   2944536.998           0.000    19946789.075           0.000  
  -2899026.000           0.000    23138517.929           0.000  
   -414287.999           0.000    20567082.214           0.000  
   3143648.000           0.000    20683501.580           0.000  
 -19190841.000           0.000    22361492.647           0.000  
 98  9 28 11 24 22.9980000  0  5G18G14G16G 4G19
   2940807.998           0.000    19946080.672           0.000  
  -2899931.999           0.000    23138345.548           0.000  
   -416824.999           0.000    20566599.441           0.000  
   3139174.000           0.000    20682644.012           0.000  
 -19197328.998           0.000    22360258.075           0.000  
 98  9 28 11 24 23.9980000  0  5G18G14G16G 4G19
   2937078.999           0.000    19945371.565           0.000  
  -2900837.000           0.000    23138173.249           0.000  
   -419361.999           0.000    20566116.779           0.000  
   3134702.002           0.000    20681787.429           0.000  
 -19203815.998           0.000    22359023.578           0.000  
 98  9 28 11 24 24.9980000  0  5G18G14G16G 4G19
   2933352.002           0.000    19944662.318           0.000  
  -2901742.002           0.000    23138001.018           0.000  
   -421898.000           0.000    20565634.270           0.000  
   3130231.002           0.000    20680933.960           0.000  
 -19210301.999           0.000    22357789.249           0.000  
 98  9 28 11 24 25.9980000  0  5G18G14G16G 4G19
   2929624.001           0.000    19943952.368           0.000  
  -2902647.003           0.000    23137828.894           0.000  
   -424432.998           0.000    20565151.907           0.000  
   3125758.998           0.000    20680074.251           0.000  
 -19216787.002           0.000    22356555.013           0.000  
 98  9 28 11 24 26.9980000  0  4G18G14G16G19
   2925898.002           0.000    19943243.620           0.000  
  -2903551.000           0.000    23137656.851           0.000  
   -426968.001           0.000    20564669.616           0.000  
 -19223272.000           0.000    22355320.870           0.000  
 98  9 28 11 24 27.9980000  0  5G18G14G16G 4G19
   2922171.998           0.000    19942534.274           0.000  
  -2904454.998           0.000    23137484.927           0.000  
   -429502.000           0.000    20564187.429           0.000  
   3116822.001           0.000    20678372.398           0.000  
 -19229757.002           0.000    22354086.766           0.000  
 98  9 28 11 24 28.9980000  0  5G18G14G16G 4G19
   2918445.000           0.000    19941824.605           0.000  
  -2905358.002           0.000    23137313.064           0.000  
   -432035.999           0.000    20563705.389           0.000  
   3112352.998           0.000    20677523.094           0.000  
 -19236241.001           0.000    22352852.816           0.000  
 98  9 28 11 24 29.9980000  0  5G18G14G16G 4G19
   2914720.999           0.000    19941115.747           0.000  
  -2906261.001           0.000    23137141.238           0.000  
   -434569.000           0.000    20563223.451           0.000  
   3107884.999           0.000    20676672.247           0.000  
 -19242724.002           0.000    22351618.931           0.000  
 98  9 28 11 24 30.9980000  0  5G18G14G16G 4G19
   2910995.998           0.000    19940406.600           0.000  
  -2907164.000           0.000    23136969.512           0.000  
   -437101.002           0.000    20562741.638           0.000  
   3103419.001           0.000    20675821.755           0.000  
 -19249207.003           0.000    22350385.152           0.000  
 98  9 28 11 24 31.9980000  0  5G18G14G16G 4G19
   2907273.998           0.000    19939698.268           0.000  
  -2908066.001           0.000    23136797.957           0.000  
   -439632.999           0.000    20562260.016           0.000  
   3098953.997           0.000    20674971.191           0.000  
 -19255688.001           0.000    22349151.636           0.000  
 98  9 28 11 24 32.9980000  0  5G18G14G16G 4G19
   2903551.999           0.000    19938989.759           0.000  
  -2908967.003           0.000    23136626.368           0.000  
   -442164.002           0.000    20561778.417           0.000  
   3094490.002           0.000    20674120.911           0.000  
 -19262169.998           0.000    22347918.168           0.000  
 98  9 28 11 24 33.9980000  0  5G18G14G16G 4G19
   2899829.999           0.000    19938281.752           0.000  
  -2909868.998           0.000    23136454.855           0.000  
   -444695.001           0.000    20561296.869           0.000  
   3090024.000           0.000    20673270.064           0.000  
 -19268651.002           0.000    22346684.730           0.000  
 98  9 28 11 24 34.9980000  0  5G18G14G16G 4G19
   2896107.999           0.000    19937573.433           0.000  
  -2910770.000           0.000    23136283.423           0.000  
   -447225.001           0.000    20560815.468           0.000  
   3085563.000           0.000    20672420.841           0.000  
 -19275132.000           0.000    22345451.464           0.000  
 98  9 28 11 24 35.9980000  0  5G18G14G16G 4G19
   2892386.998           0.000    19936865.555           0.000  
  -2911671.002           0.000    23136112.068           0.000  
   -449755.001           0.000    20560334.167           0.000  
   3081098.002           0.000    20671570.410           0.000  
 -19281611.002           0.000    22344218.283           0.000  
 98  9 28 11 24 36.9980000  0  5G18G14G16G 4G19
   2888668.997           0.000    19936158.279           0.000  
  -2912571.001           0.000    23135940.846           0.000  
   -452282.999           0.000    20559853.049           0.000  
   3076638.001           0.000    20670720.496           0.000  
 -19288089.998           0.000    22342985.299           0.000  
 98  9 28 11 24 37.9980000  0  5G18G14G16G 4G19
   2884951.002           0.000    19935451.821           0.000  
  -2913470.999           0.000    23135769.640           0.000  
   -454812.000           0.000    20559372.018           0.000  
   3072177.001           0.000    20669871.521           0.000  
 -19294569.000           0.000    22341752.416           0.000  
 98  9 28 11 24 38.9980000  0  5G18G14G16G 4G19
   2881234.000           0.000    19934745.542           0.000  
  -2914369.999           0.000    23135598.560           0.000  
   -457339.000           0.000    20558891.073           0.000  
   3067716.001           0.000    20669021.206           0.000  
 -19301047.003           0.000    22340519.545           0.000  
 98  9 28 11 24 39.9980000  0  5G18G14G16G 4G19
   2877516.998           0.000    19934038.369           0.000  
  -2915268.999           0.000    23135427.505           0.000  
   -459866.998           0.000    20558410.205           0.000  
   3063256.999           0.000    20668172.531           0.000  
 -19307524.002           0.000    22339286.751           0.000  
 98  9 28 11 24 40.9980000  0  5G18G14G16G 4G19
   2873801.998           0.000    19933332.371           0.000  
  -2916167.999           0.000    23135256.499           0.000  
   -462392.999           0.000    20557929.415           0.000  
   3058798.001           0.000    20667322.930           0.000  
 -19314001.001           0.000    22338054.188           0.000  
 98  9 28 11 24 41.9980000  0  5G18G14G16G 4G19
   2870086.997           0.000    19932626.369           0.000  
  -2917066.000           0.000    23135085.631           0.000  
   -464919.000           0.000    20557448.795           0.000  
   3054338.999           0.000    20666474.506           0.000  
 -19320477.002           0.000    22336821.747           0.000  
 98  9 28 11 24 42.9980000  0  5G18G14G16G 4G19
   2866374.000           0.000    19931920.541           0.000  
  -2917964.002           0.000    23134914.777           0.000  
   -467445.001           0.000    20556968.252           0.000  
   3049883.002           0.000    20665626.479           0.000  
 -19326952.998           0.000    22335589.410           0.000  
 98  9 28 11 24 43.9980000  0  5G18G14G16G 4G19
   2862662.000           0.000    19931215.644           0.000  
  -2918861.998           0.000    23134744.034           0.000  
   -469968.999           0.000    20556487.751           0.000  
   3045427.998           0.000    20664778.523           0.000  
 -19333428.001           0.000    22334357.185           0.000  
 98  9 28 11 24 44.9980000  0  5G18G14G16G 4G19
   2858949.002           0.000    19930510.012           0.000  
  -2919759.001           0.000    23134573.406           0.000  
   -472494.002           0.000    20556007.322           0.000  
   3040975.002           0.000    20663931.202           0.000  
 -19339901.999           0.000    22333125.034           0.000  
 98  9 28 11 24 45.9980000  0  5G18G14G16G 4G19
   2855238.001           0.000    19929804.663           0.000  
  -2920655.000           0.000    23134402.810           0.000  
   -475017.002           0.000    20555527.027           0.000  
   3036521.002           0.000    20663082.655           0.000  
 -19346375.998           0.000    22331892.996           0.000  
 98  9 28 11 24 46.9980000  0  4G18G14G16G19
   2851527.000           0.000    19929098.363           0.000  
  -2921551.998           0.000    23134232.305           0.000  
   -477540.003           0.000    20555046.871           0.000  
 -19352848.998           0.000    22330661.072           0.000  
 98  9 28 11 24 47.9980000  0  4G18G14G16G19
   2847816.000           0.000    19928392.765           0.000  
  -2922448.003           0.000    23134061.783           0.000  
   -480062.998           0.000    20554566.739           0.000  
 -19359321.999           0.000    22329429.127           0.000  
 98  9 28 11 24 48.9980000  0  4G18G14G16G19
   2844104.999           0.000    19927687.025           0.000  
  -2923344.002           0.000    23133891.324           0.000  
   -482585.000           0.000    20554086.724           0.000  
 -19365794.999           0.000    22328197.279           0.000  
 98  9 28 11 24 49.9980000  0  4G18G14G16G19
   2840396.000           0.000    19926981.997           0.000  
  -2924238.998           0.000    23133720.909           0.000  
   -485107.001           0.000    20553606.775           0.000  
 -19372267.001           0.000    22326965.555           0.000  
 98  9 28 11 24 50.9980000  0  4G18G14G16G19
   2836687.999           0.000    19926276.045           0.000  
  -2925133.998           0.000    23133550.635           0.000  
   -487628.000           0.000    20553126.974           0.000  
 -19378737.999           0.000    22325734.097           0.000  
 98  9 28 11 24 51.9980000  0  4G18G14G16G19
   2832980.998           0.000    19925571.289           0.000  
  -2926028.001           0.000    23133380.421           0.000  
   -490147.999           0.000    20552647.308           0.000  
 -19385207.999           0.000    22324502.677           0.000  
 98  9 28 11 24 52.9980000  0  4G18G14G16G19
   2829274.001           0.000    19924865.727           0.000  
  -2926923.002           0.000    23133210.267           0.000  
   -492667.001           0.000    20552167.679           0.000  
 -19391677.998           0.000    22323271.306           0.000  
 98  9 28 11 24 53.9980000  0  4G18G14G16G19
   2825569.001           0.000    19924159.366           0.000  
  -2927816.000           0.000    23133040.223           0.000  
   -495186.002           0.000    20551688.186           0.000  
 -19398147.998           0.000    22322040.088           0.000  
 98  9 28 11 24 54.9980000  0  4G18G14G16G19
   2821864.002           0.000    19923453.670           0.000  
  -2928709.998           0.000    23132870.222           0.000  
   -497704.998           0.000    20551208.817           0.000  
 -19404616.999           0.000    22320809.052           0.000  
 98  9 28 11 24 56.9980000  0  4G18G14G16G19
   2814458.001           0.000    19922034.310           0.000  
  -2930495.002           0.000    23132530.432           0.000  
   -502740.000           0.000    20550250.490           0.000  
 -19417552.001           0.000    22318347.363           0.000  
 98  9 28 11 24 57.9970000  0  4G18G14G16G19
   4386177.999           0.000    20221114.548           0.000  
  -1355965.998           0.000    23432153.306           0.000  
   1070166.002           0.000    20849564.397           0.000  
 -17848592.999           0.000    22616910.320           0.000  
 98  9 28 11 25 21.9970000  0  4G18G14G16G19
   4718890.002           0.000    20204259.998           0.000  
  -1377257.000           0.000    23428101.916           0.000  
   1009934.998           0.000    20838103.549           0.000  
 -18003635.001           0.000    22587405.087           0.000  
 98  9 28 11 25 22.9970000  0  4G18G14G16G19
   4715206.001           0.000    20203561.254           0.000  
  -1378139.000           0.000    23427934.078           0.000  
   1007431.998           0.000    20837627.365           0.000  
 -18010088.000           0.000    22586177.117           0.000  
 98  9 28 11 25 23.9970000  0  4G18G14G16G19
   4711523.998           0.000    20202859.833           0.000  
  -1379021.000           0.000    23427766.338           0.000  
   1004931.001           0.000    20837151.358           0.000  
 -18016541.000           0.000    22584949.370           0.000  
 98  9 28 11 25 24.9970000  0  4G18G14G16G19
   4707838.999           0.000    20202156.140           0.000  
  -1379902.002           0.000    23427598.630           0.000  
   1002428.999           0.000    20836675.447           0.000  
 -18022993.001           0.000    22583721.673           0.000  
 98  9 28 11 25 25.9970000  0  4G18G14G16G19
   4704157.000           0.000    20201453.930           0.000  
  -1380781.999           0.000    23427431.125           0.000  
    999929.000           0.000    20836199.704           0.000  
 -18029443.000           0.000    22582494.231           0.000  
 98  9 28 11 25 26.9970000  0  4G18G14G16G19
   4700475.002           0.000    20200748.204           0.000  
  -1381662.002           0.000    23427263.628           0.000  
    997427.998           0.000    20835723.970           0.000  
 -18035894.003           0.000    22581266.818           0.000  
 98  9 28 11 25 27.9970000  0  4G18G14G16G19
   4696795.999           0.000    20200050.136           0.000  
  -1382542.000           0.000    23427096.244           0.000  
    994929.002           0.000    20835248.428           0.000  
 -18042344.002           0.000    22580039.607           0.000  
 98  9 28 11 25 28.9970000  0  4G18G14G16G19
   4693114.999           0.000    20199348.330           0.000  
  -1383420.001           0.000    23426928.984           0.000  
    992430.002           0.000    20834772.948           0.000  
 -18048793.002           0.000    22578812.442           0.000  
 98  9 28 11 25 29.9970000  0  4G18G14G16G19
   4689436.001           0.000    20198648.733           0.000  
  -1384299.000           0.000    23426761.834           0.000  
    989931.999           0.000    20834297.643           0.000  
 -18055241.998           0.000    22577585.414           0.000  
 98  9 28 11 25 30.9970000  0  4G18G14G16G19
   4685758.002           0.000    20197950.411           0.000  
  -1385177.001           0.000    23426594.747           0.000  
    987435.001           0.000    20833822.460           0.000  
 -18061690.000           0.000    22576358.496           0.000  
 98  9 28 11 25 31.9970000  0  4G18G14G16G19
   4682081.001           0.000    20197250.959           0.000  
  -1386053.998           0.000    23426427.745           0.000  
    984937.997           0.000    20833347.370           0.000  
 -18068136.998           0.000    22575131.712           0.000  
 98  9 28 11 25 32.9970000  0  4G18G14G16G19
   4678404.998           0.000    20196552.803           0.000  
  -1386931.999           0.000    23426260.776           0.000  
    982440.999           0.000    20832872.406           0.000  
 -18074584.002           0.000    22573905.004           0.000  
 98  9 28 11 25 33.9970000  0  4G18G14G16G19
   4674732.002           0.000    20195854.059           0.000  
  -1387807.998           0.000    23426093.913           0.000  
    979945.997           0.000    20832397.516           0.000  
 -18081030.002           0.000    22572678.448           0.000  
 98  9 28 11 25 34.9970000  0  4G18G14G16G19
   4671056.000           0.000    20195155.488           0.000  
  -1388685.000           0.000    23425927.124           0.000  
    977449.997           0.000    20831922.724           0.000  
 -18087476.002           0.000    22571451.997           0.000  
 98  9 28 11 25 35.9970000  0  4G18G14G16G19
   4667381.001           0.000    20194457.338           0.000  
  -1389560.000           0.000    23425760.470           0.000  
    974956.000           0.000    20831448.034           0.000  
 -18093920.998           0.000    22570225.660           0.000  
 98  9 28 11 25 36.9970000  0  4G18G14G16G19
   4663707.999           0.000    20193759.024           0.000  
  -1390435.999           0.000    23425593.839           0.000  
    972462.002           0.000    20830973.458           0.000  
 -18100365.999           0.000    22568999.419           0.000  
 98  9 28 11 25 37.9970000  0  4G18G14G16G19
   4660033.999           0.000    20193059.779           0.000  
  -1391310.999           0.000    23425427.289           0.000  
    969967.999           0.000    20830498.913           0.000  
 -18106810.002           0.000    22567773.225           0.000  
 98  9 28 11 25 38.9970000  0  4G18G14G16G19
   4656361.002           0.000    20192361.460           0.000  
  -1392185.001           0.000    23425260.856           0.000  
    967475.000           0.000    20830024.558           0.000  
 -18113253.002           0.000    22566547.194           0.000  
 98  9 28 11 25 39.9970000  0  4G18G14G16G19
   4652691.001           0.000    20191663.017           0.000  
  -1393059.002           0.000    23425094.512           0.000  
    964982.999           0.000    20829550.253           0.000  
 -18119696.001           0.000    22565321.172           0.000  
 98  9 28 11 25 40.9970000  0  4G18G14G16G19
   4649018.998           0.000    20190964.647           0.000  
  -1393932.999           0.000    23424928.267           0.000  
    962490.998           0.000    20829076.112           0.000  
 -18126138.002           0.000    22564095.267           0.000  
 98  9 28 11 25 41.9970000  0  4G18G14G16G19
   4645349.002           0.000    20190266.338           0.000  
  -1394804.998           0.000    23424762.232           0.000  
    960000.001           0.000    20828602.135           0.000  
 -18132580.003           0.000    22562869.498           0.000  
 98  9 28 11 25 42.9970000  0  4G18G14G16G19
   4641680.998           0.000    20189568.874           0.000  
  -1395678.002           0.000    23424596.223           0.000  
    957510.002           0.000    20828128.225           0.000  
 -18139020.001           0.000    22561643.877           0.000  
 98  9 28 11 25 43.9970000  0  4G18G14G16G19
   4638012.999           0.000    20188870.815           0.000  
  -1396550.001           0.000    23424430.216           0.000  
    955018.999           0.000    20827654.344           0.000  
 -18145460.998           0.000    22560418.298           0.000  
 98  9 28 11 25 44.9970000  0  4G18G14G16G19
   4634348.000           0.000    20188173.139           0.000  
  -1397422.001           0.000    23424264.369           0.000  
    952529.999           0.000    20827180.647           0.000  
 -18151901.002           0.000    22559192.944           0.000  
 98  9 28 11 25 45.9970000  0  4G18G14G16G19
   4630678.998           0.000    20187474.980           0.000  
  -1398293.002           0.000    23424098.623           0.000  
    950041.997           0.000    20826707.082           0.000  
 -18158340.003           0.000    22557967.758           0.000  
 98  9 28 11 25 46.9970000  0  4G18G14G16G19
   4627013.999           0.000    20186776.566           0.000  
  -1399162.999           0.000    23423932.940           0.000  
    947553.002           0.000    20826233.601           0.000  
 -18164777.999           0.000    22556742.648           0.000  
 98  9 28 11 25 47.9970000  0  4G18G14G16G19
   4623349.001           0.000    20186078.283           0.000  
  -1400034.001           0.000    23423767.317           0.000  
    945065.999           0.000    20825760.210           0.000  
 -18171216.001           0.000    22555517.656           0.000  
 98  9 28 11 25 48.9970000  0  4G18G14G16G19
   4619684.002           0.000    20185379.731           0.000  
  -1400902.999           0.000    23423601.805           0.000  
    942579.001           0.000    20825286.963           0.000  
 -18177652.999           0.000    22554292.815           0.000  
 98  9 28 11 25 49.9970000  0  4G18G14G16G19
   4616021.999           0.000    20184682.735           0.000  
  -1401773.002           0.000    23423436.377           0.000  
    940091.998           0.000    20824813.825           0.000  
 -18184090.002           0.000    22553068.140           0.000  
 98  9 28 11 25 50.9970000  0  4G18G14G16G19
   4612358.998           0.000    20183984.940           0.000  
  -1402642.001           0.000    23423271.038           0.000  
    937607.002           0.000    20824340.835           0.000  
 -18190526.002           0.000    22551843.562           0.000  
 98  9 28 11 25 51.9970000  0  4G18G14G16G19
   4608696.002           0.000    20183287.627           0.000  
  -1403510.002           0.000    23423105.741           0.000  
    935121.002           0.000    20823867.839           0.000  
 -18196962.001           0.000    22550618.991           0.000  
 98  9 28 11 25 52.9970000  0  4G18G14G16G19
   4605034.997           0.000    20182590.510           0.000  
  -1404379.000           0.000    23422940.467           0.000  
    932636.001           0.000    20823394.979           0.000  
 -18203398.001           0.000    22549394.476           0.000  
 98  9 28 11 25 53.9970000  0  4G18G14G16G19
   4601373.000           0.000    20181893.541           0.000  
  -1405247.001           0.000    23422775.297           0.000  
    930151.000           0.000    20822922.232           0.000  
 -18209833.002           0.000    22548170.128           0.000  
 98  9 28 11 25 54.9970000  0  4G18G14G16G19
   4597712.999           0.000    20181196.786           0.000  
  -1406113.998           0.000    23422610.258           0.000  
    927668.001           0.000    20822449.628           0.000  
 -18216266.999           0.000    22546945.862           0.000  
 98  9 28 11 25 55.9970000  0  4G18G14G16G19
   4594054.002           0.000    20180500.333           0.000  
  -1406981.000           0.000    23422445.317           0.000  
    925185.002           0.000    20821977.177           0.000  
 -18222699.998           0.000    22545721.711           0.000  
 98  9 28 11 25 56.9970000  0  4G18G14G16G19
   4590395.998           0.000    20179803.581           0.000  
  -1407848.002           0.000    23422280.368           0.000  
    922701.997           0.000    20821504.763           0.000  
 -18229133.003           0.000    22544497.565           0.000  
 98  9 28 11 25 57.9970000  0  4G18G14G16G19
   4586738.997           0.000    20179107.195           0.000  
  -1408714.000           0.000    23422115.468           0.000  
    920220.002           0.000    20821032.378           0.000  
 -18235566.002           0.000    22543273.494           0.000  
 98  9 28 11 25 58.9970000  0  4G18G14G16G19
   4583083.999           0.000    20178411.979           0.000  
  -1409579.998           0.000    23421950.721           0.000  
    917738.002           0.000    20820560.123           0.000  
 -18241998.002           0.000    22542049.595           0.000  
 98  9 28 11 25 59.9970000  0  4G18G14G16G19
   4579427.998           0.000    20177717.001           0.000  
  -1410444.998           0.000    23421786.024           0.000  
    915257.000           0.000    20820088.023           0.000  
 -18248428.999           0.000    22540825.771           0.000  
 98  9 28 11 26  0.9970000  0  4G18G14G16G19
   4575773.998           0.000    20177022.330           0.000  
  -1411309.998           0.000    23421621.486           0.000  
    912775.997           0.000    20819616.051           0.000  
 -18254860.001           0.000    22539602.151           0.000  
 98  9 28 11 26  1.9970000  0  4G18G14G16G19
   4572121.002           0.000    20176328.128           0.000  
  -1412174.000           0.000    23421457.018           0.000  
    910296.998           0.000    20819144.200           0.000  
 -18261289.999           0.000    22538378.593           0.000  
 98  9 28 11 26  2.9970000  0  4G18G14G16G19
   4568468.001           0.000    20175634.403           0.000  
  -1413038.001           0.000    23421292.643           0.000  
    907817.998           0.000    20818672.503           0.000  
 -18267718.999           0.000    22537155.130           0.000  
 98  9 28 11 26  3.9970000  0  4G18G14G16G19
   4564815.998           0.000    20174940.875           0.000  
  -1413900.999           0.000    23421128.311           0.000  
    905338.998           0.000    20818200.890           0.000  
 -18274147.999           0.000    22535931.777           0.000  
 98  9 28 11 26  4.9970000  0  4G18G14G16G19
   4561164.001           0.000    20174246.851           0.000  
  -1414765.000           0.000    23420964.031           0.000  
    902861.001           0.000    20817729.333           0.000  
 -18280576.000           0.000    22534708.516           0.000  
 98  9 28 11 26  5.9970000  0  4G18G14G16G19
   4557511.998           0.000    20173551.434           0.000  
  -1415626.999           0.000    23420799.849           0.000  
    900383.000           0.000    20817257.870           0.000  
 -18287004.002           0.000    22533485.342           0.000  
 98  9 28 11 26  6.9970000  0  4G18G14G16G19
   4553860.999           0.000    20172856.106           0.000  
  -1416490.002           0.000    23420635.683           0.000  
    897906.002           0.000    20816786.459           0.000  
 -18293431.998           0.000    22532262.339           0.000  
 98  9 28 11 26  7.9970000  0  4G18G14G16G19
   4550213.001           0.000    20172162.316           0.000  
  -1417352.001           0.000    23420471.668           0.000  
    895428.999           0.000    20816315.150           0.000  
 -18299859.001           0.000    22531039.427           0.000  
 98  9 28 11 26  8.9970000  0  4G18G14G16G19
   4546563.001           0.000    20171467.685           0.000  
  -1418214.001           0.000    23420307.660           0.000  
    892952.002           0.000    20815843.875           0.000  
 -18306285.999           0.000    22529816.530           0.000  
 98  9 28 11 26  9.9970000  0  4G18G14G16G19
   4542915.002           0.000    20170773.605           0.000  
  -1419075.001           0.000    23420143.723           0.000  
    890476.002           0.000    20815372.748           0.000  
 -18312711.998           0.000    22528593.784           0.000  
 98  9 28 11 26 10.9970000  0  4G18G14G16G19
   4539266.999           0.000    20170079.401           0.000  
  -1419936.002           0.000    23419979.882           0.000  
    888001.001           0.000    20814901.717           0.000  
 -18319136.999           0.000    22527371.105           0.000  
 98  9 28 11 26 11.9970000  0  4G18G14G16G19
   4535619.999           0.000    20169385.307           0.000  
  -1420796.998           0.000    23419816.160           0.000  
    885526.001           0.000    20814430.779           0.000  
 -18325562.000           0.000    22526148.562           0.000  
 98  9 28 11 26 12.9970000  0  4G18G14G16G19
   4531973.997           0.000    20168691.866           0.000  
  -1421657.000           0.000    23419652.497           0.000  
    883051.998           0.000    20813959.964           0.000  
 -18331986.002           0.000    22524926.141           0.000  
 98  9 28 11 26 13.9970000  0  4G18G14G16G19
   4528329.000           0.000    20167998.500           0.000  
  -1422515.999           0.000    23419488.902           0.000  
    880578.001           0.000    20813489.195           0.000  
 -18338409.999           0.000    22523703.755           0.000  
 98  9 28 11 26 14.9970000  0  4G18G14G16G19
   4524682.998           0.000    20167305.283           0.000  
  -1423376.001           0.000    23419325.394           0.000  
    878105.002           0.000    20813018.521           0.000  
 -18344832.998           0.000    22522481.542           0.000  
 98  9 28 11 26 15.9970000  0  4G18G14G16G19
   4521039.998           0.000    20166612.810           0.000  
  -1424234.001           0.000    23419162.050           0.000  
    875633.002           0.000    20812547.996           0.000  
 -18351256.002           0.000    22521259.480           0.000  
 98  9 28 11 26 16.9970000  0  4G18G14G16G19
   4517395.000           0.000    20165920.061           0.000  
  -1425092.001           0.000    23418998.786           0.000  
    873161.002           0.000    20812077.664           0.000  
 -18357676.998           0.000    22520037.500           0.000  
 98  9 28 11 26 17.9970000  0  4G18G14G16G19
   4513751.999           0.000    20165226.974           0.000  
  -1425950.001           0.000    23418835.579           0.000  
    870690.000           0.000    20811607.363           0.000  
 -18364098.998           0.000    22518815.578           0.000  
 98  9 28 11 26 18.9970000  0  4G18G14G16G19
   4510111.000           0.000    20164533.689           0.000  
  -1426806.998           0.000    23418672.486           0.000  
    868220.002           0.000    20811137.187           0.000  
 -18370519.001           0.000    22517593.808           0.000  
 98  9 28 11 26 19.9970000  0  4G18G14G16G19
   4506471.000           0.000    20163840.745           0.000  
  -1427664.000           0.000    23418509.395           0.000  
    865749.999           0.000    20810667.072           0.000  
 -18376939.998           0.000    22516372.073           0.000  
 98  9 28 11 26 20.9970000  0  4G18G14G16G19
   4502831.000           0.000    20163147.932           0.000  
  -1428520.003           0.000    23418346.457           0.000  
    863280.001           0.000    20810197.117           0.000  
 -18383359.003           0.000    22515150.560           0.000  
 98  9 28 11 26 21.9970000  0  4G18G14G16G19
   4499191.998           0.000    20162456.307           0.000  
  -1429376.001           0.000    23418183.644           0.000  
    860811.001           0.000    20809727.267           0.000  
 -18389778.002           0.000    22513929.090           0.000  
 98  9 28 11 26 22.9970000  0  4G18G14G16G19
   4495554.999           0.000    20161764.934           0.000  
  -1430231.000           0.000    23418020.910           0.000  
    858343.000           0.000    20809257.527           0.000  
 -18396195.998           0.000    22512707.701           0.000  
 98  9 28 11 26 23.9970000  0  4G18G14G16G19
   4491917.999           0.000    20161073.633           0.000  
  -1431085.001           0.000    23417858.386           0.000  
    855875.997           0.000    20808788.030           0.000  
 -18402613.001           0.000    22511486.581           0.000  
 98  9 28 11 26 24.9970000  0  4G18G14G16G19
   4488281.998           0.000    20160381.752           0.000  
  -1431940.001           0.000    23417695.817           0.000  
    853409.000           0.000    20808318.571           0.000  
 -18409029.998           0.000    22510265.482           0.000  
 98  9 28 11 26 25.9970000  0  4G18G14G16G19
   4484647.001           0.000    20159690.537           0.000  
  -1432792.998           0.000    23417533.382           0.000  
    850943.001           0.000    20807849.297           0.000  
 -18415446.002           0.000    22509044.518           0.000  
 98  9 28 11 26 26.9970000  0  4G18G14G16G19
   4481013.002           0.000    20158998.420           0.000  
  -1433646.999           0.000    23417371.006           0.000  
    848478.000           0.000    20807380.087           0.000  
 -18421862.001           0.000    22507823.666           0.000  
 98  9 28 11 26 27.9970000  0  4G18G14G16G19
   4477378.998           0.000    20158307.324           0.000  
  -1434500.002           0.000    23417208.629           0.000  
    846013.000           0.000    20806910.938           0.000  
 -18428277.002           0.000    22506602.906           0.000  
 98  9 28 11 26 28.9970000  0  4G18G14G16G19
   4473744.999           0.000    20157616.836           0.000  
  -1435352.001           0.000    23417046.321           0.000  
    843547.999           0.000    20806441.819           0.000  
 -18434692.002           0.000    22505382.244           0.000  
 98  9 28 11 26 29.9970000  0  4G18G14G16G19
   4470114.001           0.000    20156926.120           0.000  
  -1436204.000           0.000    23416884.192           0.000  
    841083.997           0.000    20805972.909           0.000  
 -18441105.999           0.000    22504161.697           0.000  
 98  9 28 11 26 30.9970000  0  4G18G14G16G19
   4466483.002           0.000    20156229.350           0.000  
  -1437055.999           0.000    23416722.148           0.000  
    838620.001           0.000    20805504.113           0.000  
 -18447520.001           0.000    22502941.336           0.000  
 98  9 28 11 26 31.9970000  0  4G18G14G16G19
   4462851.999           0.000    20155529.503           0.000  
  -1437906.999           0.000    23416560.209           0.000  
    836158.001           0.000    20805035.416           0.000  
 -18453932.001           0.000    22501721.091           0.000  
 98  9 28 11 26 32.9970000  0  4G18G14G16G19
   4459222.997           0.000    20154834.904           0.000  
  -1438758.000           0.000    23416398.363           0.000  
    833696.001           0.000    20804566.865           0.000  
 -18460344.001           0.000    22500500.988           0.000  
 98  9 28 11 26 33.9970000  0  4G18G14G16G19
   4455594.001           0.000    20154143.518           0.000  
  -1439608.002           0.000    23416236.593           0.000  
    831234.001           0.000    20804098.430           0.000  
 -18466756.000           0.000    22499280.936           0.000  
 98  9 28 11 26 34.9970000  0  4G18G14G16G19
   4451968.001           0.000    20153454.011           0.000  
  -1440457.000           0.000    23416074.897           0.000  
    828773.000           0.000    20803630.033           0.000  
 -18473167.002           0.000    22498060.954           0.000  
 98  9 28 11 26 35.9970000  0  4G18G14G16G19
   4448341.001           0.000    20152764.699           0.000  
  -1441305.998           0.000    23415913.255           0.000  
    826313.002           0.000    20803161.761           0.000  
 -18479577.000           0.000    22496841.159           0.000  
 98  9 28 11 26 36.9970000  0  4G18G14G16G19
   4444712.998           0.000    20152074.675           0.000  
  -1442155.002           0.000    23415751.738           0.000  
    823852.999           0.000    20802693.584           0.000  
 -18485987.002           0.000    22495621.447           0.000  
 98  9 28 11 26 50.9970000  0  4G18G14G16G19
   4720509.998           0.000    20142432.299           0.000  
  -1453995.001           0.000    23413498.139           0.000  
    789470.999           0.000    20796150.030           0.000  
 -18575670.000           0.000    22478555.804           0.000  
 98  9 28 11 26 51.9970000  0  4G18G14G16G19
   4716896.000           0.000    20141750.345           0.000  
  -1454837.998           0.000    23413337.818           0.000  
    787019.000           0.000    20795683.435           0.000  
 -18582071.001           0.000    22477337.462           0.000  
 98  9 28 11 26 52.9970000  0  4G18G14G16G19
   4713280.998           0.000    20141064.597           0.000  
  -1455680.002           0.000    23413177.532           0.000  
    784567.999           0.000    20795216.969           0.000  
 -18588472.002           0.000    22476119.207           0.000  
 98  9 28 11 26 53.9970000  0  4G18G14G16G19
   4709667.998           0.000    20140377.939           0.000  
  -1456521.002           0.000    23413017.374           0.000  
    782116.997           0.000    20794750.601           0.000  
 -18594872.998           0.000    22474901.105           0.000  
 98  9 28 11 26 54.9970000  0  4G18G14G16G19
   4706054.000           0.000    20139690.724           0.000  
  -1457363.001           0.000    23412857.243           0.000  
    779667.000           0.000    20794284.326           0.000  
 -18601273.001           0.000    22473683.036           0.000  
 98  9 28 11 26 55.9970000  0  4G18G14G16G19
   4702443.002           0.000    20139011.580           0.000  
  -1458203.002           0.000    23412697.237           0.000  
    777218.001           0.000    20793818.217           0.000  
 -18607672.998           0.000    22472465.145           0.000  
 98  9 28 11 26 56.9970000  0  4G18G14G16G19
   4698831.001           0.000    20138318.752           0.000  
  -1459042.999           0.000    23412537.310           0.000  
    774767.998           0.000    20793352.152           0.000  
 -18614072.002           0.000    22471247.354           0.000  
 98  9 28 11 26 57.9970000  0  4G18G14G16G19
   4695221.002           0.000    20137633.209           0.000  
  -1459883.000           0.000    23412377.574           0.000  
    772319.998           0.000    20792886.261           0.000  
 -18620470.002           0.000    22470029.694           0.000  
 98  9 28 11 26 58.9970000  0  4G18G14G16G19
   4691612.001           0.000    20136944.787           0.000  
  -1460721.998           0.000    23412217.908           0.000  
    769873.001           0.000    20792420.455           0.000  
 -18626866.999           0.000    22468812.266           0.000  
 98  9 28 11 26 59.9970000  0  4G18G14G16G19
   4688000.998           0.000    20136257.984           0.000  
  -1461561.002           0.000    23412058.364           0.000  
    767425.999           0.000    20791954.823           0.000  
 -18633264.001           0.000    22467594.908           0.000  
 98  9 28 11 27  0.9970000  0  4G18G14G16G19
   4684393.001           0.000    20135571.686           0.000  
  -1462399.001           0.000    23411898.864           0.000  
    764978.997           0.000    20791489.284           0.000  
 -18639660.998           0.000    22466377.631           0.000  
 98  9 28 11 27  1.9970000  0  4G18G14G16G19
   4680787.001           0.000    20134885.825           0.000  
  -1463237.001           0.000    23411739.394           0.000  
    762532.999           0.000    20791023.854           0.000  
 -18646057.001           0.000    22465160.417           0.000  
 98  9 28 11 27  2.9970000  0  4G18G14G16G19
   4677178.999           0.000    20134199.961           0.000  
  -1464074.002           0.000    23411580.078           0.000  
    760087.999           0.000    20790558.542           0.000  
 -18652452.001           0.000    22463943.321           0.000  
 98  9 28 11 27  3.9970000  0  4G18G14G16G19
   4673574.002           0.000    20133513.104           0.000  
  -1464911.003           0.000    23411420.956           0.000  
    757642.999           0.000    20790093.396           0.000  
 -18658846.003           0.000    22462726.396           0.000  
 98  9 28 11 27  4.9970000  0  4G18G14G16G19
   4669969.999           0.000    20132826.900           0.000  
  -1465747.000           0.000    23411261.847           0.000  
    755198.998           0.000    20789628.342           0.000  
 -18665239.999           0.000    22461509.549           0.000  
 98  9 28 11 27  5.9970000  0  4G18G14G16G19
   4666367.000           0.000    20132140.927           0.000  
  -1466583.002           0.000    23411102.753           0.000  
    752755.002           0.000    20789163.338           0.000  
 -18671634.000           0.000    22460292.732           0.000  
 98  9 28 11 27  6.9970000  0  4G18G14G16G19
   4662764.000           0.000    20131454.945           0.000  
  -1467418.001           0.000    23410943.772           0.000  
    750311.999           0.000    20788698.411           0.000  
 -18678026.998           0.000    22459075.989           0.000  
 98  9 28 11 27  7.9970000  0  4G18G14G16G19
   4659161.999           0.000    20130768.404           0.000  
  -1468253.000           0.000    23410784.898           0.000  
    747869.001           0.000    20788233.609           0.000  
 -18684420.000           0.000    22457859.344           0.000  
 98  9 28 11 27  8.9970000  0  4G18G14G16G19
   4655559.000           0.000    20130081.623           0.000  
  -1469087.999           0.000    23410626.047           0.000  
    745427.002           0.000    20787768.877           0.000  
 -18690812.000           0.000    22456642.896           0.000  
 98  9 28 11 27  9.9970000  0  4G18G14G16G19
   4651959.999           0.000    20129395.067           0.000  
  -1469921.999           0.000    23410467.355           0.000  
    742984.997           0.000    20787304.278           0.000  
 -18697203.000           0.000    22455426.522           0.000  
 98  9 28 11 27 10.9970000  0  4G18G14G16G19
   4648360.001           0.000    20128708.184           0.000  
  -1470755.001           0.000    23410308.765           0.000  
    740544.002           0.000    20786839.775           0.000  
 -18703594.001           0.000    22454210.340           0.000  
 98  9 28 11 27 11.9970000  0  4G18G14G16G19
   4644761.999           0.000    20128015.337           0.000  
  -1471589.002           0.000    23410150.150           0.000  
    738104.000           0.000    20786375.296           0.000  
 -18709983.998           0.000    22452994.170           0.000  
 98  9 28 11 27 12.9970000  0  4G18G14G16G19
   4641164.002           0.000    20127332.177           0.000  
  -1472421.998           0.000    23409991.609           0.000  
    735662.999           0.000    20785910.887           0.000  
 -18716374.000           0.000    22451778.029           0.000  
 98  9 28 11 27 13.9970000  0  4G18G14G16G19
