     2.10           OBSERVATION DATA    G (GPS)             RINEX VERSION / TYPE
teqc  2002Mar14                         20041211 00:34:54UTCPGM / RUN BY / DATE
GALB                                                        MARKER NAME
                                                            MARKER NUMBER
                    MSD                                     OBSERVER / AGENCY
80108               LEICA RS500         4.10                REC # / TYPE / VERS
2084                LEIAT303                                ANT # / TYPE
   475546.0224 -4925640.5090  4010733.3612                  APPROX POSITION XYZ
        0.0000        0.0000        0.0000                  ANTENNA: DELTA H/E/N
     1     1                                                WAVELENGTH FACT L1/2
     4    L1    C1    L2    P2                              # / TYPES OF OBSERV
    30.0000                                                 INTERVAL
    13                                                      LEAP SECONDS
Forced Modulo Decimation to 30 seconds                      COMMENT
  2004    12    10     0     0    0.0000000     GPS         TIME OF FIRST OBS
HP-UX 10.20|PA-RISC|cc A.10.32.03|=+|=|                     COMMENT
teqc  2002Mar14                         20041211 00:22:57UTCCOMMENT
     2              Observation Data                        COMMENT
CS 4.3              Leica Inc.          Thu 09 Dec 2004     COMMENT
BIT 2 OF LLI FLAGS DATA COLLECTED UNDER A/S CONDITION       COMMENT
SNR is mapped to RINEX snr flag value [2-9]                 COMMENT
L1&L2:  < 25dBHz -> 1; 25-27dBHz -> 2; 28-31dBHz -> 3       COMMENT
       32-35dBHz -> 4; 36-38dBHz -> 5; 39-41dBHz -> 6       COMMENT
       42-44dBHz -> 7; 45-48dBHz -> 8; 49-55dBHz -> 9       COMMENT
                                                            END OF HEADER
 04 12 10  0  0  0.0000000  0  9G 2G 4G 5G 7G10G13G17G24G30
 106748726.44149  20313602.993    83180818.79049  20313600.793
 111884755.69348  21290942.757    87182956.58749  21290942.564
 113521380.46448  21602393.662    88458211.98949  21602393.456
 121989495.22646  23213820.312    95056785.84147  23213821.328
 115020594.36548  21887685.028    89626451.04449  21887685.519
 125953127.92845  23968084.028    98145299.95047  23968083.304
 114738311.81748  21833964.526    89406513.12849  21833965.016
 108728182.94449  20690265.508    84723312.76649  20690266.011
 118447717.64247  22539846.134    92296926.37348  22539846.212
 04 12 10  0  0 30.0000000  0  9G 2G 4G 5G 7G10G13G17G24G30
 106734190.23549  20310836.839    83169491.88149  20310834.639
 111946103.77549  21302616.909    87230760.29549  21302616.695
 113526653.32148  21603397.054    88462320.70749  21603396.855
 122070639.55145  23229261.552    95120015.19447  23229262.544
 114924874.80848  21869470.154    89551864.43549  21869470.639
 125930435.18145  23963765.700    98127617.30646  23963765.022
 114689682.09148  21824710.585    89368619.85549  21824711.077
 108753110.46849  20695009.052    84742736.81249  20695009.562
 118394912.92746  22529797.695    92255779.88248  22529797.773
 04 12 10  0  1  0.0000000  0  9G 2G 4G 5G 7G10G13G17G24G30
 106720148.51549  20308164.771    83158550.29649  20308162.569
 112007783.11149  21314354.091    87278822.12849  21314353.847
 113532676.61548  21604543.254    88467014.17649  21604543.056
 122152182.14246  23244778.639    95183554.81547  23244779.683
 114829677.18248  21851354.613    89477684.51049  21851355.090
 125908427.42045  23959577.685    98110468.46946  23959577.040
 114641429.55648  21815528.421    89331020.49849  21815528.915
 108778439.14549  20699828.933    84762473.45449  20699829.428
 118342801.17247  22519881.140    92215173.32748  22519881.237
 04 12 10  0  1 30.0000000  0  9G 2G 4G 5G 7G10G13G17G24G30
 106706139.73549  20305498.983    83147634.36849  20305496.773
 112069330.77349  21326066.209    87326781.36049  21326065.951
 113538988.40348  21605744.354    88471932.44249  21605744.146
 122233661.00146  23260283.598    95247044.77147  23260284.678
 114734542.69648  21833251.092    89403553.78349  21833251.571
 125886644.80345  23955432.525    98093495.03847  23955431.939
 114593092.53748  21806330.186    89293355.30749  21806330.682
 108803706.70849  20704637.179    84782162.47149  20704637.680
 118290922.71247  22510008.974    92174748.59048  22510009.073
 04 12 10  0  2  0.0000000  0  9G 2G 4G 5G 7G10G13G17G24G30
 106692625.43149  20302927.296    83137103.74249  20302925.086
 112131208.07248  21337841.062    87374997.43349  21337840.801
 113546050.35448  21607088.204    88477435.25649  21607087.997
 122315537.46446  23275864.164    95310844.61547  23275865.221
 114639935.77248  21815247.963    89329834.14049  21815248.451
 125865551.24845  23951418.496    98077058.54846  23951417.935
 114545133.24148  21797203.818    89255984.45649  21797204.316
 108829374.25049  20709521.550    84802163.15549  20709522.051
 118239741.38647  22500269.468    92134867.06248  22500269.566
 04 12 10  0  2 30.0000000  0  9G 2G 4G 5G 7G10G13G17G24G30
 106679605.64249  20300449.713    83126958.45449  20300447.496
 112193413.95848  21349678.443    87423469.55949  21349678.174
 113553862.33348  21608574.780    88483522.50949  21608574.567
 122397811.00746  23291520.353    95374953.81248  23291521.464
 114545859.03648  21797345.720    89256527.64649  21797346.210
 125845148.52044  23947535.920    98061160.34946  23947535.417
 114497551.57148  21788149.309    89218907.85949  21788149.794
 108855441.11749  20714481.904    84822475.00249  20714482.411
 118189259.16247  22490662.996    92095530.28148  22490663.107
 04 12 10  0  3  0.0000000  0  9G 2G 4G 5G 7G10G13G17G24G30
 106666772.21549  20298007.581    83116958.39849  20298005.357
 112255639.07748  21361519.483    87471956.67249  21361519.207
 113562115.82848  21610145.380    88489953.79149  21610145.167
 122480173.05846  23307193.312    95439132.05447  23307194.408
 114452006.98548  21779486.257    89183396.20449  21779486.750
 125825129.94444  23943726.458    98045561.49746  23943726.003
 114450039.66948  21779108.083    89181885.62249  21779108.563
 108881598.17549  20719459.426    84842857.12749  20719459.935
 118139169.92147  22481131.336    92056499.70848  22481131.450
 04 12 10  0  3 30.0000000  0  9G 2G 4G 5G 7G10G13G17G24G30
 106654125.12149  20295600.913    83107103.52649  20295598.681
 112317883.12448  21373364.137    87520458.51549  21373363.868
 113570810.93348  21611800.004    88496729.18649  21611799.795
 122562623.44547  23322883.164    95503379.04548  23322884.286
 114358383.01548  21761670.178    89110442.50549  21761670.674
 125805497.64944  23939990.527    98030263.61246  23939990.118
 114402598.06148  21770080.221    89144918.16649  21770080.695
 108907844.76849  20724453.987    84863309.02649  20724454.482
 118089476.01247  22471674.864    92017777.21848  22471674.977
 04 12 10  0  4  0.0000000  0  9G 2G 4G 5G 7G10G13G17G24G30
 106641972.88649  20293288.413    83097634.26149  20293286.183
 112380453.44648  21385270.874    87569214.60849  21385270.619
 113580255.78948  21613597.312    88504088.80249  21613597.104
 122645470.13746  23338648.324    95567934.93247  23338649.447
 114265297.96948  21743956.653    89037908.74049  21743957.157
 125786561.87645  23936387.110    98015508.50246  23936386.732
 114355535.18748  21761124.424    89108245.83349  21761124.898
 108934488.52049  20729524.124    84884070.39649  20729524.605
 118040487.58347  22462352.664    91979604.43348  22462352.785
 04 12 10  0  4 30.0000000  0  9G 2G 4G 5G 7G10G13G17G24G30
 106630007.72649  20291011.519    83088310.75949  20291009.280
 112443041.94948  21397181.070    87617984.87049  21397180.838
 113590142.70548  21615478.729    88511792.89149  21615478.521
 122728405.18746  23354430.357    95632559.62147  23354431.494
 114172447.39248  21726287.734    88965557.68349  21726288.244
 125768017.31345  23932858.125    98001058.25346  23932857.772
 114308544.00748  21752182.282    89071629.34949  21752182.771
 108961221.41549  20734611.225    84904901.22949  20734611.692
 117991899.39347  22453106.633    91941743.52148  22453106.741
 04 12 10  0  5  0.0000000  0  9G 2G 4G 5G 7G10G13G17G24G30
 106618538.21749  20288828.944    83079373.48949  20288826.692
 112505956.27148  21409153.273    87667009.01349  21409153.042
 113600779.95148  21617502.924    88520081.65449  21617502.714
 122811736.63945  23370287.841    95697493.14847  23370289.032
 114080142.37348  21708722.649    88893631.72049  21708723.166
 125750174.07246  23929462.687    97987154.42846  23929462.324
 114261932.92948  21743312.483    89035309.04049  21743312.981
 108988351.47049  20739773.903    84926041.53549  20739774.363
 117944021.63747  22443995.781    91904436.19348  22443995.895
 04 12 10  0  5 30.0000000  0  9G 2G 4G 5G 7G10G13G17G24G30
 106607102.55249  20286652.803    83070462.59249  20286650.553
 112568733.89248  21421099.445    87715926.65349  21421099.214
 113611705.25748  21619581.952    88528594.87049  21619581.736
 122895002.23946  23386132.752    95762375.45147  23386133.922
 113987923.78648  21691174.006    88821773.11649  21691174.523
 125732571.97345  23926113.131    97973438.50546  23926112.763
 114215240.61348  21734427.207    88998925.45249  21734427.691
 109015416.22949  20744924.143    84947130.97049  20744924.603
 117896394.65747  22434932.657    91867324.28148  22434932.764
 04 12 10  0  6  0.0000000  0  9G 2G 4G 5G 7G10G13G17G24G30
 106596316.97649  20284600.365    83062058.26349  20284598.115
 112631990.10648  21433136.714    87765217.20049  21433136.476
 113623534.54148  21621832.990    88537812.48849  21621832.772
 122978817.91746  23402082.392    95827686.29647  23402083.605
 113896410.39048  21673759.556    88750464.01449  21673760.074
 125715828.93045  23922927.024    97960391.99546  23922926.641
 114169083.52748  21725643.776    88962958.92749  21725644.253
 109043030.95549  20750179.057    84968648.93749  20750179.510
 117849636.66547  22426034.894    91830889.48948  22426035.008
 04 12 10  0  6 30.0000000  0  9G 2G 4G 5G 7G10G13G17G24G30
 106585719.59349  20282583.750    83053800.56649  20282581.493
 112695262.42449  21445177.030    87814520.31949  21445176.786
 113635806.18148  21624168.212    88547374.79949  21624167.994
 123062721.25846  23418048.697    95893065.50547  23418049.913
 113805143.27548  21656391.989    88679346.80249  21656392.501
 125699484.74846  23919816.836    97947656.26246  23919816.430
 114122999.99448  21716874.359    88927049.69749  21716874.837
 109070733.21849  20755450.622    84990235.12349  20755451.070
 117803287.63547  22417214.961    91794773.38348  22417215.056
 04 12 10  0  7  0.0000000  0  9G 2G 4G 5G 7G10G13G17G24G30
 106575464.51249  20280632.273    83045809.59649  20280630.009
 112758704.21248  21457249.607    87863955.47449  21457249.364
 113648673.74348  21626616.827    88557401.46949  21626616.617
 123146865.89446  23434060.930    95958632.74147  23434062.117
 113714279.31148  21639101.116    88608543.75249  21639101.628
 125683695.50745  23916812.219    97935353.01246  23916811.759
 114077144.65448  21708148.361    88891318.29249  21708148.824
 109098676.57649  20760768.067    85012009.18049  20760768.502
 117757503.78247  22408502.584    91759097.66648  22408502.658
 04 12 10  0  7 30.0000000  0  9G 2G 4G 5G 7G10G13G17G24G30
 106565551.82949  20278745.946    83038085.43549  20278743.675
 112822314.78748  21469354.297    87913522.15449  21469354.061
 113662136.83848  21629178.763    88567892.19149  21629178.558
 123231251.75046  23450119.061    96024387.92447  23450120.273
 113623821.38048  21621887.509    88538057.09549  21621888.021
 125668463.05946  23913913.575    97923483.59846  23913913.066
 114031517.61748  21699465.800    88855764.79149  21699466.243
 109126860.65049  20766131.312    85033970.80849  20766131.740
 117712287.03547  22399898.117    91723863.83948  22399898.213
 04 12 10  0  8  0.0000000  0  9G 2G 4G 5G 7G10G13G17G24G30
 106555981.89149  20276924.847    83030628.34949  20276922.555
 112886093.87748  21481491.048    87963220.16049  21481490.799
 113676195.54948  21631854.047    88578847.03049  21631853.842
 123315878.64146  23466223.058    96090330.92147  23466224.265
 113533772.49848  21604751.740    88467889.17749  21604752.252
 125653789.52046  23911121.323    97912049.63346  23911120.790
 113986119.68948  21690826.856    88820389.79649  21690827.277
 109155284.91949  20771540.264    85056119.60049  20771540.702
 117667639.78247  22391402.015    91689073.78148  22391402.126
 04 12 10  0  8 30.0000000  0  9G 2G 4G 5G 7G10G13G17G24G30
 106546755.60249  20275169.137    83023439.03949  20275166.845
 112950041.64148  21493659.903    88013049.57949  21493659.659
 113690850.17048  21634642.729    88590266.21549  21634642.523
 123400746.79545  23482372.937    96156461.92647  23482374.154
 113444136.33248  21587694.509    88398042.85549  21587695.022
 125639677.12846  23908435.812    97901053.00146  23908435.216
 113940951.87748  21682231.683    88785194.12249  21682232.104
 109183949.86149  20776995.015    85078455.92849  20776995.453
 117623564.62747  22383014.774    91654729.51748  22383014.906
 04 12 10  0  9  0.0000000  0  9G 2G 4G 5G 7G10G13G17G24G30
 106537719.97249  20273449.702    83016398.30049  20273447.409
 113014004.53348  21505831.637    88062890.79449  21505831.378
 113705947.72748  21637515.692    88602030.54649  21637515.501
 123485703.26146  23498539.621    96222661.75147  23498540.828
 113354762.80148  21570687.268    88328401.18149  21570687.768
 125625974.73746  23905828.369    97890375.80547  23905827.721
 113895861.67648  21673651.280    88750058.93449  21673651.694
 109212701.86649  20782466.334    85100860.10149  20782466.774
 117579910.61047  22374707.661    91620713.43048  22374707.807
 04 12 10  0  9 30.0000000  0  9G 2G 4G 5G 7G10G13G17G24G30
 106529184.75149  20271825.497    83009747.49049  20271823.198
 113078291.36148  21518065.013    88112984.42749  21518064.755
 113721797.23248  21640531.753    88614380.80549  21640531.568
 123571057.15745  23514781.957    96289171.24346  23514783.178
 113265964.22148  21553789.431    88259207.51849  21553789.922
 125612993.97946  23903358.231    97880260.92046  23903357.540
 113851158.73648  21665144.587    88715225.48149  21665145.009
 109241849.91749  20788013.024    85123572.86949  20788013.471
 117536989.32347  22366540.024    91587268.26048  22366540.185
 04 12 10  0 10  0.0000000  0  9G 2G 4G 5G 7G10G13G17G24G30
 106520689.82549  20270208.949    83003128.08949  20270206.642
 113142441.42348  21530272.358    88162971.49849  21530272.093
 113737937.82348  21643603.211    88626957.87949  21643603.025
 123656347.68546  23531012.211    96355631.39647  23531013.388
 113177283.01248  21536913.916    88190105.33649  21536914.388
 125600275.62546  23900938.015    97870350.50647  23900937.308
 113806383.53048  21656624.131    88680335.73549  21656624.546
 109270933.29149  20793547.406    85146235.24149  20793547.854
 117494342.24047  22358424.524    91554036.80148  22358424.685
 04 12 10  0 10 30.0000000  0  9G 2G 4G 5G 7G10G13G17G24G30
 106512698.64849  20268688.272    82996901.20949  20268685.959
 113206917.58348  21542541.764    88213212.66049  21542541.513
 113754832.93848  21646818.239    88640122.90449  21646818.044
 123742038.13445  23547318.603    96422403.12747  23547319.788
 113089185.48448  21520149.484    88121457.94949  21520149.949
 125588285.23245  23898656.307    97861007.37846  23898655.574
 113761999.74248  21648178.165    88645750.97749  21648178.572
 109300415.28149  20799157.636    85169208.23049  20799158.077
 117452435.03147  22350449.865    91521381.82448  22350450.014
 04 12 10  0 11  0.0000000  0  9G 2G 4G 5G 7G10G13G17G24G30
 106505058.31749  20267234.354    82990947.71149  20267232.046
 113271566.39448  21554844.035    88263588.34549  21554843.800
 113772329.02148  21650147.650    88653756.19849  21650147.456
 123827974.99246  23563671.867    96489366.89247  23563673.039
 113001521.35048  21503467.530    88053148.26649  21503467.981
 125576871.71545  23896484.393    97852113.73646  23896483.656
 113717854.76348  21639777.631    88611352.32349  21639778.031
 109330142.33949  20804814.507    85192372.17449  20804814.941
 117411116.40647  22342587.175    91489185.52848  22342587.312
 04 12 10  0 11 30.0000000  0  9G 2G 4G 5G 7G10G13G17G24G30
 106497923.26149  20265876.586    82985387.93849  20265874.270
 113336541.40848  21567208.375    88314218.22349  21567208.141
 113790580.18948  21653620.744    88667977.87049  21653620.557
 123914312.29145  23580101.332    96556642.66147  23580102.499
 112914447.94648  21486897.983    87985298.89649  21486898.418
 125566190.61046  23894451.810    97843790.83546  23894451.043
 113674103.29148  21631451.991    88577260.28149  21631452.391
 109360268.13449  20810547.249    85215846.82849  20810547.676
 117370542.56847  22334866.242    91457569.55048  22334866.367
 04 12 10  0 12  0.0000000  0  9G 2G 4G 5G 7G10G13G17G24G30
 106490830.86349  20264526.942    82979861.39849  20264524.625
 113401379.37348  21579546.630    88364741.31949  21579546.382
 113809123.08348  21657149.345    88682426.87749  21657149.152
 124000586.83746  23596518.886    96623869.53147  23596520.079
 112827504.97648  21470353.244    87917551.18249  21470353.658
 125555780.79746  23892470.907    97835679.29546  23892470.129
 113630282.83448  21623113.217    88543114.49049  21623113.610
 109390329.58849  20816267.748    85239271.34449  20816268.167
 117330252.66247  22327199.340    91426174.81248  22327199.436
 04 12 10  0 12 30.0000000  0  9G 2G 4G 5G 7G10G13G17G24G30
 106483933.35249  20263214.383    82974486.71949  20263212.074
 113466231.97548  21591887.664    88415275.81749  21591887.407
 113828109.34348  21660762.316    88697221.36249  21660762.116
 124086950.30545  23612953.313    96691165.72447  23612954.512
 112740847.45648  21453862.836    87850025.88649  21453863.230
 125545796.07745  23890570.878    97827899.01346  23890570.075
 113586546.02548  21614790.355    88509033.88549  21614790.740
 109420477.96549  20822004.799    85262763.58949  20822005.198
 117290400.56547  22319615.738    91395121.24648  22319615.808
 04 12 10  0 13  0.0000000  0  9G 2G 4G 5G 7G10G13G17G24G30
 106477843.26649  20262055.472    82969741.20149  20262053.162
 113531711.04548  21604347.911    88466298.47849  21604347.647
 113848150.97048  21664576.123    88712838.19449  21664575.929
 124174014.86346  23629521.148    96759008.22947  23629522.360
 112655090.54348  21437543.791    87783202.38349  21437544.164
 125536850.34346  23888868.537    97820928.34746  23888867.683
 113543505.67048  21606600.042    88475495.95049  21606600.426
 109451325.78549  20827874.938    85286800.85749  20827875.337
 117251600.66647  22312232.368    91364887.56548  22312232.441
 04 12 10  0 13 30.0000000  0  9G 2G 4G 5G 7G10G13G17G24G30
 106471786.49949  20260902.902    82965021.65349  20260900.585
 113597042.12848  21616780.014    88517205.81149  21616779.737
 113868473.46948  21668443.372    88728673.90549  21668443.171
 124261006.19446  23646075.078    96826793.63847  23646076.303
 112569463.03948  21421249.383    87716479.69649  21421249.749
 125528171.18846  23887216.973    97814165.33247  23887216.108
 113500388.19748  21598395.042    88441897.94849  21598395.412
 109482098.49149  20833730.789    85310779.59849  20833731.175
 117213080.49747  22304902.224    91334871.86448  22304902.286
 04 12 10  0 14  0.0000000  0  9G 2G 4G 5G 7G10G13G17G24G30
 106465912.37549  20259785.081    82960444.42349  20259782.756
 113662373.84848  21629212.221    88568113.64649  21629211.958
 113889225.71048  21672392.398    88744844.47449  21672392.197
 124348072.92746  23662643.362    96894637.83047  23662644.608
 112484116.67448  21405008.468    87649976.08749  21405008.835
 125519909.61346  23885644.836    97807727.76147  23885643.972
 113457343.07748  21590203.804    88408356.32149  21590204.174
 109512944.50149  20839600.590    85334815.45849  20839600.962
 117174991.26747  22297654.090    91305191.94448  22297654.161
 04 12 10  0 14 30.0000000  0  9G 2G 4G 5G 7G10G13G17G24G30
 106460370.07049  20258730.410    82956125.74949  20258728.076
 113727854.70748  21641672.808    88619137.69849  21641672.538
 113910555.86748  21676451.398    88761465.37049  21676451.197
 124435363.60045  23679254.272    96962656.43846  23679255.600
 112399202.86648  21388849.872    87583809.53249  21388850.233
 125512215.51246  23884180.697    97801732.39947  23884179.813
 113414519.61648  21582054.759    88374987.41449  21582055.108
 109544012.57849  20845512.642    85359024.35949  20845513.000
 117137483.39747  22290516.556    91275965.06648  22290516.629
 04 12 10  0 15  0.0000000  0  9G 2G 4G 5G 7G10G13G17G24G30
 106455462.76749  20257796.575    82952301.88449  20257794.234
 113793787.03548  21654219.313    88670513.54449  21654219.021
 113932766.27948  21680677.911    88778772.17149  21680677.718
 124523180.82846  23695965.323    97031085.46647  23695966.576
 112315027.60048  21372831.804    87518218.46949  21372832.157
 125505393.98245  23882882.615    97796416.93347  23882881.722
 113372221.32548  21574005.638    88342027.73149  21574005.986
 109575605.26449  20851524.531    85383642.03749  20851524.896
 117100861.93147  22283547.717    91247428.87648  22283547.792
 04 12 10  0 15 30.0000000  0  9G 2G 4G 5G 7G10G13G17G24G30
 106450570.23149  20256865.551    82948489.51549  20256863.207
 113859550.21348  21666733.636    88721757.57549  21666733.337
 113955236.24248  21684953.809    88796281.21749  21684953.636
 124610903.87645  23712658.524    97099441.00646  23712659.788
 112230973.34348  21356836.775    87452721.68749  21356837.121
 125498825.72746  23881632.735    97791298.79046  23881631.873
 113329828.07748  21565938.453    88308994.05149  21565938.801
 109607101.71349  20857518.100    85408184.73049  20857518.465
 117064508.16747  22276629.838    91219101.26548  22276629.900
 04 12 10  0 16  0.0000000  0  9G 2G 4G 5G 7G10G13G17G24G30
 106446304.61749  20256053.825    82945165.66949  20256051.474
 113925755.93048  21679332.171    88773346.45149  21679331.852
 113978576.93748  21689395.407    88814468.75949  21689395.242
 124699144.20146  23729450.111    97168199.71047  23729451.320
 112147654.52448  21340981.689    87387797.98749  21340982.014
 125493124.18246  23880547.773    97786856.05246  23880546.895
 113287952.42748  21557969.764    88276363.68749  21557970.125
 109639113.59149  20863609.752    85433129.05749  20863610.124
 117029035.70647  22269879.641    91191460.40648  22269879.689
 04 12 10  0 16 30.0000000  0  9G 2G 4G 5G 7G10G13G17G24G30
 106442047.06149  20255243.639    82941848.09549  20255241.281
 113991784.63148  21691897.015    88824797.39149  21691896.682
 114002168.88348  21693884.811    88832852.08249  21693884.653
 124787282.82745  23746222.417    97236879.07247  23746223.667
 112064454.92148  21325149.290    87322967.17049  21325149.605
 125487672.19546  23879510.283    97782607.77547  23879509.408
 113245975.94148  21549981.874    88243654.76949  21549982.228
 109671021.77649  20869681.671    85457992.58049  20869682.050
 116993827.52147  22263179.758    91164025.44548  22263179.799
 04 12 10  0 17  0.0000000  0  9G 2G 4G 5G 7G10G13G17G24G30
 106438258.10049  20254522.612    82938895.66949  20254520.246
 114058096.28448  21704515.703    88876468.81549  21704515.348
 114026472.10648  21698509.561    88851789.65249  21698509.416
 124875779.56946  23763062.769    97305837.58547  23763064.009
 111981837.87448  21309427.764    87258590.27549  21309428.072
 125482931.39346  23878608.126    97778913.63646  23878607.299
 113204359.48348  21542062.508    88211226.38449  21542062.862
 109703286.35449  20875821.410    85483133.81549  20875821.789
 116959345.52447  22256618.028    91137156.38248  22256618.084
 04 12 10  0 17 30.0000000  0  9G 2G 4G 5G 7G10G13G17G24G30
 106434783.87949  20253861.484    82936188.49049  20253859.110
 114124536.19948  21717158.804    88928240.18049  21717158.429
 114051331.65948  21703240.188    88871160.71249  21703240.042
 124964479.76645  23779941.885    97374954.56947  23779943.129
 111899651.57648  21293788.202    87194549.03749  21293788.494
 125478748.87246  23877812.195    97775654.56446  23877811.355
 113162949.04348  21534182.357    88178958.51949  21534182.705
 109735752.32049  20881999.472    85508431.97549  20881999.858
 116925437.25247  22250165.475    91110734.37448  22250165.545
 04 12 10  0 18  0.0000000  0  9G 2G 4G 5G 7G10G13G17G24G30
 106431471.05949  20253231.069    82933607.08249  20253228.688
 114190950.91148  21729797.110    88979991.89449  21729796.741
 114076593.63148  21708047.394    88890845.34749  21708047.246
 125053229.86545  23796830.521    97444110.41947  23796831.839
 111817745.67849  21278202.010    87130726.29249  21278202.289
 125474973.10246  23877093.690    97772712.40046  23877092.871
 113121592.00848  21526312.357    88146732.28349  21526312.698
 109768266.40849  20888186.704    85533767.62349  20888187.098
 116891951.23847  22243793.298    91084641.37348  22243793.383
 04 12 10  0 18 30.0000000  0  9G 2G 4G 5G 7G10G13G17G24G30
 106428628.73049  20252690.192    82931392.27849  20252687.811
 114257649.24348  21742489.380    89031964.62049  21742489.012
 114102566.34648  21712989.843    88911083.81449  21712989.694
 125142338.50745  23813787.350    97513545.70047  23813788.689
 111736431.77148  21262728.459    87067364.84749  21262728.716
 125471914.26046  23876511.582    97770328.92946  23876510.758
 113080597.73948  21518511.389    88114788.71549  21518511.729
 109801137.25049  20894441.811    85559381.26849  20894442.204
 116859197.91647  22237560.536    91059119.32948  22237560.601
 04 12 10  0 19  0.0000000  0  9G 2G 4G 5G 7G10G13G17G24G30
 106426104.38649  20252209.813    82929425.26749  20252207.439
 114324477.72048  21755206.405    89084038.77049  21755206.044
 114129096.04848  21718038.277    88931756.30149  21718038.127
 125231652.50145  23830783.250    97583140.99247  23830784.562
 111655559.67648  21247338.999    87004347.65849  21247339.245
 125469420.73846  23876037.586
 113039813.89748  21510750.470    88083009.10949  21510750.810
 109834211.71549  20900735.666    85585153.57449  20900736.072
 116827026.31347  22231438.496    91034050.54148  22231438.547
 04 12 10  0 19 30.0000000  0  9G 2G 4G 5G 7G10G13G17G24G30
 106423744.66249  20251760.767    82927586.53449  20251758.386
 114391282.58548  21767918.942    89136094.50349  21767918.593
 114156028.73948  21723163.398    88952742.80249  21723163.252
 125321017.84045  23847788.973    97652776.24047  23847790.308
 111574978.62649  21232004.923    86941557.25049  21232005.163
 125467340.50446  23875641.963    97766770.92346  23875640.284
 112999087.61948  21503000.512    88051274.36349  21503000.846
 109867336.24549  20907039.049    85610964.90449  20907039.447
 116795284.32647  22225398.208    91009316.52948  22225398.256
 04 12 10  0 20  0.0000000  0  9G 2G 4G 5G 7G10G13G17G24G30
 106422011.89349  20251431.026    82926236.33449  20251428.646
 114458525.53748  21780714.850    89188491.61349  21780714.502
 114183825.69148  21728452.982    88974402.75649  21728452.842
 125410896.16546  23864892.286    97722811.23347  23864893.683
 111495153.34049  21216814.658    86879355.75249  21216814.899
 125466136.86946  23875412.484    97765833.08546  23875410.903
 112958881.03248  21495349.429    88019944.58249  21495349.763
 109900972.47649  20913439.811    85637174.95549  20913440.201
 116764435.79047  22219527.921    90985278.73548  22219527.958
 04 12 10  0 20 30.0000000  0  9G 2G 4G 5G 7G10G13G17G24G30
 106420289.93149  20251103.335    82924894.56449  20251100.942
 114525590.01348  21793476.802    89240749.63849  21793476.461
 114211870.05448  21733789.647    88996255.49149  21733789.533
 125500670.92646  23881975.855    97792765.61847  23881977.228
 111415470.08348  21201651.403    86817264.94249  21201651.643
 125465195.03246  23875233.288    97765099.17546  23875231.606
 112918578.78248  21487680.154    87988540.24249  21487680.494
 109934503.85449  20919820.608    85663303.31149  20919820.990
 116733865.86747  22213710.658    90961458.01748  22213710.703
 04 12 10  0 21  0.0000000  0  9G 2G 4G 5G 7G10G13G17G24G30
 106419040.71849  20250865.618    82923921.15349  20250863.225
 114592937.45048  21806292.593    89293228.15849  21806292.274
 114240622.64348  21739261.082    89018660.09249  21739260.989
 125590803.34545  23899127.514    97862998.59647  23899128.938
 111336393.10248  21186603.530    86755646.53949  21186603.777
 125464977.72446  23875191.924    97764929.89947  23875190.031
 112878642.86748  21480080.590    87957421.36649  21480080.924
 109968391.52249  20926269.211    85689709.29149  20926269.592
 116704037.92547  22208034.578    90938215.47148  22208034.621
 04 12 10  0 21 30.0000000  0  9G 2G 4G 5G 7G10G13G17G24G30
 106418109.85149  20250688.468    82923195.81249  20250686.081
 114660412.95648  21819132.749    89345806.46949  21819132.450
 114269928.20248  21744837.733    89041495.58949  21744837.666
 125681138.30245  23916317.696    97933389.50447  23916319.048
 111257770.57748  21171642.131    86694382.25949  21171642.383
 125465331.78746  23875259.348    97765205.72047  23875257.473
 112838918.98648  21472521.369    87926467.71549  21472521.704
 110002481.02449  20932756.216    85716272.54249  20932756.594
 116674798.88247  22202470.567    90915431.80948  22202470.603
 04 12 10  0 22  0.0000000  0  9G 2G 4G 5G 7G10G13G17G24G30
 106417343.07849  20250542.550    82922598.33349  20250540.163
 114727861.89348  21831967.854    89398364.09049  21831967.551
 114299631.68848  21750490.131    89064641.13449  21750490.090
 125771521.30945  23933517.064    98003817.75947  23933518.446
 111179450.61148  21156738.331    86633353.72549  21156738.577
 125466104.08346  23875406.293    97765807.55547  23875404.447
 112799253.53048  21464973.277    87895559.57049  21464973.619
 110036617.76649  20939252.222    85742872.59749  20939252.607
 116645995.85947  22196989.528    90892987.90648  22196989.565
 04 12 10  0 22 30.0000000  0  9G 2G 4G 5G 7G10G13G17G24G30
 106416894.82349  20250457.250    82922249.04149  20250454.862
 114795437.86448  21844827.134    89451020.69149  21844826.830
 114329886.19948  21756247.367    89088216.07049  21756247.345
 125862105.86945  23950754.798    98074403.04147  23950756.230
 111101590.04649  21141921.923    86572683.20249  21141922.154
 125467449.79946  23875662.326    97766856.20646  23875660.462
 112759801.15748  21457465.717    87864817.49749  21457466.045
 110070955.38349  20945786.441    85769629.19149  20945786.825
 116617784.40447  22191621.043    90871004.97348  22191621.100
 04 12 10  0 23  0.0000000  0  9G 2G 4G 5G 7G10G13G17G24G30
 106416919.36449  20250461.920    82922268.16149  20250459.540
 114863295.23048  21857739.962    89503896.56049  21857739.657
 114360844.99647  21762138.630    89112339.80349  21762138.615
 125953045.82745  23968060.091    98145265.32646  23968061.509
 111024345.64249  21127222.795    86512492.77749  21127223.007
 125469524.54546  23876057.161    97768472.89147  23876055.327
 112720716.31348  21450028.112    87834361.77749  21450028.447
 110105647.81649  20952388.191    85796662.26149  20952388.569
 116590320.18347  22186394.781    90849604.26448  22186394.844
 04 12 10  0 23 30.0000000  0  9G 2G 4G 5G 7G10G13G17G24G30
 106417109.25549  20250498.043    82922416.13649  20250495.677
 114931126.02948  21870647.734    89556751.72349  21870647.428
 114392199.93748  21768105.271    89136772.20849  21768105.281
 126044033.03246  23985374.422    98216164.43147  23985375.825
 110947412.17349  21112582.807    86452544.67749  21112582.993
 125472021.83645  23876532.344    97770418.87546  23876530.525
 112681692.06348  21442602.033    87803953.28549  21442602.367
 110140387.26849  20958998.889    85823731.96349  20958999.267
 116563297.13447  22181252.454    90828547.34948  22181252.507
 04 12 10  0 24  0.0000000  0  9G 2G 4G 5G 7G10G13G17G24G30
 106417773.43949  20250624.422    82922933.69449  20250622.054
 114999238.42048  21883609.079    89609826.32449  21883608.773
 114424258.87548  21774205.884    89161753.19249  21774205.892
 126135375.80944  24002756.422    98287340.55046  24002757.882
 110871100.72849  21098061.228    86393081.21549  21098061.393
 125475251.11446  23877146.826    97772935.19847  23877145.029
 112643037.48748  21435246.287    87773832.86049  21435246.621
 110175482.10949  20965677.222    85851078.59449  20965677.594
 116537025.29147  22176253.077    90808075.78748  22176253.128
 04 12 10  0 24 30.0000000  0  9G 2G 4G 5G 7G10G13G17G24G30
 106418758.76049  20250811.928    82923701.47249  20250809.561
 115067478.74548  21896594.793    89663000.59449  21896594.488
 114456867.03848  21780411.023    89187162.12749  21780411.037
 126226920.12246  24020176.785    98358673.70347  24020178.296
 110795260.29648  21083629.268    86333984.78549  21083629.426
 125479060.11146  23877871.606    97775903.26247  23877869.861
 112604599.53248  21427931.782    87743881.21749  21427932.109
 110210778.78549  20972393.944    85878582.51149  20972394.308
 116511352.45147  22171367.698    90788070.98548  22171367.743
 04 12 10  0 25  0.0000000  0  9G 2G 4G 5G 7G10G13G17G24G30
 106419911.33549  20251031.250    82924599.58949  20251028.883
 115135693.00048  21909575.540    89716154.55549  21909575.251
 114489869.83848  21786691.241    89212878.59349  21786691.260
 126318511.81345  24037606.128    98430043.83546  24037607.650
 110719739.87748  21069258.186    86275137.73549  21069258.337
 125483296.63746  23878677.755    97779204.48646  23878676.038
 112566224.94248  21420629.322    87713978.96249  21420629.642
 110246122.92549  20979119.710    85906123.40249  20979120.060
 116486126.28347  22166567.329    90768414.22548  22166567.369
 04 12 10  0 25 30.0000000  0  9G 2G 4G 5G 7G10G13G17G24G30
 106421385.60849  20251311.794    82925748.37349  20251309.428
 115204034.93148  21922580.571    89769408.01049  21922580.288
 114523420.25448  21793075.685    89239021.75749  21793075.703
 126410304.34345  24055073.671    98501570.47847  24055075.171
 110644695.91648  21054977.759    86216661.95949  21054977.917
 125488115.10845  23879594.697    97782959.13346  23879592.977
 112528068.02548  21413368.297    87684246.31049  21413368.610
 110281668.77849  20985883.849    85933821.48249  20985884.206
 116461502.10647  22161881.493    90749226.57048  22161881.540
 04 12 10  0 26  0.0000000  0  9G 2G 4G 5G 7G10G13G17G24G30
 106423181.78749  20251653.596    82927147.99549  20251651.230
 115272504.57348  21935609.911    89822760.97449  21935609.635
 114557517.93948  21799564.264    89265591.37349  21799564.290
 126502297.63045  24072579.442    98573253.48647  24072580.993
 110570131.14149  21040788.531    86158559.55449  21040788.709
 125493516.80746  23880622.564    97787168.26546  23880620.920
 112490129.87248  21406148.888    87654684.12349  21406149.199
 110317416.31149  20992686.390    85961676.68949  20992686.755
 116437481.56547  22157310.547    90730509.25648  22157310.581
 04 12 10  0 26 30.0000000  0  9G 2G 4G 5G 7G10G13G17G24G30
 106425300.19349  20252056.709    82928798.70749  20252054.350
 115341101.78148  21948663.519    89876213.34649  21948663.250
 114592161.53048  21806156.732    89292586.36149  21806156.765
 126594490.99746  24090123.274    98645092.44247  24090124.846
 110496048.13449  21026690.974    86100832.56949  21026691.159
 125499503.17046  23881761.702    97791832.96647  23881760.126
 112452410.85848  21398971.175    87625292.71249  21398971.470
 110353365.07949  20999527.207    85989688.72249  20999527.580
 116414065.90247  22152854.671    90712263.30548  22152854.688
 04 12 10  0 27  0.0000000  0  9G 2G 4G 5G 7G10G13G17G24G30
 106427740.97749  20252521.163    82930700.64149  20252518.784
 115409826.35448  21961741.359    89929764.96449  21961741.102
 114627350.23248  21812852.931    89320006.11749  21812852.972
 126686884.38444  24107705.187    98717087.25046  24107706.759
 110422449.25349  21012685.554    86043482.80949  21012685.746
 125506075.17945  23883012.284    97796954.03647  23883010.782
 112414911.43748  21391835.260    87596072.38949  21391835.554
 110389515.17749  21006406.354    86017857.62449  21006406.721
 116391256.40847  22148514.151    90694489.68248  22148514.180
 04 12 10  0 27 30.0000000  0  9G 2G 4G 5G 7G10G13G17G24G30
 106430504.63549  20253047.064    82932854.14349  20253044.691
 115478678.17347  21974843.430    89983415.70949  21974843.208
 114663083.22248  21819652.699    89347850.00349  21819652.726
 126779477.16345  24125325.007    98789237.46446  24125326.540
 110349337.13549  20998772.757    85986512.36649  20998772.944
 125513233.49245  23884374.424    97802531.96447  23884372.992
 112377632.38048  21384741.280    87567023.79049  21384741.574
 110425866.51649  21013323.772    86046183.35449  21013324.131
 116369054.58047  22144289.283    90677189.56448  22144289.307
 04 12 10  0 28  0.0000000  0  9G 2G 4G 5G 7G10G13G17G24G30
 106433745.41549  20253663.764    82935379.42849  20253661.399
 115547811.11948  21987998.981    90037285.54449  21987998.764
 114699513.33648  21826585.137    89376237.08249  21826585.171
 126872422.83345  24143012.039    98861662.58547  24143013.654
 110276868.24949  20984982.363    85930043.13749  20984982.543
 125521133.37245  23885877.679    97808687.75246  23885876.275
 112340728.17748  21377718.631    87538267.28849  21377718.927
 110462572.79149  21020308.744    86074785.65349  21020309.089
 116347615.59547  22140209.586    90660483.86348  22140209.596
 04 12 10  0 28 30.0000000  0  9G 2G 4G 5G 7G10G13G17G24G30
 106437001.78849  20254283.443    82937916.85349  20254281.079
 115616763.34548  22001120.165    90091014.53349  22001119.962
 114736177.87348  21833562.179    89404806.84049  21833562.205
 126965259.34045  24160678.310    98934002.62546  24160679.999
 110204583.27749  20971226.978    85873717.20849  20971227.146
 125529313.90745  23887434.395    97815062.16946  23887433.042
 112303737.42848  21370679.508    87509443.34149  21370679.810
 110499172.07549  21027273.362    86103304.57849  21027273.694
 116326478.98247  22136187.417    90644013.77948  22136187.433
 04 12 10  0 29  0.0000000  0  9G 2G 4G 5G 7G10G13G17G24G30
 106440582.08249  20254964.750    82940706.69549  20254962.387
 115685842.92448  22014265.572    90144842.77949  22014265.370
 114773383.97948  21840642.289    89433798.59449  21840642.310
 127058294.47545  24178382.189    99006497.63845  24178383.854
 110132792.72049  20957565.666    85817776.54249  20957565.826
 125538084.33346  23889103.370    97821896.24346  23889102.038
 112266969.07848  21363682.706    87480792.70349  21363683.001
 110535972.70649  21034276.295    86131980.39649  21034276.614
 116305954.06347  22132281.648    90628020.34348  22132281.673
 04 12 10  0 29 30.0000000  0  9G 2G 4G 5G 7G10G13G17G24G30
 106444641.39749  20255737.212    82943869.80549  20255734.836
 115755204.32748  22027464.608    90198890.62049  22027464.420
 114811285.37348  21847854.702    89463332.13149  21847854.717
 127151682.26646  24196153.354    99079267.31347  24196154.967
 110061653.74949  20944028.352    85762343.60149  20944028.505
 125547600.21145  23890914.128    97829311.26646  23890912.817
 112230578.32448  21356757.764    87452436.28449  21356758.058
 110573129.23349  21041346.953    86160933.53849  21041347.259
 116286196.91747  22128521.977    90612625.17748  22128522.008
 04 12 10  0 30  0.0000000  0  9G 2G 4G 5G 7G10G13G17G24G30
 106448872.85949  20256542.432    82947167.05049  20256540.049
 115824540.54448  22040658.863    90252918.83748  22040658.670
 114849573.87648  21855140.774    89493167.31149  21855140.796
 127245115.36844  24213933.124    99152072.28846  24213934.762
 109990861.95749  20930557.092    85707181.19849  20930557.237
 125557555.71345  23892808.603    97837068.77746  23892807.318
 112194258.72748  21349846.374    87424135.30749  21349846.663
 110610334.51149  21048426.876    86189924.67749  21048427.176
 116266901.57447  22124850.183    90597589.85348  22124850.221
 04 12 10  0 30 30.0000000  0  9G 2G 4G 5G 7G10G13G17G24G30
 106453432.08049  20257410.029    82950719.68549  20257407.639
 115894006.71448  22053877.836    90307048.32349  22053877.628
 114888403.69648  21862529.873    89523424.28049  21862529.895
 127338748.63145  24231750.935    99225033.25746  24231752.598
 109920574.99549  20917181.892    85652412.17249  20917182.036
 125568106.45746  23894816.336    97845290.16046  23894815.049
 112158166.32248  21342978.206    87396011.37049  21342978.488
 110647743.71949  21055545.618    86219074.70949  21055545.912
 116248224.50548  22121296.067    90583036.28648  22121296.092
 04 12 10  0 31  0.0000000  0  9G 2G 4G 5G 7G10G13G17G24G30
 106458320.40049  20258340.234    82954528.76949  20258337.856
 115963603.85848  22067121.738    90361279.85448  22067121.522
 114927775.06148  21870022.006    89554103.26449  21870022.016
 127432582.70945  24249607.056    99298150.62146  24249608.766
 109850796.41749  20903903.435    85598039.28849  20903903.576
 125579254.63346  23896937.764    97853977.04847  23896936.506
 112122302.46748  21336153.529    87368065.53549  21336153.791
 110685357.85949  21062703.345    86248384.43549  21062703.638
 116230167.92747  22117860.003    90568966.24648  22117860.006
 04 12 10  0 31 30.0000000  0  9G 2G 4G 5G 7G10G13G17G24G30
 106463539.17149  20259333.321    82958595.35549  20259330.943
 116033332.83548  22080390.733    90415614.11848  22080390.496
 114967687.69748  21877617.158    89585203.99049  21877617.154
 127526617.85245  24267501.289    99371424.82146  24267502.974
 109781529.22249  20890722.290    85544064.88849  20890722.423
 125591002.06646  23899173.214    97863130.90647  23899171.979
 112086668.71148  21329372.651    87340298.97849  21329372.907
 110723177.62249  21069900.206    86277854.38849  21069900.502
 116212733.92947  22114542.435    90555381.30448  22114542.401
 04 12 10  0 32  0.0000000  0  9G 2G 4G 5G 7G10G13G17G24G30
 106468935.19249  20260360.155    82962800.04349  20260357.770
 116103040.18448  22093655.618    90469931.52648  22093655.362
 115007987.16548  21885285.916    89616606.15749  21885285.891
 127620700.47544  24285404.581    99444735.97446  24285406.284
 109712622.28549  20877609.706    85490371.20549  20877609.839
 125603196.01946  23901493.640    97872632.69447  23901492.436
 112051112.47649  21322606.513    87312592.83749  21322606.769
 110761049.77549  21077107.043    86307365.15149  21077107.347
 116195770.15448  22111314.348    90542162.77148  22111314.300
 04 12 10  0 32 30.0000000  0  9G 2G 4G 5G 7G10G13G17G24G30
 106474817.52249  20261479.514    82967383.69849  20261477.115
 116173034.81448  22106975.153    90524472.79848  22106974.890
 115048981.08548  21893086.817    89648549.45649  21893086.779
 127715138.97046  24303375.731    99518324.27347  24303377.512
 109644387.30449  20864624.985    85437201.12949  20864625.110
 125616146.31045  23903957.975    97882723.84647  23903956.806
 112015943.11048  21315913.999    87285188.14349  21315914.255
 110799282.95549  21084382.575    86337157.24049  21084382.872
 116179586.64447  22108234.728    90529552.24048  22108234.672
 04 12 10  0 33  0.0000000  0  9G 2G 4G 5G 7G10G13G17G24G30
 106481032.96849  20262662.274    82972226.90149  20262659.875
 116243163.27748  22120320.162    90579118.33948  22120319.905
 115090514.76448  21900990.449    89680913.32449  21900990.404
 127809779.22244  24321385.089    99592070.03945  24321386.851
 109576672.68549  20851739.292    85384436.53449  20851739.404
 125629700.23546  23906537.171    97893285.38446  23906536.049
 111981007.85048  21309266.034    87257965.88249  21309266.278
 110837723.86949  21091697.644    86367111.19749  21091697.942
 116164030.96047  22105274.574    90517430.94448  22105274.498
 04 12 10  0 33 30.0000000  0  9G 2G 4G 5G 7G10G13G17G24G30
 106487427.56649  20263879.131    82977209.69349  20263876.739
 116313270.98848  22133661.233    90633747.71948  22133660.965
 115132432.90248  21908967.212    89713576.79749  21908967.165
 127904466.68545  24339403.567    99665852.38847  24339405.323
 109509326.51049  20838923.711    85331959.02949  20838923.815
 125643704.28946  23909202.036    97904197.63246  23909200.962
 111946152.80148  21302633.333    87230806.11249  21302633.569
 110876218.22349  21099022.882    86397106.79749  21099023.181
 116148949.91447  22102404.752    90505679.46748  22102404.682
 04 12 10  0 34  0.0000000  0  9G 2G 4G 5G 7G10G13G17G24G30
 106494154.61949  20265159.241    82982451.56349  20265156.842
 116383511.29548  22147027.531    90688480.42649  22147027.251
 115174887.22448  21917046.030    89746658.05649  21917045.985
 127999353.67445  24357460.020    99739790.24747  24357461.787
 109442504.37549  20826207.852    85279889.87349  20826207.942
 125658311.89645  23911981.748    97915580.19746  23911980.685
 111911531.69249  21296045.143    87203828.63949  21296045.380
 110914919.14249  21106387.416    86427263.36249  21106387.722
 116134497.56548  22099654.562    90494417.90348  22099654.493
 04 12 10  0 34 30.0000000  0  9G 2G 4G 5G 7G10G13G17G24G30
 106500904.62149  20266443.730    82987711.30049  20266441.331
 116453573.97648  22160360.028    90743074.71048  22160359.763
 115217566.59448  21925167.662    89779914.70049  21925167.605
 128094130.06344  24375495.367    99813641.93245  24375497.192
 109375898.55349  20813533.156    85227989.27249  20813533.232
 125673214.12845  23914817.554    97927192.30146  23914816.525
 111876835.24049  21289442.616    87176792.45549  21289442.867
 110953516.48749  21113732.253    86457339.21549  21113732.553
 116120364.81647  22096965.189    90483405.36548  22096965.127
 04 12 10  0 35  0.0000000  0  9G 2G 4G 5G 7G10G13G17G24G30
 106508445.39349  20267878.679    82993587.23949  20267876.272
 116524226.54948  22173804.772    90798128.66349  22173804.493
 115261237.38648  21933477.973    89813943.86549  21933477.905
 128189562.48045  24393655.517    99888004.91346  24393657.284
 109310278.64049  20801046.083    85176856.88949  20801046.159
 125689178.87946  23917855.480    97939632.42047  23917854.468
 111842831.28248  21282971.872    87150295.86949  21282972.138
 110992777.56649  21121203.382    86487932.27149  21121203.690
 116107320.03047  22094482.855    90473240.59248  22094482.801
 04 12 10  0 35 30.0000000  0  9G 2G 4G 5G 7G10G13G17G24G30
 106515849.48949  20269287.626    82999356.66449  20269285.232
 116594541.43348  22187185.273    90852919.48348  22187184.971
 115304970.62648  21941800.156    89848021.69549  21941800.097
 128284722.90144  24411764.026    99962155.78546  24411765.837
 109244719.43249  20788570.569    85125771.81049  20788570.630
 125705279.20345  23920919.228    97952178.14846  23920918.233
 111808592.94849  21276456.522    87123616.65849  21276456.787
 111031774.95549  21128624.332    86518319.85249  21128624.640
 116094436.70948  22092031.258    90463201.62848  22092031.183
 04 12 10  0 36  0.0000000  0  9G 2G 4G 5G 7G10G13G17G24G30
 106523882.67249  20270816.278    83005616.29649  20270813.891
 116665284.23147  22200647.180    90908043.74348  22200646.855
 115349530.58848  21950279.653    89882743.72549  21950279.602
 128380376.35345  24429966.243   100036690.98346  24429968.063
 109179988.70648  20776252.692    85075332.31749  20776252.737
 125722281.27645  23924154.651    97965426.49346  23924153.667
 111774886.57148  21270042.393    87097351.97149  21270042.652
 111071274.06949  21136140.752    86549098.39649  21136141.067
 116082481.24048  22089756.220    90453885.68148  22089756.118
 04 12 10  0 36 30.0000000  0  9G 2G 4G 5G 7G10G13G17G24G30
 106532078.33649  20272375.855    83012002.53649  20272373.461
 116735988.09347  22214101.695    90963137.63148  22214101.391
 115394449.12848  21958827.390    89917745.16449  21958827.349
 128476055.67044  24448173.406   100111246.31846  24448175.207
 109115621.64449  20764004.035    85025176.18049  20764004.074
 125739718.98145  23927472.888    97979014.36246  23927471.910
 111741245.87649  21263640.794    87071138.42749  21263641.059
 111110808.21849  21143663.862    86579904.21049  21143664.184
 116070987.54147  22087569.053    90444929.54648  22087568.931
 04 12 10  0 37  0.0000000  0  9G 2G 4G 5G 7G10G13G17G24G30
 106540585.32849  20273994.670    83018631.37249  20273992.275
 116806801.10748  22227576.964    91018316.60748  22227576.661
 115439873.21448  21967471.330    89953140.53049  21967471.305
 128571908.56545  24466413.611   100185936.85746  24466415.422
 109051768.81249  20751853.216    84975420.76049  20751853.254
 125757741.17945  23930902.380    97993057.64447  23930901.439
 111707819.57349  21257279.950    87045091.99049  21257280.208
 111150525.65749  21151221.833    86610852.87049  21151222.155
 116060104.93148  22085498.174    90436449.59348  22085498.025
 04 12 10  0 37 30.0000000  0 10G 2G 4G 5G 6G 7G10G13G17G24G30
 106549397.35649  20275671.537    83025497.88549  20275669.140
 116877717.26848  22241071.861    91073575.94848  22241071.587
 115485794.99848  21976209.973    89988923.71949  21976209.963
 129705386.29545  24682113.781
 128667927.90145  24484685.501   100260757.09946  24484687.336
 108988425.96349  20739799.448    84926062.72649  20739799.487
 125776341.72945  23934441.935    98007551.56546  23934441.025
 111674601.86449  21250958.830    87019208.06349  21250959.088
 111190419.89849  21158813.437    86641939.30149  21158813.756
 116049827.77047  22083542.513    90428441.41148  22083542.360
 04 12 10  0 38  0.0000000  0  9G 2G 4G 5G 6G10G13G17G24G30
 106558661.66149  20277434.475    83032716.82449  20277432.071
 116948883.32148  22254614.310    91129030.00448  22254614.034
 115532360.32148  21985071.095    90025208.34949  21985071.094
 129607168.41445  24663422.933   100992587.60445  24663422.396
 108925742.42449  20727871.156    84877218.43049  20727871.188
 125795668.07345  23938119.557    98022611.11046  23938118.658
 111641740.49049  21244705.501    86993601.82249  21244705.752
 111230637.80749  21166466.657    86673277.92049  21166466.982
 116040303.61847  22081730.127    90421019.98748  22081729.988
 04 12 10  0 38 30.0000000  0  9G 2G 4G 5G 6G10G13G17G24G30
 106568063.60849  20279223.601    83040043.02249  20279221.188
 117019984.16347  22268144.339    91184433.27648  22268144.056
 115579252.93248  21993994.486    90061748.02049  21993994.477
 129508795.20544  24644702.926   100915933.16345  24644701.873
 108863405.07948  20716008.742    84828643.90649  20716008.763
 125815405.92345  23941875.527    98037991.24946  23941874.661
 111608920.76748  21238460.127    86968027.99349  21238460.385
 111270864.58749  21174121.541    86704623.49049  21174121.860
 116031218.32847  22080001.266    90413940.53448  22080001.128
 04 12 10  0 39  0.0000000  0  9G 2G 4G 5G 6G10G13G17G24G30
 106577751.10749  20281067.070    83047591.72049  20281064.657
 117091168.03447  22281690.185    91239901.21548  22281689.893
 115626619.03148  22003007.991    90098656.64349  22003007.956
 129410416.84745  24625981.885   100839274.79146  24625981.436
 108801563.84049  20704240.739    84780455.94949  20704240.741
 125835703.44645  23945738.035    98053807.45947  23945737.187
 111576291.32449  21232250.945    86942602.46549  21232251.196
 111311248.02249  21181806.259    86736091.09649  21181806.586
 116022720.54947  22078384.192    90407318.89148  22078384.055
 04 12 10  0 39 30.0000000  0  9G 2G 4G 5G 6G10G13G17G24G30
 106587720.94049  20282964.260    83055360.42549  20282961.847
 117162431.09547  22295251.083    91295430.87748  22295250.788
 115674453.64448  22012110.645    90135930.34249  22012110.589
 129312031.96445  24607260.048   100762611.29147  24607259.694
 108740217.05249  20692566.810    84732653.28849  20692566.805
 125856557.30945  23949706.304    98070057.28646  23949705.484
 111543849.14749  21226077.398    86917322.85549  21226077.642
 111351784.19048  21189520.041    86767677.71349  21189520.376
 116014807.35047  22076878.378    90401152.74148  22076878.242
 04 12 10  0 40  0.0000000  0  9G 2G 4G 5G 6G10G13G17G24G30
 106597817.49749  20284885.565    83063227.87949  20284883.152
 117233617.49348  22308797.404    91350900.79148  22308797.108
 115722599.32548  22021272.493    90173446.42749  22021272.423
 129213486.71345  24588507.576   100685822.85447  24588507.425
 108679210.96049  20680957.719    84685116.09749  20680957.707
 125877812.17445  23953750.982    98086619.48146  23953750.195
 111511438.81048  21219909.910    86892068.05049  21219910.145
 111392317.47948  21197233.270    86799262.09949  21197233.598
 116007323.45147  22075454.257    90395321.11748  22075454.130
 04 12 10  0 40 30.0000000  0  9G 2G 4G 5G 6G10G13G17G24G30
 106608656.51249  20286948.150    83071673.87249  20286945.734
 117305342.74548  22322446.248    91406790.62248  22322445.922
 115771670.41848  22030610.429    90211683.62249  22030610.367
 129115399.28844  24569842.225   100609391.12546  24569842.146
 108619163.30149  20669531.005    84638325.73949  20669530.993
 125900084.05245  23957989.156    98103974.19746  23957988.355
 111479676.56349  21213865.755    86867318.24649  21213865.990
 111433463.62149  21205063.114    86831324.03749  21205063.436
 116000885.00147  22074229.061    90390304.14448  22074228.949
 04 12 10  0 41  0.0000000  0  9G 2G 4G 5G 6G10G13G17G24G30
 106619314.93249  20288976.367    83079979.14549  20288973.944
 117376683.61347  22336021.969    91462380.89548  22336021.672
 115820741.97448  22039948.460    90249921.17749  22039948.414
 129016848.38544  24551088.564   100532598.23145  24551088.468
 108559152.58149  20658111.321    84591564.15549  20658111.314
 125922449.26245  23962245.037    98121401.70146  23962244.215
 111447639.55249  21207769.303    86842354.36349  21207769.525
 111474299.08249  21212833.850    86863143.86149  21212834.184
 115994569.17548  22073027.205    90385382.71248  22073027.108
 04 12 10  0 41 30.0000000  0  9G 2G 4G 5G 6G10G13G17G24G30
 106630718.32349  20291146.361    83088864.91049  20291143.930
 117448565.36947  22349700.613    91518392.65448  22349700.308
 115870737.52348  22049462.326    90288878.71549  22049462.296
 128918761.42845  24532423.112   100456166.86046  24532423.032
 108500106.10349  20646875.138    84545553.92849  20646875.123
 125945833.77845  23966694.950    98139623.40246  23966694.133
 111416253.58549  21201796.728    86817897.79249  21201796.942
 111515749.02949  21220721.506    86895442.53049  21220721.842
 115989301.91047  22072024.878    90381278.35548  22072024.774
 04 12 10  0 42  0.0000000  0  9G 2G 4G 5G 6G10G13G17G24G30
 106642098.06249  20293311.847    83097732.24649  20293309.417
 117520219.03947  22363335.865    91574226.67848  22363335.578
 115920886.83548  22059005.452    90327956.07749  22059005.417
 128820371.87945  24513700.174   100379499.69946  24513700.098
 108441256.71349  20635676.454    84499697.28649  20635676.425
 125969468.98145  23971192.627    98158040.40246  23971191.783
 111384750.28449  21195801.861    86793349.76049  21195802.062
 111557044.84649  21228579.845    86927621.07949  21228580.187
 115984314.79947  22071075.868    90377392.29048  22071075.750
 04 12 10  0 42 30.0000000  0  9G 2G 4G 5G 6G10G13G17G24G30
 106653917.63249  20295561.031    83106942.30949  20295558.593
 117592108.22147  22377015.927    91630244.22048  22377015.634
 115971651.76348  22068665.721    90367513.12649  22068665.699
 128722145.41945  24495008.342   100302959.62646  24495008.269
 108383069.85249  20624603.844    84454356.90349  20624603.802
 125993818.46445  23975826.138    98177014.07746  23975825.257
 111353593.84949  21189872.983    86769072.01949  21189873.190
 111598649.82649  21236497.004    86960040.55449  21236497.347
 115980071.70147  22070268.446    90374085.96448  22070268.327
 04 12 10  0 43  0.0000000  0  9G 2G 4G 5G 6G10G13G17G24G30
 106666024.75249  20297864.933    83116376.43449  20297862.495
 117664080.34547  22390711.773    91686326.38348  22390711.501
 116022878.09148  22078413.791    90407429.72349  22078413.762
 128623931.61444  24476318.834   100226429.45246  24476318.803
 108325394.98549  20613628.664    84409415.47949  20613628.609
 126018730.21945  23980566.688    98196425.84947  23980565.802
 111322632.09049  21183981.156    86744945.97549  21183981.363
 111640411.43149  21244443.979    86992582.05949  21244444.330
 115976420.60047  22069573.652    90371240.95248  22069573.561
 04 12 10  0 43 30.0000000  0  9G 2G 4G 5G 6G10G13G17G24G30
 106678421.37849  20300223.926    83126036.15449  20300221.490
 117736136.98447  22404423.701    91742474.42348  22404423.411
 116074565.91148  22088249.674    90447705.92149  22088249.652
 128525734.56245  24457632.462   100149912.32246  24457632.523
 108268235.39049  20602751.537    84364875.56249  20602751.468
 126044205.43845  23985414.449    98216276.67746  23985413.592
 111291867.23849  21178126.787    86720973.38949  21178126.975
 111682331.14449  21252421.047    87025246.75849  21252421.398
 115973363.48147  22068991.890    90368858.78848  22068991.820
 04 12 10  0 44  0.0000000  0  9G 2G 4G 5G 6G10G13G17G24G30
 106690955.01749  20302608.993    83135802.62849  20302606.555
 117808125.60247  22418122.674    91798569.44748  22418122.388
 116126561.06448  22098144.046    90488221.60249  22098144.033
 128427403.93545  24438920.736   100073291.10446  24438920.840
 108211440.48649  20591943.796    84320619.83649  20591943.707
 126070091.54045  23990340.410    98236447.65046  23990339.588
 111261147.27649  21172280.973    86697035.75549  21172281.160
 111724256.61549  21260399.199    87057915.96349  21260399.544
 115970748.22947  22068494.218    90366820.92848  22068494.169
 04 12 10  0 44 30.0000000  0  9G 2G 4G 5G 6G10G13G17G24G30
 106703781.06149  20305049.714    83145796.95049  20305047.263
 117880201.26447  22431838.228    91854732.29048  22431837.936
 116179016.78448  22108126.061    90529096.15749  22108126.055
 128329096.92245  24420213.468    99996688.25746  24420213.604
 108155167.10349  20581235.304    84276770.48449  20581235.194
 126096544.03145  23995374.152    98257059.98146  23995373.345
 111230627.83249  21166473.322    86673254.36749  21166473.502
 111766343.00049  21268407.977    87090710.54649  21268408.316
 115968730.32747  22068110.230    90365248.52048  22068110.186
 04 12 10  0 45  0.0000000  0  9G 2G 4G 5G 6G10G13G17G24G30
 106717208.59749  20307604.889    83156259.97349  20307602.425
 117952673.06647  22445629.159    91911203.81948  22445628.868
 116232240.66948  22118254.266    90570569.27849  22118254.253
 128231124.82646  24401569.956    99920346.41646  24401570.070
 108099725.89649  20570685.157    84233569.59349  20570685.026
 126123871.81245  24000574.462    98278354.34847  24000573.670
 111200618.37149  21160762.699    86649870.38049  21160762.878
 111808898.83049  21276506.083    87123870.93349  21276506.414
 115967618.80647  22067898.697    90364382.41648  22067898.659
 04 12 10  0 45 30.0000000  0  9G 2G 4G 5G 6G10G13G17G24G30
 106730776.30149  20310186.743    83166832.20549  20310184.279
 118025079.38648  22459407.612    91967624.33748  22459407.319
 116285769.14048  22128440.425    90612279.75749  22128440.401
 128133028.49145  24382902.850    99843907.73647  24382902.926
 108044657.22149  20560205.919    84190658.97249  20560205.769
 126151613.42545  24005853.533    98299971.18546  24005852.730
 111170657.88649  21155061.397    86626524.56949  21155061.562
 111851462.92349  21284605.748    87157037.75849  21284606.091
 115966952.48347  22067771.894    90363863.19148  22067771.875
 04 12 10  0 46  0.0000000  0  9G 2G 4G 5G 6G10G13G17G24G30
 106744638.94949  20312824.705    83177634.28649  20312822.235
 118097574.88647  22473203.041    92024114.34348  22473202.733
 116339755.24248  22138713.662    90654346.82249  22138713.646
 128034964.67845  24364241.927    99767494.37146  24364242.039
 107990117.06649  20549827.261    84148160.16449  20549827.110
 126179923.59045  24011240.796    98322031.03947  24011239.979
