     2.10           OBSERVATION DATA    G (GPS)             RINEX VERSION / TYPE
teqc  2004Dec3      Gordon Adams        20050221 04:56:50UTCPGM / RUN BY / DATE
GALB                                                        MARKER NAME
                                                            MARKER NUMBER
                    MSD                                     OBSERVER / AGENCY
80108               LEICA RS500         4.10                REC # / TYPE / VERS
2084                LEIAT303                                ANT # / TYPE
   475546.0224 -4925640.5090  4010733.3612                  APPROX POSITION XYZ
        0.0000        0.0000        0.0000                  ANTENNA: DELTA H/E/N
     1     1                                                WAVELENGTH FACT L1/2
     4    L1    C1    L2    P2                              # / TYPES OF OBSERV
    30.0000                                                 INTERVAL
    13                                                      LEAP SECONDS
Solaris 2.7|Ultra 2|cc SC5.0|=+-|*Sparc                     COMMENT
teqc  2002Mar14                         20041213 00:34:07UTCCOMMENT
Forced Modulo Decimation to 30 seconds                      COMMENT
Forced Modulo Decimation to 30 seconds                      COMMENT
  2004    12    12     0     0    0.0000000     GPS         TIME OF FIRST OBS
HP-UX 10.20|PA-RISC|cc A.10.32.03|=+|=|                     COMMENT
teqc  2002Mar14                         20041213 00:22:57UTCCOMMENT
     2              Observation Data                        COMMENT
CS 4.3              Leica Inc.          Sat 11 Dec 2004     COMMENT
BIT 2 OF LLI FLAGS DATA COLLECTED UNDER A/S CONDITION       COMMENT
SNR is mapped to RINEX snr flag value [2-9]                 COMMENT
L1&L2:  < 25dBHz -> 1; 25-27dBHz -> 2; 28-31dBHz -> 3       COMMENT
       32-35dBHz -> 4; 36-38dBHz -> 5; 39-41dBHz -> 6       COMMENT
       42-44dBHz -> 7; 45-48dBHz -> 8; 49-55dBHz -> 9       COMMENT
                                                            END OF HEADER
 04 12 12  0  0  0.0000000  0  9G 2G 4G 5G 7G10G13G17G24G30
 106550793.61349  20275925.693    83026622.10449  20275923.805
 112879173.22049  21480179.235    87957838.28349  21480179.412
 113675801.85948  21631775.967    88578566.81249  21631776.046
 123372252.90646  23476946.395    96134252.57747  23476948.298
 113463696.00448  21591411.251    88413298.31249  21591411.928
 125661552.77246  23912596.301    97918094.50447  23912596.170
 113978489.93348  21689369.842    88814445.31149  21689370.613
 109358858.37749  20810284.060    85214755.17749  20810284.969
 117617477.89247  22381856.032    91650007.86548  22381856.816
 04 12 12  0  0 30.0000000  0  9G 2G 4G 5G 7G10G13G17G24G30
 106541730.46849  20274201.022    83019559.92849  20274199.127
 112943068.08348  21492338.011    88007626.50149  21492338.173
 113690779.85248  21634626.184    88590237.98149  21634626.257
 123457245.03746  23493119.860    96200480.18047  23493121.763
 113374372.05448  21574413.433    88343695.27749  21574414.111
 125647793.26946  23909977.973    97907372.82646  23909977.788
 113933381.14148  21680785.918    88779295.61249  21680786.682
 109389756.62549  20816163.789    85238831.74649  20816164.690
 117573831.21747  22373550.304    91615997.50748  22373551.109
 04 12 12  0  1  0.0000000  0  9G 2G 4G 5G 7G10G13G17G24G30
 106532868.28949  20272514.606    83012654.33849  20272512.711
 113006988.43148  21504501.643    88057434.57649  21504501.791
 113706210.89848  21637562.602    88602262.17649  21637562.696
 123542335.00445  23509311.954    96266784.03347  23509313.864
 113285322.87548  21557467.920    88274306.32949  21557468.590
 125634455.19046  23907439.827    97896979.54646  23907439.552
 113888360.17748  21672218.695    88744214.35749  21672219.474
 109420747.43349  20822061.138    85262980.44049  20822062.032
 117530617.35347  22365326.973    91582324.37848  22365327.787
 04 12 12  0  1 30.0000000  0  9G 2G 4G 5G 7G10G13G17G24G30
 106524364.12349  20270896.299    83006027.73249  20270894.404
 113071090.61948  21516699.872    88107384.34649  21516700.019
 113722251.11648  21640614.949    88614761.05049  21640615.041
 123627679.67446  23525552.534    96333286.30647  23525554.444
 113196707.98248  21540605.054    88205255.78049  21540605.718
 125621696.74946  23905011.970    97887037.94546  23905011.604
 113843584.13648  21663698.080    88709323.95949  21663698.852
 109451987.16749  20828005.850    85287323.11049  20828006.730
 117487994.92147  22357216.182    91549112.12448  22357216.977
 04 12 12  0  2  0.0000000  0  9G 2G 4G 5G 7G10G13G17G24G30
 106516372.90149  20269375.608    82999800.81949  20269373.712
 113135529.28748  21528962.131    88157596.30749  21528962.278
 113739055.59848  21643812.729    88627855.45649  21643812.813
 123713433.38846  23541870.941    96400107.39947  23541872.822
 113108685.55448  21523854.908    88136666.91749  21523855.564
 125609674.81046  23902724.289    97877670.21046  23902723.854
 113799208.71448  21655253.706    88674745.72249  21655254.478
 109483630.29449  20834027.331    85311980.10549  20834028.205
 117446121.00847  22349247.823    91516483.13148  22349248.613
 04 12 12  0  2 30.0000000  0  9G 2G 4G 5G 7G10G13G17G24G30
 106508432.26149  20267864.548    82993613.31849  20267862.646
 113199841.33548  21541200.307    88207709.59849  21541200.455
 113756161.10248  21647067.804    88641184.41949  21647067.882
 123799133.42046  23558179.133    96466886.63147  23558181.015
 113020795.57948  21507129.984    88068181.24149  21507130.632
 125597928.42846  23900489.027    97868517.22447  23900488.548
 113754771.36548  21646797.542    88640119.23049  21646798.312
 109515213.73849  20840037.448    85336590.59849  20840038.308
 117404534.82247  22341334.223    91484078.32948  22341335.014
 04 12 12  0  3  0.0000000  0  9G 2G 4G 5G 7G10G13G17G24G30
 106500847.99249  20266421.286    82987703.51849  20266419.382
 113264331.58248  21553472.381    88257961.74349  21553472.542
 113773873.04348  21650438.269    88654985.93249  21650438.360
 123885085.08345  23574535.209    96533861.94247  23574537.063
 112933346.55348  21490488.958    88000039.17949  21490489.598
 125586765.10446  23898364.681    97859818.61246  23898364.136
 113710578.49148  21638387.912    88605683.23449  21638388.682
 109547042.67449  20846094.287    85361392.38349  20846095.134
 117363544.33047  22333533.974    91452137.72748  22333534.740
 04 12 12  0  3 30.0000000  0  9G 2G 4G 5G 7G10G13G17G24G30
 106493770.25549  20265074.426    82982188.41949  20265072.516
 113329149.92248  21565806.907    88308469.53749  21565807.077
 113792341.15348  21653952.645    88669376.66349  21653952.724
 123971438.06646  23590967.700    96601149.87847  23590969.617
 112846491.35548  21473960.945    87932359.82849  21473961.564
 125576336.34046  23896380.225    97851692.25846  23896379.613
 113666780.32648  21630053.386    88571554.81249  21630054.150
 109579267.03249  20852226.361    85386502.29249  20852227.208
 117323301.06247  22325875.935    91420779.35048  22325876.665
 04 12 12  0  4  0.0000000  0  9G 2G 4G 5G 7G10G13G17G24G30
 106486731.28249  20263734.942    82976703.51149  20263733.038
 113393827.86648  21578114.704    88358867.94349  21578114.867
 113811097.07948  21657521.791    88683991.66349  21657521.863
 124057724.06146  23607387.385    96668385.73047  23607389.298
 112759764.78048  21457457.409    87864780.70449  21457458.013
 125566176.01046  23894446.760    97843775.18046  23894446.082
 113622909.57548  21621705.048    88537369.81949  21621705.810
 109611418.16249  20858344.506    85411555.13249  20858345.360
 117283339.37447  22318271.461    91389640.39848  22318272.170
 04 12 12  0  4 30.0000000  0  9G 2G 4G 5G 7G10G13G17G24G30
 106480340.21149  20262518.761    82971723.45449  20262516.857
 113458973.85648  21590511.574    88409631.05549  21590511.722
 113830749.22948  21661261.471    88699305.02349  21661261.543
 124144552.02546  23623910.215    96736043.84547  23623912.139
 112673778.56048  21441094.751    87797778.48049  21441095.356
 125556894.72846  23892680.579    97836543.03846  23892679.866
 113579575.51048  21613458.832    88503603.03249  21613459.593
 109644104.63549  20864564.523    85437025.12349  20864565.384
 117244269.84447  22310836.788    91359196.62048  22310837.473
 04 12 12  0  5  0.0000000  0  9G 2G 4G 5G 7G10G13G17G24G30
 106474127.17449  20261336.430    82966882.14849  20261334.530
 113524117.15148  21602907.931    88460392.07449  21602908.059
 113850827.20448  21665082.188    88714950.19549  21665082.253
 124231451.18945  23640446.618    96803757.45847  23640448.526
 112588065.31148  21424784.039    87730988.96349  21424784.635
 125548023.86646  23890992.469    97829630.72846  23890991.710
 113536308.55448  21605225.392    88469888.53649  21605226.146
 109676856.09849  20870796.901    85462545.76349  20870797.762
 117205624.37347  22303482.794    91329083.29048  22303483.467
 04 12 12  0  5 30.0000000  0  9G 2G 4G 5G 7G10G13G17G24G30
 106468237.16049  20260215.586    82962292.54249  20260213.678
 113589402.50848  21615331.321    88511263.77849  21615331.448
 113871475.25648  21669011.382    88731039.59149  21669011.433
 124318566.25646  23657024.100    96871639.28747  23657026.015
 112502772.98048  21408553.436    87664527.42749  21408554.034
 125539710.05846  23889410.398    97823152.46447  23889409.598
 113493254.18248  21597032.411    88436339.68149  21597033.158
 109709817.00249  20877069.141    85488229.60149  20877070.002
 117167549.65647  22296237.410    91299414.70448  22296238.065
 04 12 12  0  6  0.0000000  0  9G 2G 4G 5G 7G10G13G17G24G30
 106462661.74049  20259154.601    82957948.08249  20259152.679
 113654820.66548  21627779.989    88562238.96049  21627780.124
 113892684.31848  21673047.332    88747566.12949  21673047.390
 124405888.32545  23673640.991    96939682.37347  23673642.992
 112417895.61648  21392401.787    87598389.25549  21392402.386
 125531946.44546  23887933.025    97817102.92147  23887932.200
 113450404.04748  21588878.284    88402949.98549  21588879.030
 109742978.40149  20883379.539    85514069.66449  20883380.402
 117130038.77747  22289099.303    91270185.47848  22289099.959
 04 12 12  0  6 30.0000000  0  9G 2G 4G 5G 7G10G13G17G24G30
 106457393.07449  20258151.989    82953842.64749  20258150.059
 113720363.43848  21640252.352    88613311.26449  21640252.471
 113914445.94148  21677188.437    88764523.22949  21677188.510
 124493408.87246  23690295.585    97007880.19047  23690297.573
 112333428.02449  21376328.109    87532570.37849  21376328.714
 125524726.15746  23886559.039    97811476.76747  23886558.190
 113407750.48548  21580761.569    88369713.45549  21580762.307
 109776331.82649  20889726.473    85540059.35849  20889727.335
 117093085.55347  22282067.315    91241390.79148  22282067.972
 04 12 12  0  7  0.0000000  0  9G 2G 4G 5G 7G10G13G17G24G30
 106452424.31949  20257206.455    82949970.90849  20257204.510
 113786023.00548  21652746.958    88664474.56749  21652747.057
 113936752.52048  21681433.238    88781904.97749  21681433.325
 124581120.52946  23706986.564    97076226.94347  23706988.502
 112249365.83148  21360331.582    87467067.40249  21360332.180
 125518043.80445  23885287.453    97806269.71946  23885286.606
 113365287.03548  21572681.026    88336625.06749  21572681.769
 109809869.67249  20896108.501    85566192.75949  20896109.363
 117056684.90747  22275140.502    91213026.65848  22275141.146
 04 12 12  0  7 30.0000000  0  9G 2G 4G 5G 7G10G13G17G24G30
 106447750.02749  20256316.954    82946328.61249  20256315.002
 113851793.71348  21665262.707    88715724.48649  21665262.780
 113959598.09448  21685780.606    88799706.71849  21685780.700
 124669017.66446  23723712.875    97144718.14947  23723714.823
 112165706.04848  21344411.630    87401877.99149  21344412.214
 125511895.50246  23884117.470    97801478.84546  23884116.634
 113323008.71748  21564635.717    88303680.94949  21564636.449
 109843586.46349  20902524.581    85592465.59349  20902525.435
 117020832.90147  22268318.069    91185090.05648  22268318.696
 04 12 12  0  8  0.0000000  0  9G 2G 4G 5G 7G10G13G17G24G30
 106443520.37249  20255512.066    82943032.78949  20255510.113
 113917825.13448  21677828.075    88767177.54449  21677828.135
 113983132.05148  21690258.976    88818044.86649  21690259.078
 124757249.53846  23740502.866    97213470.24647  23740504.795
 112082601.62548  21328597.361    87337121.31849  21328597.935
 125506432.52745  23883077.877    97797222.01446  23883077.026
 113281065.84048  21556654.241    88270998.19749  21556654.987
 109877631.61049  20909003.139    85618994.28949  20909003.998
 116985681.40747  22261628.932    91157699.31748  22261629.552
 04 12 12  0  8 30.0000000  0  9G 2G 4G 5G 7G10G13G17G24G30
 106439424.66049  20254732.642    82939841.36749  20254730.674
 113983805.97449  21690383.799    88818591.21049  21690383.831
 114007043.05648  21694809.088    88836676.81449  21694809.198
 124845505.12046  23757297.398    97282240.74047  23757299.397
 111999744.40948  21312830.133    87272557.28649  21312830.693
 125501345.64945  23882109.822    97793258.26346  23882108.984
 113239147.97548  21548677.531    88238334.94749  21548678.257
 109911694.22349  20915485.021    85645536.60149  20915485.871
 116950921.20347  22255014.279    91130613.46148  22255014.902
 04 12 12  0  9  0.0000000  0  9G 2G 4G 5G 7G10G13G17G24G30
 106435769.45349  20254037.062    82936993.18049  20254035.079
 114050042.11248  21702988.123    88870203.78549  21702988.142
 114031636.79348  21699489.127    88855840.75449  21699489.243
 124934090.38245  23774154.589    97351268.26147  23774156.546
 111917443.21549  21297168.719    87208426.50449  21297169.271
 125496942.51346  23881271.910    97789827.29346  23881271.038
 113197562.06748  21540763.984    88205930.35549  21540764.710
 109946079.99049  20922028.409    85672330.71349  20922029.252
 116916860.31547  22248532.684    91104072.54048  22248533.323
 04 12 12  0  9 30.0000000  0  9G 2G 4G 5G 7G10G13G17G24G30
 106432400.13749  20253395.896    82934367.75449  20253393.900
 114116378.34048  21715611.470    88921894.37949  21715611.467
 114056757.70448  21704269.477    88875415.47949  21704269.598
 125022850.22146  23791045.090    97420431.65447  23791047.143
 111835545.99949  21281584.185    87144610.51349  21281584.716
 125493069.79146  23880534.949    97786809.59846  23880534.086
 113156153.69948  21532884.215    88173664.11249  21532884.941
 109980633.54249  20928603.720    85699255.56749  20928604.553
 116883345.66548  22242155.028    91077957.26748  22242155.660
 04 12 12  0 10  0.0000000  0  9G 2G 4G 5G 7G10G13G17G24G30
 106429470.84749  20252838.453    82932085.21149  20252836.442
 114182968.30748  21728283.107    88973782.67649  21728283.111
 114082559.31448  21709179.366    88895520.61849  21709179.494
 125111937.89846  23807997.983    97489850.56047  23808000.071
 111754209.71649  21266106.387    87081231.61049  21266106.918
 125489882.97046  23879928.488    97784326.40746  23879927.619
 113115077.25848  21525067.611    88141656.51849  21525068.336
 110015509.07949  20935240.302    85726431.31949  20935241.134
 116850532.78547  22235910.945    91052388.80848  22235911.559
 04 12 12  0 10 30.0000000  0  9G 2G 4G 5G 7G10G13G17G24G30
 106426674.74849  20252306.367    82929906.44649  20252304.350
 114249504.73448  21740944.545    89025629.26349  21740944.555
 114108733.95748  21714160.224    88915916.45249  21714160.342
 125201046.47945  23824954.800    97559285.78847  23824956.886
 111673130.15449  21250677.459    87018052.74649  21250677.978
 125487076.46546  23879394.659
 113074026.25248  21517255.846    88109668.74349  21517256.572
 110050399.23449  20941879.672    85753618.46049  20941880.497
 116818116.53847  22229742.332    91027129.40748  22229742.940
 04 12 12  0 11  0.0000000  0  9G 2G 4G 5G 7G10G13G17G24G30
 106424168.45849  20251829.412    82927953.52149  20251827.403
 114316143.41748  21753625.453    89077555.51449  21753625.476
 114135437.09548  21719241.668    88936724.07849  21719241.784
 125290331.54545  23841945.183    97628858.56247  23841947.261
 111592465.90749  21235327.545    86955197.51949  21235328.052
 125484807.56346  23878962.670
 113033157.40748  21509478.752    88077822.91549  21509479.465
 110085459.79449  20948551.468    85780938.38849  20948552.294
 116786254.56447  22223679.188    91002301.91548  22223679.797
 04 12 12  0 11 30.0000000  0  9G 2G 4G 5G 7G10G13G17G24G30
 106422262.44249  20251466.703    82926468.32449  20251464.687
 114383194.69748  21766384.863    89129803.29349  21766384.886
 114162978.40348  21724482.610    88958184.82249  21724482.733
 125380103.23246  23859028.238    97698810.41547  23859030.393
 111512530.03049  21220116.230    86892909.85749  21220116.731
 125483388.30046  23878692.884    97779232.76247  23878689.797
 112992781.55749  21501795.459    88046361.24149  21501796.173
 110121000.74449  20955314.680    85808632.64549  20955315.500
 116755259.01947  22217780.920    90978149.57448  22217781.526
 04 12 12  0 12  0.0000000  0  9G 2G 4G 5G 7G10G13G17G24G30
 106420497.97349  20251130.912    82925093.43949  20251128.896
 114450199.03448  21779135.347    89182014.48549  21779135.370
 114190898.26048  21729795.576    88979940.55449  21729795.705
 125469902.18146  23876116.398    97768783.65047  23876118.534
 111432866.08749  21204956.668    86830834.07249  21204957.167
 125482360.52645  23878497.216    97778431.97647  23878495.198
 112952440.53848  21494118.795    88014926.70949  21494119.516
 110156562.87949  20962081.924    85836343.40949  20962082.736
 116724672.58047  22211960.497    90954316.01148  22211961.096
 04 12 12  0 12 30.0000000  0  9G 2G 4G 5G 7G10G13G17G24G30
 106418878.23149  20250822.674    82923831.32749  20250820.645
 114517159.53648  21791877.495    89234191.51749  21791877.519
 114219199.22448  21735181.065    89001993.25549  21735181.207
 125559731.32545  23893210.370    97838780.30347  23893212.546
 111353479.98549  21189849.965    86768974.80449  21189850.471
 125481729.31946  23878377.042    97777940.12847  23878375.290
 112912137.81948  21486449.430    87983522.00949  21486450.152
 110192149.29149  20968853.787    85864073.08449  20968854.598
 116694499.91047  22206218.793    90930804.87648  22206219.391
 04 12 12  0 13  0.0000000  0  9G 2G 4G 5G 7G10G13G17G24G30
 106417869.57849  20250630.710    82923045.39249  20250628.681
 114584541.62148  21804699.873    89286697.05149  21804699.906
 114248346.47248  21740727.602    89024705.38149  21740727.771
 125650056.03746  23910398.609    97909163.17646  23910400.770
 111274840.41149  21174885.334    86707697.22749  21174885.846
 125481962.21946  23878421.302    97778121.62547  23878419.613
 112872339.85348  21478876.105    87952510.64049  21478876.821
 110228225.81649  20975718.915    85892184.67649  20975719.713
 116665208.55947  22200644.828    90907980.45648  22200645.419
 04 12 12  0 13 30.0000000  0  9G 2G 4G 5G 7G10G13G17G24G30
 106417014.35749  20250467.949    82922379.00349  20250465.919
 114651887.44348  21817515.345    89339174.33149  21817515.379
 114277881.59348  21746347.942    89047719.75149  21746348.138
 125740418.25245  23927594.014    97979575.27947  23927596.140
 111196492.54049  21159976.206    86646646.96949  21159976.711
 125482601.99346  23878543.035    97778620.20647  23878541.387
 112832589.31248  21471311.823    87921536.20149  21471312.531
 110264334.19949  20982590.106    85920321.08049  20982590.903
 116636342.46147  22195151.774    90885487.42448  22195152.353
 04 12 12  0 14  0.0000000  0  9G 2G 4G 5G 7G10G13G17G24G30
 106416471.96149  20250364.722    82921956.36949  20250362.692
 114719355.67148  21830354.104    89391747.00249  21830354.131
 114307962.54348  21752072.145    89071159.45049  21752072.359
 125830976.56645  23944826.765    98050140.12647  23944828.941
 111118597.54949  21145153.270    86585949.59049  21145153.768
 125483808.99646  23878772.690    97779560.73947  23878771.098
 112793045.69848  21463786.894    87890723.02949  21463787.602
 110300633.29149  20989497.582    85948606.09649  20989498.392
 116608061.82647  22189770.131    90863450.58748  22189770.717
 04 12 12  0 14 30.0000000  0  9G 2G 4G 5G 7G10G13G17G24G30
 106416247.13049  20250321.921    82921781.20149  20250319.892
 114786951.06248  21843217.073    89444418.75449  21843217.088
 114338593.41348  21757900.988    89095027.66449  21757901.221
 125921735.38345  23962097.624    98120861.24746  23962099.784
 111041163.06249  21130417.965    86525611.04949  21130418.450
 125485589.45246  23879111.464    97780948.22347  23879109.844
 112753714.40348  21456302.379    87860075.29449  21456303.081
 110337127.84049  20996442.263    85977043.41149  20996443.075
 116580373.15647  22184501.140    90841875.00048  22184501.731
 04 12 12  0 15  0.0000000  0  9G 2G 4G 5G 7G10G13G17G24G30
 106416345.35449  20250340.588    82921857.77049  20250338.552
 114854677.99248  21856105.080    89497192.98849  21856105.095
 114369778.36248  21763835.292    89119327.60249  21763835.537
 126012699.25146  23979407.496    98191742.16547  23979409.628
 110964196.62549  21115771.739    86465637.21549  21115772.204
 125487949.30946  23879560.512    97782787.04946  23879558.942
 112714601.01048  21448859.336    87829597.34149  21448860.031
 110373822.35649  21003424.992    86005636.55249  21003425.805
 116553282.83147  22179346.011    90820765.66848  22179346.586
 04 12 12  0 15 30.0000000  0  9G 2G 4G 5G 7G10G13G17G24G30
 106416617.49149  20250392.380    82922069.81949  20250390.352
 114922387.35248  21868989.730    89549953.54949  21868989.733
 114401367.46648  21769846.475    89143942.49949  21769846.731
 126103718.57145  23996727.944    98262666.27847  23996730.082
 110887551.38249  21101186.629    86405913.66349  21101187.072
 125490740.72846  23880091.642    97784962.23046  23880090.121
 112675556.81948  21441429.450    87799173.33149  21441430.139
 110410567.73049  21010417.398    86034269.32249  21010418.197
 116526643.12547  22174276.649    90800007.45448  22174277.210
 04 12 12  0 16  0.0000000  0  9G 2G 4G 5G 7G10G13G17G24G30
 106417530.83649  20250566.184    82922781.51449  20250564.155
 114990545.70548  21881959.822    89603063.97249  21881959.825
 114433826.78048  21776023.277    89169235.45949  21776023.530
 126195260.05345  24014147.775    98333997.20747  24014149.968
 110811697.06749  21086752.015    86346806.43849  21086752.439
 125494431.73246  23880793.904    97787838.40647  23880792.421
 112637049.13448  21434101.663    87769167.36549  21434102.345
 110447830.52149  21017508.277    86063305.26649  21017509.056
 116500922.52947  22169382.200    90779965.42348  22169382.749
 04 12 12  0 16 30.0000000  0  9G 2G 4G 5G 7G10G13G17G24G30
 106418319.98649  20250716.342    82923396.44749  20250714.313
 115058387.02048  21894869.595    89655927.34049  21894869.592
 114466389.74748  21782219.798    89194609.20049  21782220.057
 126286557.30645  24031521.088    98405137.92747  24031523.281
 110735870.42548  21072322.667    86287720.76049  21072323.089
 125498257.64646  23881521.927    97790819.64746  23881520.516
 112598312.82448  21426730.353    87738983.26449  21426731.034
 110484844.68649  21024551.839    86092147.48049  21024552.611
 116475356.46347  22164517.134    90760043.81648  22164517.682
 04 12 12  0 17  0.0000000  0  9G 2G 4G 5G 7G10G13G17G24G30
 106419912.24249  20251019.327    82924637.19049  20251017.292
 115126838.64248  21907895.505    89709266.28149  21907895.498
 114499982.60348  21788612.306    89220785.45449  21788612.565
 126378537.40745  24049024.313    98476810.72847  24049026.474
 110661001.32049  21058075.532    86229381.21949  21058075.955
 125503147.07746  23882452.278    97794629.63747  23882450.917
 112560275.72148  21419492.115    87709343.98549  21419492.788
 110522537.50849  21031724.532    86121518.53949  21031725.278
 116450873.89147  22159858.255    90740966.48748  22159858.811
 04 12 12  0 17 30.0000000  0  9G 2G 4G 5G 7G10G13G17G24G30
 106421386.15249  20251299.796    82925785.69949  20251297.762
 115194978.45948  21920862.082    89762362.24249  21920862.082
 114533682.85448  21795025.256    89247045.38649  21795025.509
 126470278.02545  24066482.032    98548296.85247  24066484.222
 110586170.42149  21043835.661    86171071.45149  21043836.099
 125508179.25146  23883409.839    97798550.80747  23883408.552
 112522016.65548  21412211.627    87679531.74649  21412212.305
 110559987.16749  21038850.966    86150700.10149  21038851.706
 116426554.25347  22155230.382    90722016.13048  22155230.925
 04 12 12  0 18  0.0000000  0  9G 2G 4G 5G 7G10G13G17G24G30
 106423358.92449  20251675.208    82927322.91549  20251673.181
 115263423.42348  21933886.713    89815695.98749  21933886.712
 114568106.10648  21801575.795    89273868.68749  21801576.056
 126562395.67445  24084011.485    98620076.76747  24084013.710
 110511997.15449  21029720.934    86113274.12249  21029721.385
 125513972.14346  23884512.130    97803064.79347  23884510.875
 112484153.03049  21405006.401    87650027.64149  21405007.070
 110597810.51549  21046048.503    86180172.86249  21046049.224
 116403015.95447  22150751.199    90703674.58348  22150751.739
 04 12 12  0 18 30.0000000  0  9G 2G 4G 5G 7G10G13G17G24G30
 106425675.62349  20252116.044    82929128.15649  20252114.009
 115332018.04348  21946939.829    89869146.34749  21946939.828
 114603096.63848  21808234.278    89301134.02649  21808234.545
 126654734.93145  24101583.109    98692029.38846  24101585.335
 110438329.10449  21015702.353    86055870.46449  21015702.811
 125520371.73845  23885729.897    97808051.52747  23885728.679
 112446530.30948  21397847.000    87620711.26849  21397847.667
 110635852.13549  21053287.589    86209815.69149  21053288.291
 116380105.02647  22146391.394    90685821.90948  22146391.942
 04 12 12  0 19  0.0000000  0  9G 2G 4G 5G 7G10G13G17G24G30
 106428333.94549  20252621.900    82931199.58749  20252619.858
 115400759.57547  21960020.890    89922711.18149  21960020.900
 114638650.81848  21815000.014    89328838.58749  21815000.274
 126747292.77945  24119196.294    98764152.32146  24119198.561
 110365166.01749  21001779.856    85998860.29949  21001780.315
 125527376.35646  23887062.808    97813509.70647  23887061.630
 112409146.48449  21390733.088    87591581.02549  21390733.749
 110674109.07749  21060567.637    86239626.30749  21060568.332
 116357820.33947  22142150.759    90668457.21848  22142151.314
 04 12 12  0 19 30.0000000  0  9G 2G 4G 5G 7G10G13G17G24G30
 106431021.42049  20253133.315    82933293.71749  20253131.281
 115469335.19448  21973070.403    89976146.71049  21973070.440
 114674454.98248  21821813.319    89356737.93749  21821813.581
 126839755.85945  24136791.409    98836201.51347  24136793.633
 110292197.66849  20987894.417    85942001.87249  20987894.877
 125534674.18346  23888451.496    97819196.34647  23888450.388
 112371689.19549  21383605.191    87562393.54049  21383605.851
 110712268.58649  21067829.138    86269361.01349  21067829.836
 116335850.30848  22137970.001    90651337.72448  22137970.544
 04 12 12  0 20  0.0000000  0  9G 2G 4G 5G 7G10G13G17G24G30
 106434348.42949  20253766.424    82935886.19249  20253764.390
 115538354.84148  21986204.387    90029928.26449  21986204.430
 114711118.38548  21828790.139    89385306.81649  21828790.400
 126932734.05045  24154484.648    98908651.97047  24154486.950
 110220036.69449  20974162.635    85885772.55749  20974163.088
 125542876.46545  23890012.297    97825587.76646  23890011.208
 112334769.31348  21376579.559    87533624.81449  21376580.227
 110750940.65549  21075188.194    86299495.08449  21075188.899
 116314806.43647  22133965.480    90634939.90848  22133966.014
 04 12 12  0 20 30.0000000  0  9G 2G 4G 5G 7G10G13G17G24G30
 106437845.61049  20254431.909    82938611.28449  20254429.871
 115607348.92748  21999333.519    90083689.88849  21999333.575
 114748170.51148  21835840.930    89414178.60349  21835841.186
 127025757.37844  24172186.423    98981137.62445  24172188.779
 110148216.03649  20960495.594    85829808.44149  20960496.034
 125551514.51945  23891656.058    97832318.70847  23891654.980
 112297917.96748  21369566.964    87504909.49249  21369567.637
 110789655.69649  21082555.410    86329662.66749  21082556.108
 116294220.46547  22130048.093    90618898.89148  22130048.649
 04 12 12  0 21  0.0000000  0  9G 2G 4G 5G 7G10G13G17G24G30
 106441659.22249  20255157.604    82941582.94449  20255155.557
 115676463.42648  22012485.559    90137545.34049  22012485.642
 114785756.03848  21842993.230    89443466.01449  21842993.478
 127118971.20746  24189924.371    99053771.85647  24189926.655
 110076883.93749  20946921.517    85774225.03049  20946921.936
 125560735.29245  23893410.636    97839503.80147  23893409.569
 112261281.28049  21362595.222    87476361.44149  21362595.888
 110828559.64849  21089958.574    86359977.45549  21089959.266
 116274239.46947  22126245.831    90603329.30148  22126246.389
 04 12 12  0 21 30.0000000  0  9G 2G 4G 5G 7G10G13G17G24G30
 106445626.26949  20255912.490    82944674.17549  20255910.429
 115745534.60248  22025629.373    90191367.03249  22025629.464
 114823710.72948  21850215.773    89473041.10049  21850216.016
 127212211.76045  24207667.547    99126426.76647  24207669.848
 110005879.55149  20933409.808    85718896.96549  20933410.219
 125570376.25646  23895245.220    97847016.27447  23895244.161
 112224696.74048  21355633.410    87447854.01249  21355634.075
 110867488.99249  21097366.570    86390312.02249  21097367.262
 116254701.33048  22122527.840    90588104.77948  22122528.413
 04 12 12  0 22  0.0000000  0  9G 2G 4G 5G 7G10G13G17G24G30
 106450046.13849  20256753.569    82948118.22649  20256751.502
 115814861.71948  22038821.890    90245388.15649  22038821.982
 114862332.73148  21857565.302    89503136.16049  21857565.545
 127305778.05445  24225472.675    99199335.46546  24225475.004
 109935504.46049  20920017.844    85664059.26949  20920018.240
 125580737.50646  23897216.889    97855090.00847  23897215.804
 112188464.10149  21348738.556    87419620.80149  21348739.222
 110906742.72249  21104836.294    86420899.35449  21104836.986
 116235906.32147  22118951.257    90573459.33848  22118951.801
 04 12 12  0 22 30.0000000  0  9G 2G 4G 5G 7G10G13G17G24G30
 106454757.13249  20257650.041    82951789.12549  20257647.980
 115884282.70448  22052032.253    90299482.44548  22052032.337
 114901458.84448  21865010.772    89533624.01949  21865011.014
 127399507.16845  24243308.732    99272371.18247  24243311.034
 109865599.13749  20906715.261    85609587.62649  20906715.655
 125591657.72446  23899294.913    97863599.30547  23899293.831
 112152421.81349  21341879.913    87391535.92849  21341880.571
 110946158.79749  21112336.906    86451613.20649  21112337.599
 116217693.69547  22115485.486    90559267.70748  22115486.029
 04 12 12  0 23  0.0000000  0  9G 2G 4G 5G 7G10G13G17G24G30
 106459906.54949  20258629.925    82955801.68149  20258627.857
 115953944.26548  22065288.413    90353764.17948  22065288.475
 114941234.93148  21872579.927    89564618.36749  21872580.158
 127493545.88645  24261203.758    99345648.03946  24261206.090
 109796312.81049  20893530.488    85555598.30749  20893530.874
 125603285.09846  23901507.493    97872659.64547  23901506.428
 112116717.54249  21335085.622    87363714.42049  21335086.267
 110985883.93549  21119896.337    86482567.87449  21119897.030
 116200211.47448  22112158.730    90545645.20648  22112159.237
 04 12 12  0 23 30.0000000  0  9G 2G 4G 5G 7G10G13G17G24G30
 106465181.06749  20259633.620    82959911.71149  20259631.553
 116023532.79147  22078530.669    90407989.00348  22078530.716
 114981346.40548  21880212.893    89595874.06149  21880213.103
 127587580.16145  24279097.809    99418921.58946  24279100.110
 109727334.19549  20880404.264    85501848.76749  20880404.649
 125615306.87145  23903795.119    97882027.31047  23903794.061
 112081038.39249  21328296.105    87335912.49549  21328296.737
 111025605.01249  21127454.994    86513519.37749  21127455.680
 116183147.31748  22108911.505    90532348.48348  22108912.011
 04 12 12  0 24  0.0000000  0  9G 2G 4G 5G 7G10G13G17G24G30
 106470730.16549  20260689.590    82964235.67149  20260687.516
 116093197.73948  22091787.474    90462273.38049  22091787.500
 115021941.68348  21887937.929    89627506.74549  21887938.112
 127681758.92145  24297019.520    99492307.50147  24297021.913
 109658815.32849  20867365.528    85448457.47649  20867365.913
 125627873.20346  23906186.424    97891819.26546  23906185.372
 112045534.22648  21321539.875    87308246.92949  21321540.501
 111065471.00749  21135041.217    86544583.81349  21135041.902
 116166651.68847  22105772.473    90519494.77948  22105772.951
 04 12 12  0 24 30.0000000  0  9G 2G 4G 5G 7G10G13G17G24G30
 106476859.26349  20261855.913    82969011.59449  20261853.838
 116163244.04247  22105116.842    90516854.91748  22105116.861
 115063324.34548  21895812.800    89659752.96449  21895812.976
 127776386.51045  24315026.581    99566043.24846  24315029.011
 109591063.23549  20854472.709    85395663.66449  20854473.086
 125641289.28745  23908739.367    97902273.41446  23908738.351
 112010510.43449  21314875.063    87280955.67449  21314875.682
 111105786.69049  21142713.025    86575998.64449  21142713.709
 116151030.42847  22102799.840    90507322.38648  22102800.291
 04 12 12  0 25  0.0000000  0  9G 2G 4G 5G 7G10G13G17G24G30
 106482950.77249  20263015.077    82973758.24449  20263012.995
 116233053.84948  22118401.207    90571252.16649  22118401.225
 115104875.31048  21903719.691    89692130.34049  21903719.854
 127870844.81244  24333001.333    99639647.18246  24333003.760
 109523462.47049  20841608.694    85342987.76949  20841609.064
 125654938.59045  23911336.725    97912909.26046  23911335.734
 111975349.95649  21308184.241    87253557.90449  21308184.867
 111145934.31549  21150352.852    86607282.52449  21150353.530
 116135666.71048  22099876.210    90495350.67748  22099876.639
 04 12 12  0 25 30.0000000  0  9G 2G 4G 5G 7G10G13G17G24G30
 106489466.33649  20264254.941    82978835.32349  20264252.847
 116303088.44148  22131728.358    90625824.57449  22131728.372
 115147054.67848  21911746.164    89724997.36749  21911746.325
 127965594.44646  24351031.642    99713478.02047  24351034.073
 109456476.82449  20828861.725    85290791.18749  20828862.088
 125669282.88445  23914066.282    97924086.70846  23914065.297
 111940514.80849  21301555.332    87226413.64749  21301555.947
 111186375.44749  21158048.526    86638795.10949  21158049.202
 116121023.15448  22097089.604    90483940.14748  22097090.040
 04 12 12  0 26  0.0000000  0  9G 2G 4G 5G 7G10G13G17G24G30
 106496407.02149  20265575.698    82984243.65949  20265573.602
 116373348.36247  22145098.389    90680572.56349  22145098.382
 115189862.24948  21919892.192    89758353.90649  21919892.348
 128060635.88344  24369117.480    99787536.19246  24369119.988
 109390109.21049  20816232.365    85239076.19349  20816232.720
 125684323.40445  23916928.386    97935806.59446  23916927.412
 111906006.16648  21294988.527    87199523.82849  21294989.148
 111227110.68649  21165800.184    86670536.85549  21165800.853
 116107101.36648  22094440.376    90473092.01348  22094440.808
 04 12 12  0 26 30.0000000  0  9G 2G 4G 5G 7G10G13G17G24G30
 106503620.27349  20266948.322    82989864.38849  20266946.226
 116443681.02948  22158482.262    90735377.23449  22158482.258
 115233144.24948  21928128.495    89792080.13149  21928128.637
 128155816.04946  24387229.604    99861702.59046  24387232.134
 109324209.23649  20803691.987    85187725.59849  20803692.334
 125699908.46045  23919894.070    97947950.85547  23919893.089
 111871671.99249  21288454.951    87172769.93349  21288455.581
 111267987.11349  21173578.691    86702388.63649  21173579.368
 116093749.45047  22091899.573    90462687.95748  22091899.993
 04 12 12  0 27  0.0000000  0  9G 2G 4G 5G 7G10G13G17G24G30
 106510954.00549  20268343.891    82995578.97849  20268341.795
 116513934.09148  22171850.969    90790119.89849  22171850.945
 115276746.77248  21936425.797    89826056.11849  21936425.935
 128250981.77145  24405339.063    99935857.67847  24405341.594
 109258626.76549  20791212.028    85136622.40849  20791212.360
 125715886.26245  23922934.509    97960401.11746  23922933.539
 111837360.53049  21281925.673    87146033.75249  21281926.310
 111308852.46649  21181355.098    86734231.78149  21181355.781
 116080816.07348  22089438.421    90452610.02348  22089438.820
 04 12 12  0 27 30.0000000  0  9G 2G 4G 5G 7G10G13G17G24G30
 106518872.61849  20269850.753    83001749.32549  20269848.665
 116584571.62248  22185292.868    90845162.11749  22185292.825
 115321132.49148  21944872.130    89860642.38449  21944872.277
 128346596.69145  24423533.989   100010362.74946  24423536.585
 109193828.04849  20778881.212    85086129.93549  20778881.536
 125732721.52246  23926138.146    97973519.50547  23926137.184
 111803536.41049  21275489.133    87119677.32649  21275489.763
 111350171.04349  21189217.755    86766428.08149  21189218.447
 116068766.19547  22087145.406    90443220.52548  22087145.771
 04 12 12  0 28  0.0000000  0  9G 2G 4G 5G 7G10G13G17G24G30
 106526762.94849  20271352.221    83007897.64349  20271350.131
 116654980.16948  22198691.151    90900025.93948  22198691.092
 115365686.83548  21953350.552    89895360.04849  21953350.701
 128442046.73645  24441697.546   100084739.37846  24441700.125
 109129201.80449  20766583.217    85035771.85649  20766583.533
 125749801.37945  23929388.276    97986828.54146  23929387.318
 111769586.73149  21269028.718    87093223.04149  21269029.341
 111391329.22149  21197049.890    86798499.39549  21197050.574
 116056987.39448  22084903.963    90434042.27048  22084904.294
 04 12 12  0 28 30.0000000  0  9G 2G 4G 5G 7G10G13G17G24G30
 106535090.61349  20272936.911    83014386.74149  20272934.820
 116725624.79947  22212134.389    90955073.69048  22212134.346
 115410873.92748  21961949.381    89930570.76449  21961949.532
 128537796.93845  24459918.240   100159349.82646  24459920.850
 109065215.55749  20754407.009    84985912.47449  20754407.325
 125767591.64945  23932773.628    98000691.11147  23932772.684
 111735977.32149  21262633.042    87067033.90949  21262633.665
 111432792.20449  21204940.016    86830808.23649  21204940.700
 116045945.57048  22082802.768    90425438.26448  22082803.092
 04 12 12  0 29  0.0000000  0 10G 2G 4G 5G 6G 7G10G13G17G24G30
 106543859.19249  20274605.504    83021219.41749  20274603.407
 116796508.94948  22225623.189    91010308.10348  22225623.146
 115456695.39248  21970668.928    89966275.79649  21970669.089
 129762256.32955  24692935.051
 128633849.65345  24478196.440   100234196.13546  24478199.030
 109001874.56449  20742353.595    84936555.88949  20742353.897
 125786095.94446  23936294.830    98015110.08946  23936293.899
 111702712.09849  21256302.857    87041112.98549  21256303.472
 111474563.17449  21212888.767    86863357.04749  21212889.452
 116035644.88347  22080842.600    90417411.77348  22080842.926
 04 12 12  0 29 30.0000000  0  9G 2G 4G 5G 6G10G13G17G24G30
 106552763.81349  20276299.979    83028158.10649  20276297.867
 116867327.52747  22239099.522    91065491.41048  22239099.496
 115502844.94948  21979450.909    90002236.47849  21979451.077
 129663844.57145  24674207.191
 108938876.07849  20730365.370    84887466.18249  20730365.666
 125805009.65545  23939893.978    98029848.03647  23939893.080
 111669486.59449  21249980.230    87015223.01249  21249980.839
 111516337.23049  21220838.117    86895908.24949  21220838.803
 116025780.87447  22078965.530    90409725.55548  22078965.842
 04 12 12  0 30  0.0000000  0  9G 2G 4G 5G 6G10G13G17G24G30
 106561961.93649  20278050.318    83035325.47349  20278048.204
 116938237.65448  22252593.270    91120746.05648  22252593.245
 115549478.22648  21988324.932    90038574.08649  21988325.108
 129565432.07344  24655479.737
 108876379.26349  20718472.598    84838767.40649  20718472.874
 125824490.65045  23943601.017    98045028.09846  23943600.152
 111636458.46049  21243695.185    86989486.80749  21243695.794
 111558271.32749  21228817.899    86928584.18349  21228818.592
 116016511.53647  22077201.621    90402502.71448  22077201.936
 04 12 12  0 30 30.0000000  0  9G 2G 4G 5G 6G10G13G17G24G30
 106571456.26249  20279857.016    83042723.65849  20279854.901
 117009241.89348  22266104.928    91176074.03848  22266104.903
 115596596.61448  21997291.287    90075289.70049  21997291.436
 129467023.96045  24636752.873
 108814388.67749  20706676.164    84790463.08749  20706676.428
 125844541.85845  23947416.587    98060652.45647  23947415.734
 111603631.01948  21237448.307    86963907.01449  21237448.902
 111600368.22349  21236828.672    86961386.96749  21236829.360
 116007840.28147  22075551.525    90395745.91448  22075551.841
 04 12 12  0 31  0.0000000  0  9G 2G 4G 5G 6G10G13G17G24G30
 106581251.13749  20281720.901    83050356.04749  20281718.778
 117080344.37347  22279635.268    91231478.57548  22279635.226
 115644202.58148  22006350.413    90112385.25249  22006350.541
 129368626.72746  24618028.538
 108752910.31049  20694977.196    84742557.90349  20694977.447
 125865167.42745  23951341.467    98076724.32846  23951340.665
 111571008.72649  21231240.461    86938487.07749  21231241.055
 111642631.74649  21244871.141    86994319.59649  21244871.829
 115999771.78447  22074016.135    90389458.79348  22074016.446
 04 12 12  0 31 30.0000000  0  9G 2G 4G 5G 6G10G13G17G24G30
 106591351.77149  20283642.976    83058226.67649  20283640.858
 117151549.92347  22293185.216    91286963.42248  22293185.185
 115692299.91348  22015503.049    90149863.67849  22015503.155
 129270247.30745  24599307.747
 108691951.43749  20683377.078    84695057.51649  20683377.322
 125886372.84345  23955376.646    98093248.07146  23955375.878
 111538597.17949  21225072.743    86913231.33749  21225073.323
 111685066.66249  21252946.243    87027385.76549  21252946.925
 115992311.50548  22072596.473    90383645.61448  22072596.786
 04 12 12  0 32  0.0000000  0  9G 2G 4G 5G 6G10G13G17G24G30
 106601917.79949  20285653.612    83066459.96049  20285651.495
 117223018.13048  22306785.164    91342652.94048  22306785.111
 115741046.39248  22024779.208    90187847.94449  22024779.301
 129172047.48045  24580621.090
 108631673.56649  20671906.545    84648087.78649  20671906.788
 125908318.08344  23959552.645    98110348.27746  23959551.870
 111506556.27349  21218975.543    86888264.42449  21218976.117
 111727832.74949  21261084.365    87060709.99149  21261085.041
 115985619.72947  22071323.064    90378431.25348  22071323.378
 04 12 12  0 32 30.0000000  0  9G 2G 4G 5G 6G10G13G17G24G30
 106612646.31549  20287695.169    83074819.85349  20287693.051
 117294445.71347  22320377.381    91398310.81248  22320377.302
 115790137.17448  22034120.891    90226100.48549  22034120.993
 129073726.27344  24561911.276
 108571775.26949  20660508.254    84601413.81149  20660508.496
 125930700.01045  23963811.778    98127788.75646  23963810.952
 111474583.47649  21212891.316    86863350.56449  21212891.883
 111770626.93849  21269227.804    87094056.13749  21269228.473
 115979393.78547  22070138.301    90373579.88648  22070138.617
 04 12 12  0 33  0.0000000  0  9G 2G 4G 5G 6G10G13G17G24G30
 106623541.59449  20289768.454    83083309.70149  20289766.328
 117365836.71447  22333962.642    91453940.15748  22333962.579
 115839574.80748  22043528.577    90264623.29849  22043528.703
 128975289.64845  24543179.076
 108512262.37849  20649183.298    84555040.16349  20649183.532
 125953522.97045  23968154.777    98145572.96346  23968153.899
 111442683.36348  21206820.921    86838493.34449  21206821.473
 111813452.92249  21277377.318    87127427.02649  21277377.992
 115973638.09747  22069043.036    90369094.94048  22069043.340
 04 12 12  0 33 30.0000000  0  9G 2G 4G 5G 6G10G13G17G24G30
 106634914.67049  20291932.667    83092171.85149  20291930.540
 117437501.94748  22347600.071    91509783.21248  22347600.000
 115889668.77648  22053061.154    90303657.55449  22053061.282
 128877051.27945  24524484.775
 108453448.11349  20637991.286    84509210.90149  20637991.512
 125977098.17845  23972640.978    98163943.26846  23972640.100
 111411167.33849  21200823.591    86813935.44349  21200824.129
 111856621.64348  21285592.035    87161065.01149  21285592.701
 115968664.17147  22068096.493    90365219.18548  22068096.787
 04 12 12  0 34  0.0000000  0  9G 2G 4G 5G 6G10G13G17G24G30
 106646613.13849  20294158.805    83101287.55449  20294156.673
 117509288.84948  22361260.676    91565721.04748  22361260.637
 115940264.71048  22062689.264    90343082.93549  22062689.401
 128778860.28545  24505799.930   100347159.50547  24505801.461
 108395181.65749  20626903.530    84463808.49649  20626903.743
 126001273.05345  23977241.268    98182780.89346  23977240.357
 111379883.33649  21194870.449    86789558.29449  21194870.981
 111899980.34149  21293842.915    87194851.01649  21293843.566
 115964319.54347  22067269.714    90361833.77448  22067270.020
 04 12 12  0 34 30.0000000  0  9G 2G 4G 5G 6G10G13G17G24G30
 106658483.19949  20296417.597    83110536.95449  20296415.471
 117581043.20047  22374915.069    91621633.54248  22374915.008
 115991206.93748  22072383.260    90382778.17049  22072383.390
 128680565.05945  24487095.184   100270565.84447  24487096.560
 108337310.75749  20615891.040    84418714.32349  20615891.247
 126025893.68745  23981926.431    98201965.81247  23981925.495
 111348677.54749  21188932.179    86765242.11149  21188932.705
 111943375.19448  21302100.669    87228665.19949  21302101.304
 115960451.04547  22066533.534    90358819.38248  22066533.852
 04 12 12  0 35  0.0000000  0  9G 2G 4G 5G 6G10G13G17G24G30
 106670830.91249  20298767.282    83120158.56149  20298765.150
 117653071.07547  22388621.536    91677759.13848  22388621.498
 116042799.83148  22082201.079    90422980.40749  22082201.202
 128582473.75745  24468428.899   100194131.12846  24468430.345
 108280142.93449  20605012.347    84374167.99949  20605012.534
 126051266.28244  23986754.669    98221736.66747  23986753.755
 111317856.62649  21183067.147    86741225.81849  21183067.673
 111987111.97749  21310423.508    87262745.80149  21310424.135
 115957364.69347  22065946.197    90356414.45048  22065946.543
 04 12 12  0 35 30.0000000  0  9G 2G 4G 5G 6G10G13G17G24G30
 106683190.95149  20301119.314    83129789.76949  20301117.174
 117724906.80047  22402291.414    91733735.04748  22402291.341
 116094576.14548  22092053.796    90463325.57649  22092053.920
 128484122.98945  24449713.305   100117494.20947  24449714.857
 108223214.62149  20594179.232    84329808.30249  20594179.405
 126076925.07745  23991637.346    98241730.55347  23991636.458
 111286955.47449  21177186.847    86717147.00049  21177187.372
 112030725.06249  21318722.802    87296730.02149  21318723.421
 115954595.35247  22065419.185    90354256.53448  22065419.550
 04 12 12  0 36  0.0000000  0  9G 2G 4G 5G 6G10G13G17G24G30
 106696019.93549  20303560.582    83139786.39149  20303558.436
 117797007.22347  22416011.674    91789917.19348  22416011.610
 116146990.66148  22102027.958    90504168.04649  22102028.084
 128385971.63045  24431035.711   100041012.65046  24431037.226
 108166984.36349  20583478.946    84285992.54449  20583479.104
 126103326.94845  23996661.449    98262303.44347  23996660.583
 111256431.38849  21171378.301    86693362.01249  21171378.813
 112074671.04549  21327085.433    87330973.66049  21327086.044
 115952600.14047  22065039.491    90352701.82548  22065039.867
 04 12 12  0 36 30.0000000  0  9G 2G 4G 5G 6G10G13G17G24G30
 106709003.71349  20306031.313    83149903.63349  20306029.147
 117869057.59548  22429722.404    91846060.33548  22429722.339
 116199727.57148  22112063.471    90545261.72049  22112063.594
 128287707.52745  24412336.549    99964443.21446  24412338.012
 108111139.31649  20572851.969    84242476.95749  20572852.107
 126130157.63245  24001767.152    98283210.48947  24001766.274
 111225970.22449  21165581.722    86669626.04649  21165582.240
 112118635.41649  21335451.580    87365231.61749  21335452.180
 115951064.80747  22064747.297    90351505.48948  22064747.671
 04 12 12  0 37  0.0000000  0  9G 2G 4G 5G 6G10G13G17G24G30
 106722443.01349  20308588.721    83160375.82049  20308586.554
 117941358.48948  22443480.807    91902398.69548  22443480.749
 116253085.58448  22122217.181    90586839.38549  22122217.292
 128189633.29545  24393673.684    99888021.74547  24393675.002
 108055981.39749  20562355.742    84199496.79149  20562355.866
 126157717.35645  24007011.522    98304685.69447  24007010.625
 111195872.97849  21159854.401    86646173.65749  21159854.912
 112162918.71348  21343878.411    87399738.08949  21343879.005
 115950290.06047  22064599.844    90350901.81248  22064600.217
 04 12 12  0 37 30.0000000  0  9G 2G 4G 5G 6G10G13G17G24G30
 106736175.72049  20311201.962    83171076.63849  20311199.788
 118013747.53148  22457255.989    91958805.74648  22457255.927
 116306900.49248  22132457.841    90628773.05949  22132457.954
 128091588.85845  24375016.478    99811623.53347  24375017.717
 108001350.43449  20551959.786    84156927.24049  20551959.908
 126185843.96945  24012363.868    98326602.52146  24012362.953
 111165977.93649  21154165.539    86622878.84649  21154166.043
 112207358.50849  21352335.035    87434366.49449  21352335.631
 115950113.76347  22064566.272    90350764.45948  22064566.643
 04 12 12  0 38  0.0000000  0  9G 2G 4G 5G 6G10G13G17G24G30
 106750193.27349  20313869.414    83181999.41849  20313867.227
 118086216.35147  22471046.335    92015274.96548  22471046.257
 116361162.25748  22142783.517    90671054.94949  22142783.623
 127993568.22045  24356363.711    99735243.92747  24356364.892
 107947239.70649  20541662.832    84114763.06249  20541662.947
 126214528.79845  24017822.416    98348954.36447  24017821.471
 111136277.16249  21148513.664    86599735.40149  21148514.146
 112251946.24849  21360819.806    87469110.19249  21360820.389
 115950527.78447  22064645.040    90351087.09148  22064645.403
 04 12 12  0 38 30.0000000  0  9G 2G 4G 5G 6G10G13G17G24G30
 106764334.64249  20316560.427    83193018.67549  20316558.227
 118158603.56547  22484821.152    92071680.58348  22484821.108
 116415707.96048  22153163.237    90713558.06749  22153163.349
 127895412.01345  24337685.081    99658758.63546  24337686.349
 107893489.42349  20531434.470    84072879.76049  20531434.572
 126243610.55545  24023356.461    98371615.52046  24023355.488
 111106609.89648  21142868.159    86576618.06549  21142868.642
 112296520.69449  21369302.035    87503843.54449  21369302.598
 115951371.03247  22064805.498    90351744.17448  22064805.854
 04 12 12  0 39  0.0000000  0  9G 2G 4G 5G 6G10G13G17G24G30
 106778748.17349  20319303.219    83204250.00749  20319301.018
 118231057.17447  22498608.592    92128137.96148  22498608.530
 116470683.32548  22163624.708    90756396.01049  22163624.812
 127797270.53745  24319009.385    99582284.76047  24319010.625
 107840249.09849  20521303.155    84031393.82049  20521303.243
 126273237.07045  24028994.187    98394701.16047  24028993.183
 111077124.34049  21137257.232    86553642.32449  21137257.708
 112341229.71349  21377809.872    87538681.75049  21377810.436
 115952791.62547  22065075.804    90352851.14648  22065076.172
 04 12 12  0 39 30.0000000  0  9G 2G 4G 5G 6G10G13G17G24G30
 106793736.59749  20322155.415    83215929.31049  20322153.200
 118303879.91747  22512466.305    92184882.93448  22512466.286
 116526389.64448  22174225.285    90799803.51049  22174225.398
 127699448.97945  24300394.556    99506060.17946  24300395.713
 107787822.99649  20511326.794    83990542.33049  20511326.869
 126303710.98346  24034793.174    98418447.08847  24034792.151
 111048123.97849  21131738.659    86531044.63349  21131739.136
 112386376.33749  21386400.995    87573860.92849  21386401.550
 115955092.46548  22065513.628    90354644.01048  22065514.015
 04 12 12  0 40  0.0000000  0  9G 2G 4G 5G 6G10G13G17G24G30
 106808680.27349  20324999.108    83227573.73149  20324996.879
 118376451.83747  22526276.264    92241432.50348  22526276.230
 116582204.91148  22184846.578    90843295.91949  22184846.696
 127601329.62945  24281722.987    99429603.62246  24281724.103
 107735592.78549  20501387.691    83949843.49649  20501387.760
 126334412.24645  24040635.400    98442370.18847  24040634.386
 111018989.22449  21126194.488    86508342.24549  21126194.966
 112431340.65849  21394957.415    87608898.06749  21394957.962
 115957653.53847  22066000.960    90356639.67048  22066001.361
 04 12 12  0 40 30.0000000  0  9G 2G 4G 5G 6G10G13G17G24G30
 106824192.48449  20327950.977    83239661.17849  20327948.749
 118449386.21747  22540155.251    92298264.44448  22540155.254
 116638740.81748  22195605.021    90887349.85849  22195605.133
 127503527.94645  24263111.904    99353394.56847  24263113.005
 107684173.47249  20491602.903    83909776.52849  20491602.951
 126365953.85746  24046637.569    98466948.07247  24046636.564
 110990333.90549  21120741.562    86486013.43349  21120742.027
 112476735.60249  21403595.780    87644270.75649  21403596.334
 115961088.27147  22066654.556    90359316.09448  22066654.948
 04 12 12  0 41  0.0000000  0  9G 2G 4G 5G 6G10G13G17G24G30
 106839809.48849  20330922.794    83251830.27449  20330920.559
 118522219.14147  22554014.872    92355017.40548  22554014.861
 116695531.62048  22206411.963    90931602.41549  22206412.082
 127405582.38045  24244473.465    99277073.35347  24244474.554
 107633102.69149  20481884.439    83869981.14049  20481884.481
 126397871.50345  24052711.277    98491818.98746  24052710.287
 110961694.72649  21115291.695    86463697.20549  21115292.153
 112522097.49449  21412227.855    87679617.68149  21412228.422
 115964932.89347  22067386.157    90362311.90848  22067386.556
 04 12 12  0 41 30.0000000  0  9G 2G 4G 5G 6G10G13G17G24G30
 106855838.60249  20333973.040    83264320.49849  20333970.800
 118595257.82947  22567913.684    92411930.65948  22567913.674
 116752882.33548  22217325.453    90976291.27349  22217325.573
 127307802.17045  24225866.450    99200881.05146  24225867.547
 107582689.01949  20472291.013    83830697.78749  20472291.047
 126430472.30346  24058914.986    98517222.25947  24058913.988
 110933379.17749  21109903.420    86441633.15649  21109903.872
 112567733.40249  21420912.067    87715178.14149  21420912.626
 115969494.37547  22068254.161    90365866.32748  22068254.567
 04 12 12  0 42  0.0000000  0  9G 2G 4G 5G 6G10G13G17G24G30
 106872125.82649  20337072.401    83277011.84049  20337070.155
 118668348.08747  22581822.291    92468884.10548  22581822.303
 116810636.75248  22228315.771    91021294.70249  22228315.893
 127210035.61845  24207262.076    99124699.32847  24207263.200
 107532779.69649  20462793.572    83791807.42749  20462793.593
 126463601.71746  24065219.291    98543037.42247  24065218.307
 110905233.52449  21104547.462    86419701.50749  21104547.901
 112613488.99848  21429619.062    87750831.86449  21429619.622
 115974618.62447  22069229.273    90369859.24548  22069229.693
 04 12 12  0 42 30.0000000  0  9G 2G 4G 5G 6G10G13G17G24G30
 106888672.49249  20340221.121    83289905.35749  20340218.868
 118741491.20447  22595740.970    92525878.72648  22595741.017
 116868794.17348  22239382.772    91066612.16749  22239382.896
 127112286.16745  24188660.950    99048530.98647  24188662.060
 107483377.49449  20453392.640    83753312.22549  20453392.649
 126497260.69746  24071624.376    98569265.23147  24071623.406
 110877259.54649  21099224.197    86397903.60449  21099224.631
 112659365.43948  21438349.058    87786579.73849  21438349.618
 115980306.73247  22070311.690    90374291.54248  22070312.090
 04 12 12  0 43  0.0000000  0  9G 2G 4G 5G 6G10G13G17G24G30
 106905480.36549  20343419.553    83303002.41049  20343417.287
 118814688.90147  22609670.040    92582915.88548  22609670.104
 116927354.86548  22250526.531    91112243.85249  22250526.673
 127014558.13744  24170063.918    98972379.30846  24170064.996
 107434485.77849  20444088.844    83715214.81549  20444088.834
 126531450.83946  24078130.562    98595906.89547  24078129.610
 110849459.62749  21093934.031    86376241.35049  21093934.464
 112705364.79349  21447102.444    87822423.39149  21447103.004
 115986560.51648  22071501.739    90379164.61748  22071502.122
 04 12 12  0 43 30.0000000  0  9G 2G 4G 5G 6G10G13G17G24G30
 106922552.43949  20346668.272    83316305.31749  20346666.008
 118887943.75947  22623609.982    92639997.58748  22623610.054
 116986319.08148  22261747.060    91158189.98149  22261747.210
 126916856.11645  24151471.759    98896247.94146  24151472.794
 107386108.14149  20434882.874    83677517.98049  20434882.851
 126566174.30146  24084738.193    98622964.16247  24084737.256
 110821836.60449  21088677.538    86354716.92649  21088677.972
 112751489.48549  21455879.681    87858364.72449  21455880.222
 115993382.23348  22072799.875    90384480.24348  22072800.252
 04 12 12  0 44  0.0000000  0  9G 2G 4G 5G 6G10G13G17G24G30
 106940200.07049  20350026.505    83330056.71949  20350024.249
 118961567.25947  22637620.057    92697366.57248  22637620.108
 117045996.41448  22273103.297    91204691.78049  22273103.447
 126819493.74745  24132944.280    98820381.16347  24132945.298
 107338557.39849  20425834.250    83640465.48249  20425834.222
 126601742.00346  24091506.460    98650679.28447  24091505.556
 110794702.56049  21083514.077    86333573.54249  21083514.511
 112798050.81249  21464740.013    87894646.28449  21464740.534
 116001083.29747  22074265.356    90390481.06648  22074265.722
 04 12 12  0 44 30.0000000  0  9G 2G 4G 5G 6G10G13G17G24G30
 106957657.16449  20353348.473    83343659.66649  20353346.212
 119034793.19847  22651554.495    92754425.74448  22651554.525
 117105618.69548  22284449.052    91251150.68749  22284449.194
 126721707.46746  24114336.116    98744184.14447  24114337.117
 107291069.25349  20416797.539    83603461.75849  20416797.504
 126637387.15845  24098289.508    98678454.71946  24098288.609
 110767291.64349  21078297.953    86312214.39449  21078298.374
 112844282.70648  21473537.656    87930671.13849  21473538.164
 116008897.41148  22075752.333    90396569.99448  22075752.685
 04 12 12  0 45  0.0000000  0  9G 2G 4G 5G 6G10G13G17G24G30
 106975852.57149  20356810.933    83357837.92049  20356808.679
 119108550.14147  22665589.963    92811898.69848  22665589.947
 117166112.76148  22295960.684    91298288.91349  22295960.838
 126624427.87546  24095824.396    98668381.90747  24095825.398
 107244573.39549  20407949.659    83567231.23749  20407949.618
 126674038.12845  24105263.920    98707013.94646  24105263.026
 110740533.01649  21073205.938    86291363.53749  21073206.359
 112891113.86849  21482449.330    87967162.95549  21482449.838
 116017752.77147  22077437.464    90403470.26748  22077437.802
 04 12 12  0 45 30.0000000  0  9G 2G 4G 5G 6G10G13G17G24G30
 106994021.48249  20360268.373    83371995.50249  20360266.128
 119182073.20447  22679580.943    92869189.39348  22679580.889
 117226711.34448  22307492.222    91345508.57049  22307492.391
 126526892.54845  24077264.052    98592380.37747  24077265.040
 107198306.23149  20399145.281    83531178.93349  20399145.239
 126710929.50945  24112284.098    98735760.49946  24112283.205
 110713661.97849  21068092.544    86270425.07449  21068092.965
 112937779.14248  21491329.430    88003525.51649  21491329.932
 116026884.19247  22079175.115    90410585.66448  22079175.432
 04 12 12  0 46  0.0000000  0  9G 2G 4G 5G 6G10G13G17G24G30
 107012477.94049  20363780.509    83386377.17649  20363778.256
 119255676.33647  22693587.165    92926542.49848  22693587.042
 117287726.48948  22319103.012    91393052.82349  22319103.206
 126429417.66645  24058715.098    98516426.02446  24058716.113
 107152582.92949  20390444.414    83495550.40349  20390444.373
 126748374.51645  24119409.599    98764938.47346  24119408.695
 110686993.33149  21063017.663    86249644.31949  21063018.084
 112984592.68748  21500237.740    88040003.61549  21500238.241
