     2.10           OBSERVATION DATA    G (GPS)             RINEX VERSION / TYPE
teqc  2002Mar14                         20041212 00:33:36UTCPGM / RUN BY / DATE
GALB                                                        MARKER NAME
                                                            MARKER NUMBER
                    MSD                                     OBSERVER / AGENCY
80108               LEICA RS500         4.10                REC # / TYPE / VERS
2084                LEIAT303                                ANT # / TYPE
   475546.0224 -4925640.5090  4010733.3612                  APPROX POSITION XYZ
        0.0000        0.0000        0.0000                  ANTENNA: DELTA H/E/N
     1     1                                                WAVELENGTH FACT L1/2
     4    L1    C1    L2    P2                              # / TYPES OF OBSERV
    30.0000                                                 INTERVAL
    13                                                      LEAP SECONDS
Forced Modulo Decimation to 30 seconds                      COMMENT
  2004    12    11     0     0    0.0000000     GPS         TIME OF FIRST OBS
HP-UX 10.20|PA-RISC|cc A.10.32.03|=+|=|                     COMMENT
teqc  2002Mar14                         20041212 00:22:56UTCCOMMENT
     2              Observation Data                        COMMENT
CS 4.3              Leica Inc.          Fri 10 Dec 2004     COMMENT
BIT 2 OF LLI FLAGS DATA COLLECTED UNDER A/S CONDITION       COMMENT
SNR is mapped to RINEX snr flag value [2-9]                 COMMENT
L1&L2:  < 25dBHz -> 1; 25-27dBHz -> 2; 28-31dBHz -> 3       COMMENT
       32-35dBHz -> 4; 36-38dBHz -> 5; 39-41dBHz -> 6       COMMENT
       42-44dBHz -> 7; 45-48dBHz -> 8; 49-55dBHz -> 9       COMMENT
                                                            END OF HEADER
 04 12 11  0  0  0.0000000  0  9G 2G 4G 5G 7G10G13G17G24G30
 106638558.74549  20292624.654    83095017.19349  20292622.456
 112377398.99849  21384687.847    87566851.53149  21384687.670
 113578661.70348  21613293.468    88502857.24649  21613293.201
 122672428.31046  23343771.978    95588951.57847  23343773.234
 114228968.13148  21737041.554    89009598.85349  21737041.983
 125788800.60745  23936811.669    98017251.63946  23936811.362
 114351011.02248  21760262.000    89104721.26849  21760262.439
 109024722.59049  20746702.364    84954384.14349  20746702.954
 118013675.59547  22457251.494    91958727.80848  22457251.669
 04 12 11  0  0 30.0000000  0  9G 2G 4G 5G 7G10G13G17G24G30
 106626898.18149  20290405.717    83085931.04649  20290403.518
 112440182.93048  21396635.244    87615774.06449  21396635.090
 113588932.67748  21615247.975    88510860.59949  21615247.709
 122755646.51746  23359607.894    95653796.91347  23359609.181
 114136487.33548  21719443.008    88937535.93449  21719443.452
 125770650.21845  23933357.753    98003108.47146  23933357.487
 114304271.70048  21751367.791    89068301.03749  21751368.231
 109052819.20649  20752048.984    84976277.60649  20752049.569
 117965516.97847  22448087.202    91921201.63748  22448087.364
 04 12 11  0  1  0.0000000  0  9G 2G 4G 5G 7G10G13G17G24G30
 106615282.59049  20288195.343    83076879.94149  20288193.138
 112502841.93048  21408558.838    87664599.28149  21408558.684
 113599503.08848  21617259.445    88519097.28749  21617259.185
 122838810.28346  23375433.451    95718599.79847  23375434.776
 114044102.32048  21701862.695    88865547.64249  21701863.145
 125752750.68845  23929951.544    97989160.83846  23929951.272
 114257462.14148  21742460.216    89031826.07549  21742460.657
 109080859.54249  20757384.877    84998127.23049  20757385.455
 117917619.04047  22438972.509    91883878.57948  22438972.684
 04 12 11  0  1 30.0000000  0  9G 2G 4G 5G 7G10G13G17G24G30
 106604327.38049  20286110.630    83068343.42249  20286108.426
 112565991.04348  21420575.709    87713806.39049  21420575.555
 113610988.33548  21619445.027    88528046.81549  21619444.766
 122922534.60045  23391365.682    95783839.48747  23391367.020
 113952431.40448  21684418.270    88794115.79249  21684418.719
 125735719.41745  23926710.571    97975889.75246  23926710.283
 114211197.79148  21733656.385    88995775.95549  21733656.827
 109109458.52149  20762827.075    85020412.15549  20762827.653
 117870599.21047  22430024.909    91847239.78248  22430025.070
 04 12 11  0  2  0.0000000  0  9G 2G 4G 5G 7G10G13G17G24G30
 106593416.47649  20284034.354    83059841.42349  20284032.151
 112629013.15248  21432568.417    87762914.52949  21432568.264
 113622771.77448  21621687.353    88537228.70449  21621687.085
 123006203.10046  23407287.322    95849035.65547  23407288.705
 113860860.98848  21666992.981    88722762.26049  21666993.420
 125718942.06745  23923517.930    97962816.51046  23923517.641
 114164862.91048  21724839.133    88959670.87049  21724839.574
 109137999.32549  20768258.216    85042651.75249  20768258.783
 117823843.16747  22421127.518    91810806.52048  22421127.672
 04 12 11  0  2 30.0000000  0  9G 2G 4G 5G 7G10G13G17G24G30
 106583011.26449  20282054.302    83051733.47449  20282052.091
 112692369.33248  21444624.685    87812283.00249  21444624.519
 113635314.91048  21624074.244    88547002.56749  21624073.970
 123090276.59646  23423286.000    95914547.47447  23423287.345
 113769855.43048  21649675.175    88651848.86849  21649675.607
 125702881.99446  23920461.764    97950302.21546  23920461.461
 114118919.28448  21716096.322    88923870.68249  21716096.756
 109166942.73149  20773765.963    85065205.06249  20773766.531
 117777814.44647  22412368.544    91774939.98948  22412368.684
 04 12 11  0  3  0.0000000  0  9G 2G 4G 5G 7G10G13G17G24G30
 106572649.20349  20280082.467    83043659.14549  20280080.243
 112755595.78048  21456656.278    87861550.37149  21456656.114
 113648154.60748  21626517.563    88557007.51549  21626517.295
 123174292.21046  23439273.711    95980014.11348  23439275.066
 113678954.78548  21632377.322    88581017.23749  21632377.754
 125687078.33346  23917454.409    97937987.70446  23917454.086
 114072904.53148  21707339.987    88888015.05649  21707340.408
 109195825.58749  20779262.187    85087711.19249  20779262.750
 117732052.49447  22403660.316    91739281.34848  22403660.465
 04 12 11  0  3 30.0000000  0  9G 2G 4G 5G 7G10G13G17G24G30
 106562791.47249  20278206.615    83035977.78049  20278204.390
 112819153.37448  21468750.880    87911075.77949  21468750.709
 113661751.83548  21629105.054    88567602.73549  21629104.779
 123258710.87846  23455338.079    96045794.83947  23455339.467
 113588623.25448  21615187.774    88510629.06749  21615188.206
 125671993.79746  23914583.947    97926233.50046  23914583.559
 114027280.21948  21698657.952    88852463.67349  21698658.351
 109225108.88249  20784834.607    85110529.35449  20784835.179
 117687020.39847  22395090.987    91704191.40848  22395091.135
 04 12 11  0  4  0.0000000  0  9G 2G 4G 5G 7G10G13G17G24G30
 106553283.64349  20276397.336    83028569.08649  20276395.096
 112882886.61648  21480878.919    87960738.04649  21480878.742
 113675951.62549  21631807.190    88578667.50249  21631806.916
 123343377.48546  23471449.617    96111768.80347  23471451.006
 113498709.02348  21598077.635    88440566.06549  21598078.059
 125657475.85146  23911821.238    97914920.86046  23911820.798
 113981892.13548  21690020.875    88817096.35149  21690021.260
 109254637.39849  20790453.691    85133538.59749  20790454.255
 117642565.55247  22386631.500    91669551.28148  22386631.662
 04 12 11  0  4 30.0000000  0  9G 2G 4G 5G 7G10G13G17G24G30
 106544279.32549  20274683.871    83021552.73549  20274681.631
 112946948.52949  21493069.490    88010656.43349  21493069.299
 113690907.27748  21634653.168    88590321.24049  21634652.901
 123428445.23645  23487637.484    96178055.32647  23487638.867
 113409368.26848  21581076.636    88370949.92049  21581077.063
 125643679.26346  23909195.841    97904170.29447  23909195.354
 113936893.92548  21681457.988    88782032.82849  21681458.366
 109284563.79549  20796148.489    85156857.87349  20796149.053
 117598843.46247  22378311.445    91635482.14048  22378311.615
 04 12 11  0  5  0.0000000  0  9G 2G 4G 5G 7G10G13G17G24G30
 106535162.40049  20272948.984    83014448.63349  20272946.745
 113010722.59248  21505205.285    88060350.51749  21505205.079
 113706002.32648  21637525.660    88602083.61549  21637525.401
 123513297.66446  23503784.387    96244174.07047  23503785.763
 113319987.87848  21564068.096    88301302.87949  21564068.529
 125629989.61546  23906590.776    97893503.08046  23906590.235
 113891670.09548  21672852.167    88746793.50049  21672852.540
 109314271.75749  20801801.720    85180006.94549  20801802.278
 117555239.86047  22370013.943    91601505.32148  22370014.129
 04 12 11  0  5 30.0000000  0  9G 2G 4G 5G 7G10G13G17G24G30
 106526703.14549  20271339.241    83007857.01049  20271336.995
 113074977.93248  21517432.675    88110419.61849  21517432.457
 113722006.59248  21640571.182    88614554.44549  21640570.935
 123598704.66445  23520036.799    96310724.93647  23520038.194
 113231340.59648  21547199.067    88232227.09849  21547199.487
 125617179.05745  23904153.031    97883520.81746  23904152.434
 113846990.96348  21664349.994    88711978.60449  21664350.379
 109344530.58649  20807559.778    85203585.26249  20807560.328
 117512526.99047  22361885.972    91568222.55448  22361886.152
 04 12 11  0  6  0.0000000  0  9G 2G 4G 5G 7G10G13G17G24G30
 106518593.85649  20269796.089    83001538.08749  20269793.850
 113139406.44548  21529693.008    88160623.66349  21529692.782
 113738612.04348  21643731.101    88627493.75549  21643730.847
 123684357.94746  23536336.089    96377467.75547  23536337.450
 113143121.51848  21530411.511    88163484.98149  21530411.929
 125604941.78646  23901824.344    97873985.32646  23901823.670
 113802549.31848  21655893.018    88677348.77249  21655893.397
 109375032.33449  20813364.068    85227352.86449  20813364.604
 117470398.94247  22353869.271    91535395.50348  22353869.451
 04 12 11  0  6 30.0000000  0  9G 2G 4G 5G 7G10G13G17G24G30
 106510527.06649  20268261.030    82995252.28149  20268258.784
 113203699.95548  21541927.644    88210722.51349  21541927.426
 113755510.72248  21646946.818    88640661.54249  21646946.570
 123769949.63646  23552623.723    96444162.48247  23552625.105
 113055025.78748  21513647.439    88094838.97549  21513647.843
 125592971.60746  23899546.525    97864657.92047  23899545.792
 113758037.81248  21647422.742    88642664.50249  21647423.114
 109405468.77749  20819155.930    85251069.57649  20819156.452
 117428549.98047  22345905.673    91502785.93948  22345905.855
 04 12 11  0  7  0.0000000  0  9G 2G 4G 5G 7G10G13G17G24G30
 106503119.22249  20266851.358    82989479.93849  20266849.112
 113268474.24348  21554253.793    88261195.96849  21554253.589
 113773318.19748  21650335.480    88654537.48449  21650335.232
 123856095.50346  23569016.719    96511289.15547  23569018.071
 112967672.49848  21497024.637    88026771.50649  21497025.034
 125581886.46945  23897437.087    97856020.18146  23897436.299
 113714072.96448  21639056.510    88608406.18049  21639056.882
 109436455.83149  20825052.571    85275215.33649  20825053.093
 117387598.20348  22338112.814    91470875.47148  22338112.993
 04 12 11  0  7 30.0000000  0  9G 2G 4G 5G 7G10G13G17G24G30
 106495753.46349  20265449.677    82983740.41249  20265447.423
 113333111.48948  21566553.846    88311562.65949  21566553.650
 113791417.09548  21653779.598    88668640.50749  21653779.357
 123942178.38846  23585397.812    96578366.65247  23585399.172
 112880447.30648  21480426.223    87958803.84449  21480426.598
 125571070.84546  23895378.960    97847592.42446  23895378.155
 113670038.35048  21630676.995    88574093.50449  21630677.368
 109467375.86249  20830936.457    85299308.86749  20830936.972
 117346928.50747  22330373.635    91439184.79048  22330373.797
 04 12 11  0  8  0.0000000  0  9G 2G 4G 5G 7G10G13G17G24G30
 106488735.57249  20264114.217    82978271.92649  20264111.963
 113397917.30348  21578885.982    88362060.70949  21578885.774
 113810113.07248  21657337.330    88683208.79349  21657337.089
 124028503.77846  23601825.053    96645633.15247  23601826.415
 112793659.00548  21463910.940    87891176.61949  21463911.301
 125560832.33746  23893430.607    97839614.41846  23893429.783
 113626240.33748  21622342.487    88539965.20849  21622342.859
 109498534.34249  20836865.713    85323588.21349  20836866.221
 117306848.83347  22322746.738    91407953.87748  22322746.874
 04 12 11  0  8 30.0000000  0  9G 2G 4G 5G 7G10G13G17G24G30
 106482062.79749  20262844.418    82973072.36849  20262842.170
 113462888.45148  21591249.581    88412687.58849  21591249.344
 113829402.69248  21661008.022    88698239.66849  21661007.775
 124115068.20846  23618297.729    96713085.90947  23618299.120
 112707307.27248  21447478.740    87823889.57249  21447479.094
 125551169.56246  23891591.842    97832084.98546  23891591.004
 113582676.28548  21614052.511    88506019.20949  21614052.869
 109529927.72749  20842839.675    85348050.59649  20842840.170
 117267357.87547  22315231.871    91377181.70348  22315231.987
 04 12 11  0  9  0.0000000  0  9G 2G 4G 5G 7G10G13G17G24G30
 106475884.95349  20261668.789    82968258.48849  20261666.540
 113528173.77148  21603672.958    88463559.27749  21603672.715
 113849435.20848  21664820.077    88713849.41449  21664819.842
 124202021.13446  23634844.368    96780841.40847  23634845.736
 112621544.69448  21431158.640    87757061.62149  21431158.980
 125542233.99645  23889891.407    97825122.29746  23889890.499
 113539496.26148  21605835.614    88472372.45249  21605835.964
 109561705.46349  20848886.783    85372812.46649  20848887.279
 117228607.41947  22307857.916    91346986.55348  22307858.023
 04 12 11  0  9 30.0000000  0  9G 2G 4G 5G 7G10G13G17G24G30
 106470043.26149  20260557.140    82963706.52749  20260554.882
 113593613.95748  21616125.817    88514551.62449  21616125.567
 113870051.19148  21668743.180    88729913.81249  21668742.932
 124289203.48846  23651434.630    96848775.68847  23651435.996
 112536215.15448  21414920.945    87690571.10449  21414921.279
 125533868.12946  23888299.465    97818603.40547  23888298.550
 113496541.86948  21597661.659    88438901.50549  21597662.002
 109593708.33149  20854976.720    85397749.77049  20854977.215
 117190440.09047  22300594.903    91317245.80248  22300594.997
 04 12 11  0 10  0.0000000  0  9G 2G 4G 5G 7G10G13G17G24G30
 106464379.20449  20259479.300    82959292.98249  20259477.034
 113659049.64748  21628577.809    88565540.48449  21628577.560
 113891091.30648  21672746.981    88746308.71349  21672746.726
 124376455.70646  23668038.229    96916764.35447  23668039.660
 112451162.48048  21398735.935    87624296.32049  21398736.277
 125525915.13146  23886786.030    97812406.32247  23886785.082
 113453654.55548  21589500.469    88405482.81949  21589500.817
 109625777.19749  20861079.217    85422738.50249  20861079.719
 117152699.03147  22293413.012    91287837.19748  22293413.108
 04 12 11  0 10 30.0000000  0  9G 2G 4G 5G 7G10G13G17G24G30
 106459042.40249  20258463.723    82955134.44849  20258461.455
 113724630.54148  21641057.450    88616642.47149  21641057.187
 113912704.76048  21676859.891    88763150.35449  21676859.650
 124463927.38146  23684683.547    96984924.05646  23684684.986
 112366539.12448  21382632.628    87558356.05849  21382632.976
 125518525.72046  23885379.860    97806648.37646  23885378.918
 113410984.48548  21581380.612    88372233.42749  21581380.961
 109658061.22949  20867222.658    85447894.89549  20867223.159
 117115535.74047  22286341.055    91258878.80848  22286341.158
 04 12 11  0 11  0.0000000  0  9G 2G 4G 5G 7G10G13G17G24G30
 106454029.48849  20257509.797    82951228.28449  20257507.522
 113790352.02148  21653563.820    88667854.02949  21653563.557
 113934887.13948  21681081.063    88780435.32249  21681080.824
 124551614.26946  23701369.813    97053251.52047  23701371.152
 112282344.02648  21366610.810    87492749.52349  21366611.152
 125511697.93046  23884080.569    97801328.04646  23884079.624
 113368528.50048  21573301.501    88339150.84449  21573301.849
 109690556.30549  20873406.265    85473215.73549  20873406.767
 117078948.21847  22279378.669    91230369.06948  22279378.781
 04 12 11  0 11 30.0000000  0  9G 2G 4G 5G 7G10G13G17G24G30
 106449183.37349  20256587.600    82947452.10549  20256585.310
 113856056.33148  21666066.935    88719052.19949  21666066.650
 113957480.87748  21685380.508    88798040.82749  21685380.283
 124639358.96546  23718067.138    97121623.92947  23718068.484
 112198422.89648  21350641.103    87427356.48249  21350641.442
 125505275.78346  23882858.487    97796323.77247  23882857.559
 113326129.72448  21565233.270    88306112.86249  21565233.613
 109723104.95949  20879600.062    85498578.33649  20879600.566
 117042781.05247  22272496.268    91202186.89248  22272496.353
 04 12 11  0 12  0.0000000  0  9G 2G 4G 5G 7G10G13G17G24G30
 106444810.02349  20255755.361    82944044.31749  20255753.071
 113922049.30048  21678624.985    88770475.29049  21678624.687
 113980791.42448  21689816.364    88816204.88349  21689816.139
 124727466.69846  23734833.483    97190279.32647  23734834.787
 112115083.99448  21334782.219    87362417.10449  21334782.537
 125499566.74245  23881772.075    97791875.20946  23881771.137
 113284094.41048  21557234.216    88273358.07149  21557234.566
 109756012.59249  20885862.165    85524220.65349  20885862.682
 117007341.77647  22265752.375    91174571.90048  22265752.444
 04 12 11  0 12 30.0000000  0  9G 2G 4G 5G 7G10G13G17G24G30
 106440754.16249  20254983.563    82940883.90649  20254981.258
 113988174.82048  21691208.259    88822001.67249  21691207.940
 114004662.68048  21694358.907    88834805.87049  21694358.689
 124815781.82745  23751639.382    97259096.19147  23751640.744
 112032174.79148  21319005.087    87297812.56749  21319005.404
 125494417.01346  23880792.114    97787862.45347  23880791.173
 113242267.66948  21549274.846    88240765.80949  21549275.196
 109789123.39749  20892162.930    85550021.29149  20892163.446
 116972476.62146  22259117.750    91147404.27148  22259117.801
 04 12 11  0 13  0.0000000  0  9G 2G 4G 5G 7G10G13G17G24G30
 106437014.99949  20254272.012    82937970.29049  20254269.701
 114054431.82548  21703816.548    88873630.51549  21703816.208
 114029093.10048  21699007.855    88853842.55449  21699007.650
 124904303.11446  23768484.411    97328073.87047  23768485.683
 111949697.19748  21303310.093    87233544.34949  21303310.395
 125489826.86445  23879918.602    97784285.76246  23879917.655
 113200649.02548  21541355.075    88208335.70749  21541355.418
 109822436.31649  20898502.155    85575979.41549  20898502.677
 116938186.55647  22252592.544    91120684.77348  22252592.611
 04 12 11  0 13 30.0000000  0  9G 2G 4G 5G 7G10G13G17G24G30
 106433438.19149  20253591.362    82935183.17249  20253589.043
 114120665.11248  21716420.329    88925240.87149  21716419.969
 114053927.45948  21703733.677    88873193.99449  21703733.477
 124992875.63645  23785339.249    97397091.32847  23785340.581
 111867499.35349  21287668.339    87169494.11349  21287668.627
 125485643.32746  23879122.489    97781025.89546  23879121.517
 113159084.48048  21533445.594    88175947.76549  21533445.929
 109855796.17349  20904850.313    85601974.11549  20904850.833
 116904318.74547  22246147.702    91094294.29048  22246147.770
 04 12 11  0 14  0.0000000  0  9G 2G 4G 5G 7G10G13G17G24G30
 106430331.60449  20253000.186    82932762.46749  20252997.859
 114187182.48348  21729078.164    88977072.59149  21729077.804
 114079472.86648  21708594.800    88893099.50949  21708594.599
 125081806.68846  23802262.379    97466388.13747  23802263.768
 111785891.60049  21272138.876    87105903.69449  21272139.144
 125482175.83346  23878462.600    97778324.01146  23878461.605
 113117882.17548  21525605.050    88143842.08349  21525605.386
 109889510.38149  20911265.902    85628244.93649  20911266.413
 116871182.42448  22239842.064    91068473.79948  22239842.120
 04 12 11  0 14 30.0000000  0  8G 2G 4G 5G 7G10G17G24G30
 106427541.41049  20252469.242    82930588.27949  20252466.907
 114253829.19348  21741760.600    89029005.09949  21741760.245
 114105574.33248  21713561.750    88913438.30549  21713561.541
 125170941.91245  23819224.289    97535844.10247  23819225.700
 111704722.47149  21256692.881    87042655.05749  21256693.143
 113076888.57048  21517804.208    88111899.04349  21517804.539
 109923424.74449  20917719.584    85654671.71949  20917720.088
 116838625.47747  22233646.689    91043104.76248  22233646.734
 04 12 11  0 15  0.0000000  0  9G 2G 4G 5G 7G10G13G17G24G30
 106425067.77549  20251998.513    82928660.77749  20251996.192
 114320604.92248  21754467.598    89081038.13349  21754467.259
 114132231.25548  21718634.388    88934209.92649  21718634.183
 125260280.67946  23836224.939    97605458.66847  23836226.334
 111623994.49749  21241330.840    86979750.17549  21241331.090
 125476931.73646  23877465.234
 113036103.79348  21510043.105    88080118.71349  21510043.435
 109957538.87149  20924211.287    85681254.15949  20924211.784
 116806648.89847  22227561.730    91018187.97748  22227561.770
 04 12 11  0 15 30.0000000  0  9G 2G 4G 5G 7G10G13G17G24G30
 106422910.30149  20251587.959    82926979.63649  20251585.632
 114387508.76148  21767198.963    89133171.00349  21767198.623
 114159442.70348  21723812.560    88955413.64249  21723812.355
 125349822.17845  23853264.215    97675231.12147  23853265.686
 111543709.89649  21226053.165    86917190.77749  21226053.408
 125475156.35445  23877126.587    97772833.56056  23877123.696
 112995527.99948  21502321.777    88048501.21749  21502322.119
 109991851.89549  20930740.820    85707991.59649  20930741.308
 116775254.16947  22221587.494    90993724.57948  22221587.543
 04 12 11  0 16  0.0000000  0  9G 2G 4G 5G 7G10G13G17G24G30
 106421068.93549  20251237.541    82925544.82649  20251235.214
 114454539.91248  21779954.568    89185403.06349  21779954.233
 114187207.25048  21729095.972    88977048.35549  21729095.765
 125439565.51246  23870341.845    97745160.94947  23870343.340
 111463870.99249  21210860.303    86854978.67049  21210860.545
 125473946.97445  23876896.718    97771891.23947  23876894.503
 112955161.23448  21494640.201    88017046.63649  21494640.543
 110026363.33349  20937308.117    85734883.63149  20937308.610
 116744442.35147  22215724.188    90969715.38948  22215724.239
 04 12 11  0 16 30.0000000  0  9G 2G 4G 5G 7G10G13G17G24G30
 106419542.91249  20250947.148    82924355.71849  20250944.814
 114521697.52448  21792734.242    89237733.67249  21792733.910
 114215523.63748  21734484.401    88999113.06349  21734484.215
 125529509.70545  23887457.721    97815247.25447  23887459.239
 111384479.61249  21195752.590    86793115.30549  21195752.826
 125473304.21046  23876774.546    97771390.44046  23876772.271
 112915003.25348  21486998.379    87985754.71849  21486998.722
 110061072.05849  20943912.962    85761929.40249  20943913.449
 116714214.38347  22209971.991    90946161.13648  22209972.042
 04 12 11  0 17  0.0000000  0  9G 2G 4G 5G 7G10G13G17G24G30
 106418331.46949  20250716.607    82923411.75549  20250714.266
 114588980.00648  21805537.667    89290161.58749  21805537.350
 114244390.00048  21739977.481    89021606.32749  21739977.315
 125619653.31645  23904611.498    97885488.98246  23904613.055
 111305537.47548  21180730.371    86731601.98249  21180730.607
 125473228.73845  23876760.131    97771331.63347  23876757.872
 112875053.45548  21479396.168    87954625.02549  21479396.510
 110095976.71549  20950555.097    85789127.84349  20950555.570
 116684570.77047  22204330.970    90923062.25148  22204331.005
 04 12 11  0 17 30.0000000  0  9G 2G 4G 5G 7G10G13G17G24G30
 106417587.14649  20250574.973    82922831.75749  20250572.640
 114656539.70348  21818393.844    89342805.50049  21818393.547
 114273958.07648  21745604.087    89044646.38749  21745603.940
 125710148.27245  23921832.151    97956004.50447  23921833.673
 111227199.63749  21165823.152    86670559.53449  21165823.387
 125473873.61846  23876882.758    97771834.15647  23876880.570
 112835464.98148  21471862.714    87923776.88749  21471863.057
 110131229.48749  20957263.465    85816597.54549  20957263.945
 116655665.50547  22198830.463    90900538.67548  22198830.518
 04 12 11  0 18  0.0000000  0  9G 2G 4G 5G 7G10G13G17G24G30
 106417000.73349  20250463.376    82922374.81449  20250461.042
 114724066.93048  21831243.848    89395424.12149  21831243.543
 114303917.45848  21751305.162    89067991.34449  21751305.040
 125800684.73545  23939060.733    98026552.32647  23939062.324
 111149159.03349  21150972.489    86609748.71149  21150972.709
 125474930.47446  23877083.848    97772657.69747  23877081.741
 112795928.67948  21464339.188    87892969.39749  21464339.531
 110166520.41049  20963979.098    85844096.97849  20963979.572
 116627190.52547  22193411.831    90878350.40148  22193411.899
 04 12 11  0 18 30.0000000  0  9G 2G 4G 5G 7G10G13G17G24G30
 106416724.39449  20250410.778    82922159.50249  20250408.438
 114791713.18448  21844116.502    89448135.48949  21844116.206
 114334419.08848  21757109.435    89091758.82849  21757109.333
 125891414.24845  23956326.039    98097250.58146  23956327.682
 111071570.28049  21136207.829    86549289.96249  21136208.035
 125476552.81046  23877392.497    97773921.94547  23877390.399
 112756596.94548  21456854.590    87862321.31749  21456854.926
 110202001.49049  20970730.923    85871744.58049  20970731.383
 116599299.19647  22188104.275    90856616.90548  22188104.358
 04 12 11  0 19  0.0000000  0  9G 2G 4G 5G 7G10G13G17G24G30
 106416756.45149  20250416.867    82922184.49349  20250414.533
 114859476.26048  21857011.374    89500937.89149  21857011.084
 114365460.48148  21763016.398    89115946.92149  21763016.320
 125982334.51045  23973627.595    98168097.51347  23973629.212
 110994433.94049  21121529.253    86489183.75949  21121529.440
 125478739.82245  23877808.653    97775626.14246  23877806.627
 112717468.38649  21449408.655    87831831.56349  21449408.978
 110237670.57349  20977518.512    85899538.68949  20977518.958
 116571991.16847  22182907.712    90835337.92448  22182907.798
 04 12 11  0 19 30.0000000  0  9G 2G 4G 5G 7G10G13G17G24G30
 106417095.19849  20250481.310    82922448.46649  20250478.991
 114927354.16248  21869928.104    89553829.77149  21869927.806
 114397039.00048  21769025.585    89140553.55249  21769025.518
 126073443.07045  23990965.055    98239091.14447  23990966.673
 110917750.96449  21106936.951    86429430.82349  21106937.110
 125481490.88146  23878332.192    97777769.79146  23878330.181
 112678541.66448  21442001.128    87801499.07249  21442001.451
 110273525.65849  20984341.502    85927477.72749  20984341.949
 116545266.04047  22177822.090    90814513.13948  22177822.172
 04 12 11  0 20  0.0000000  0  9G 2G 4G 5G 7G10G13G17G24G30
 106417739.12149  20250603.833    82922950.23549  20250601.512
 114995344.90348  21882866.300    89606809.58149  21882866.001
 114429152.05148  21775136.477    89165576.71549  21775136.415
 126164738.06244  24008337.956    98310230.03047  24008339.607
 110841521.93449  21092431.025    86370031.61149  21092431.169
 125484805.40645  23878962.884    97780352.56746  23878960.899
 112639815.42348  21434631.752    87771322.80549  21434632.076
 110309564.79349  20991199.515    85955560.17149  20991199.968
 116519123.46247  22172847.316    90794142.31248  22172847.378
 04 12 11  0 20 30.0000000  0  9G 2G 4G 5G 7G10G13G17G24G30
 106418686.69749  20250784.139    82923688.62249  20250781.811
 115063446.57148  21895825.628    89659875.81549  21895825.325
 114461796.98948  21781348.602    89191014.31349  21781348.551
 126256217.03046  24025745.866    98381512.28947  24025747.570
 110765747.71649  21078011.641    86310986.80349  21078011.779
 125488682.69846  23879700.648    97783373.90946  23879698.741
 112601288.53848  21427300.317    87741301.87249  21427300.634
 110345785.76149  20998092.124    85983784.31949  20998092.586
 116493563.07447  22167983.342    90774225.12748  22167983.406
 04 12 11  0 21  0.0000000  0  9G 2G 4G 5G 7G10G13G17G24G30
 106419782.27749  20250992.615    82924542.33749  20250990.282
 115131503.05248  21908776.334    89712906.85649  21908776.039
 114494816.93448  21787632.095    89216744.12849  21787632.050
 126347723.84645  24043159.082    98452816.25246  24043160.779
 110690274.91949  21063649.621    86252176.86249  21063649.752
 125492968.01946  23880516.130    97786713.10947  23880514.239
 112562805.78148  21419977.274    87711315.32849  21419977.584
 110382032.76649  21004989.706    86012028.72949  21004990.175
 116468430.54147  22163200.768    90754641.35048  22163200.824
 04 12 11  0 21 30.0000000  0  9G 2G 4G 5G 7G10G13G17G24G30
 106421332.60449  20251287.626    82925750.39149  20251285.293
 115199820.42048  21921776.697    89766141.17049  21921776.410
 114528517.32148  21794045.071    89243004.16149  21794045.026
 126439564.39245  24060635.775    98524380.27847  24060637.491
 110615412.46949  21049403.741    86193842.51649  21049403.886
 125497968.65245  23881467.647    97790609.76246  23881465.795
 112524673.88649  21412720.998    87681602.18749  21412721.301
 110418611.93648  21011950.473    86040532.01049  21011950.921
 116444033.38347  22158558.138    90735630.58348  22158558.201
 04 12 11  0 22  0.0000000  0  9G 2G 4G 5G 7G10G13G17G24G30
 106423182.38549  20251639.616    82927191.79649  20251637.284
 115268243.27548  21934797.121    89819457.68849  21934796.833
 114562741.95348  21800557.808    89269672.69949  21800557.771
 126531582.92845  24078146.397    98596082.93447  24078148.157
 110541007.53549  21035244.911    86135864.68949  21035245.071
 125503530.28846  23882525.962    97794943.52146  23882524.144
 112486738.11349  21405502.043    87652041.86149  21405502.337
 110455367.53649  21018944.825    86069172.75149  21018945.252
 116420217.67647  22154026.153    90717072.89048  22154026.208
 04 12 11  0 22 30.0000000  0  9G 2G 4G 5G 7G10G13G17G24G30
 106425638.99049  20252107.086    82929106.04549  20252104.748
 115337078.28448  21947895.964    89873095.38249  21947895.675
 114597796.85648  21807228.546    89296988.19549  21807228.517
 126624085.93445  24095749.152    98668163.17246  24095750.910
 110467369.65049  21021232.052    86078484.56349  21021232.212
 125509961.29346  23883749.711    97799954.72047  23883747.960
 112449305.99348  21398378.935    87622873.99349  21398379.215
 110492606.54549  21026031.173    86098190.16649  21026031.594
 116397291.82047  22149663.508    90699208.59148  22149663.563
 04 12 11  0 23  0.0000000  0  9G 2G 4G 5G 7G10G13G17G24G30
 106427931.62449  20252543.354    82930892.52349  20252541.016
 115405554.71548  21960926.590    89926453.63649  21960926.314
 114632910.25548  21813910.422    89324349.26349  21813910.392
 126716302.18344  24113297.344    98740019.92046  24113299.130
 110393730.44849  21007218.954    86021103.39449  21007219.114
 125516491.54746  23884992.348    97805043.25247  23884990.647
 112411607.19249  21391205.074    87593498.32049  21391205.353
 110529557.87149  21033062.788    86126983.41049  21033063.190
 116374486.24347  22145323.721    90681438.03548  22145323.789
 04 12 11  0 23 30.0000000  0  9G 2G 4G 5G 7G10G13G17G24G30
 106430830.12549  20253094.909    82933151.11149  20253092.564
 115474441.55648  21974035.308    89980131.68749  21974035.065
 114668850.64648  21820749.656    89352354.76449  21820749.614
 126809000.85345  24130937.297    98812252.68547  24130939.041
 110320861.78749  20993352.491    85964322.64349  20993352.652
 125523891.84245  23886400.559    97810809.70847  23886398.935
 112374411.82549  21384127.001    87564514.94649  21384127.286
 110566991.23049  21040186.126    86156152.26049  21040186.521
 116352571.85847  22141153.546    90664361.90048  22141153.615
 04 12 11  0 24  0.0000000  0  9G 2G 4G 5G 7G10G13G17G24G30
 106433872.08949  20253673.769    82935521.48149  20253671.432
 115543276.36548  21987134.119    90033769.21649  21987133.874
 114705154.51948  21827658.072    89380643.48149  21827658.030
 126901718.78645  24148581.046    98884500.28547  24148582.879
 110248303.60949  20979545.099    85907783.83849  20979545.252
 125531700.33646  23887886.430    97816894.28547  23887884.836
 112337257.85848  21377056.819    87535563.82049  21377057.110
 110604443.94549  21047313.128    86185336.21749  21047313.511
 116331087.21447  22137065.167    90647620.61348  22137065.222
 04 12 11  0 24 30.0000000  0  9G 2G 4G 5G 7G10G13G17G24G30
 106437365.85049  20254338.604    82938243.90649  20254336.261
 115612366.57548  22000281.537    90087605.75349  22000281.299
 114742128.70848  21834694.032    89409454.53149  21834693.998
 126994763.29244  24166286.874    98957002.41446  24166288.792
 110176366.25649  20965855.846    85851728.80449  20965855.979
 125540225.78846  23889508.734    97823537.52247  23889507.159
 112300453.55349  21370053.168    87506885.17349  21370053.446
 110642223.38949  21054502.317    86214774.75449  21054502.687
 116310341.38547  22133117.337    90631455.06348  22133117.399
 04 12 11  0 25  0.0000000  0  9G 2G 4G 5G 7G10G13G17G24G30
 106441003.39049  20255030.811    82941078.35149  20255028.461
 115681404.23548  22013418.955    90141401.33449  22013418.737
 114779463.80447  21841798.688    89438546.79349  21841798.641
 127087826.07345  24183996.025    99029518.96347  24183997.883
 110104743.95848  20952226.546    85795919.26049  20952226.665
 125549161.32245  23891209.104    97830500.28346  23891207.552
 112263691.34249  21363057.546    87478239.30049  21363057.823
 110680021.30049  21061695.033    86244227.66949  21061695.398
 116290027.46147  22129251.726    90615626.02648  22129251.801
 04 12 11  0 25 30.0000000  0  9G 2G 4G 5G 7G10G13G17G24G30
 106445093.09249  20255809.043    82944265.14949  20255806.687
 115750697.23248  22026604.979    90195395.88449  22026604.757
 114817467.19348  21849030.511    89468159.81149  21849030.458
 127181214.46545  24201767.353    99102289.05147  24201769.219
 110033747.44848  20938716.336    85740597.33649  20938716.441
 125558815.56745  23893046.210    97838023.10746  23893044.680
 112227279.98148  21356128.671    87449866.84249  21356128.941
 110718145.82349  21068949.870    86273935.11249  21068950.236
 116270454.74047  22125527.155    90600374.57448  22125527.226
 04 12 11  0 26  0.0000000  0  9G 2G 4G 5G 7G10G13G17G24G30
 106449481.81449  20256644.195    82947684.92449  20256641.831
 115820092.13247  22039810.408    90249469.81849  22039810.187
 114855984.27047  21856360.078    89498173.09749  21856360.032
 127274774.89545  24219571.370    99175193.16746  24219573.309
 109963225.47849  20925296.421    85685645.18149  20925296.517
 125569036.02346  23894991.074    97845987.12047  23894989.565
 112191066.73548  21349237.513    87421648.73749  21349237.784
 110756443.46749  21076237.676    86303777.42749  21076238.049
 116251471.09847  22121914.682    90585582.13648  22121914.746
 04 12 11  0 26 30.0000000  0  9G 2G 4G 5G 7G10G13G17G24G30
 106454170.48349  20257536.413    82951338.43949  20257534.049
 115889589.38148  22053035.283    90303623.52648  22053035.061
 114895014.63848  21863787.322    89528586.35449  21863787.275
 127368507.36245  24237408.101    99248231.44247  24237410.002
 109893181.03449  20911967.371    85631065.12649  20911967.472
 125579824.23246  23897044.002    97854393.53846  23897042.498
 112155052.59549  21342384.245    87393585.78549  21342384.502
 110794914.70449  21083558.514    86333755.00749  21083558.888
 116233078.23247  22118414.630    90571250.04048  22118414.687
 04 12 11  0 27  0.0000000  0  9G 2G 4G 5G 7G10G13G17G24G30
 106459006.25449  20258456.624    82955106.57649  20258454.267
 115959035.76048  22066250.477    90357737.60348  22066250.240
 114934404.03248  21871282.905    89559279.37349  21871282.839
 127462258.38345  24255248.422    99321284.08346  24255250.379
 109823463.71549  20898700.577    85576739.97649  20898700.670
 125591028.11546  23899176.018    97863123.84647  23899174.552
 112119085.26449  21335539.877    87365559.31149  21335540.128
 110833406.41649  21090883.232    86363748.56949  21090883.599
 116215124.15447  22114998.082    90557259.85448  22114998.117
 04 12 11  0 27 30.0000000  0  9G 2G 4G 5G 7G10G13G17G24G30
 106464298.62049  20259463.716    82959230.51649  20259461.352
 116028740.48447  22079514.845    90412052.97948  22079514.587
 114974460.70748  21878905.448    89590492.35549  21878905.368
 127556336.74845  24273150.922    99394591.92046  24273152.848
 109754385.12449  20885555.322    85522912.54149  20885555.415
 125602957.71246  23901446.110    97872419.66547  23901444.663
 112083474.41148  21328763.363    87337810.58949  21328763.614
 110872227.95349  21098270.725    86393999.11449  21098271.099
 116197919.31347  22111724.104    90543853.49948  22111724.103
 04 12 11  0 28  0.0000000  0  9G 2G 4G 5G 7G10G13G17G24G30
 106470049.52149  20260558.076    82963711.73749  20260555.712
 116098705.36148  22092828.725    90466571.06949  22092828.446
 115015185.00548  21886655.054    89622225.55349  21886654.962
 127650743.73445  24291115.980    99468155.76447  24291117.943
 109685949.36449  20872532.394    85469586.01349  20872532.479
 125615615.41246  23903854.796    97882282.80047  23903853.379
 112048222.45148  21322055.126    87310341.55049  21322055.363
 110911380.73449  21105721.263    86424507.76149  21105721.645
 116181466.50447  22108593.239    90531033.13348  22108593.223
 04 12 11  0 28 30.0000000  0  9G 2G 4G 5G 7G10G13G17G24G30
 106475799.57749  20261652.269    82968192.31149  20261649.891
 116168470.37848  22106104.572    90520933.41548  22106104.286
 115056116.33448  21894444.039    89654120.08849  21894443.933
 127745018.91745  24309056.076    99541616.80647  24309058.109
 109617698.85549  20859544.719    85416403.83849  20859544.802
 125628542.31346  23906314.638    97892355.78447  23906313.259
 112012869.96049  21315327.747    87282794.17749  21315327.983
 110950405.04049  21113147.336    86454916.31349  21113147.732
 116165307.05047  22105518.203    90518441.35148  22105518.166
 04 12 11  0 29  0.0000000  0  9G 2G 4G 5G 7G10G13G17G24G30
 106481859.50149  20262805.428    82972914.33849  20262803.051
 116238346.23847  22119401.506    90575382.13648  22119401.213
 115097564.13348  21902331.311    89686417.05949  21902331.191
 127839472.59444  24327029.942    99615217.15245  24327031.966
 109549946.29949  20846651.806    85363609.68049  20846651.877
 125642049.69746  23908884.996    97902881.00646  23908883.671
 111977728.54148  21308640.563    87255411.25249  21308640.801
 110989611.31649  21120608.048    86485466.65449  21120608.444
 116149752.49447  22102558.257    90506320.94248  22102558.200
 04 12 11  0 29 30.0000000  0  9G 2G 4G 5G 7G10G13G17G24G30
 106488387.18149  20264047.599    82978000.84849  20264045.221
 116308490.12947  22132749.462    90630039.69549  22132749.170
 115139684.27248  21910346.525    89719237.92549  21910346.397
 127934261.73146  24345067.756    99689078.72947  24345069.809
 109482851.47349  20833884.044    85311328.04749  20833884.099
 125656295.44045  23911595.829    97913981.61246  23911594.560
 111942955.85248  21302023.535    87228315.66649  21302023.767
 111029156.97749  21128133.325    86516281.47249  21128133.715
 116134961.30248  22099743.587    90494795.33948  22099743.515
 04 12 11  0 30  0.0000000  0  9G 2G 4G 5G 7G10G13G17G24G30
 106495232.23549  20265350.169    82983334.66049  20265347.784
 116378751.54047  22146119.770    90684788.85549  22146119.458
 115182324.87048  21918460.785    89752464.34149  21918460.657
 128029234.87545  24363140.616    99763083.69446  24363142.714
 109416266.20049  20821213.264    85259443.45949  20821213.299
 125671129.89245  23914418.672    97925540.98346  23914417.401
 111908401.98549  21295448.147    87201390.58549  21295448.379
 111068891.56749  21135694.560    86547243.49349  21135694.957
 116120783.77648  22097045.687    90483747.92348  22097045.623
 04 12 11  0 30 30.0000000  0  9G 2G 4G 5G 7G10G13G17G24G30
 106502243.99149  20266684.450    82988798.37949  20266682.065
 116448979.45548  22159483.710    90739511.90949  22159483.395
 115225334.21248  21926645.208    89785978.09849  21926645.074
 128124241.08945  24381219.697    99837114.46546  24381221.846
 109350041.87949  20808611.165    85207840.13249  20808611.186
 125686402.94545  23917325.007    97937442.10446  23917323.699
 111873916.50349  21288885.772    87174518.78449  21288886.019
 111108664.14949  21143263.031    86578235.11649  21143263.427
 116107069.99948  22094436.037    90473061.88648  22094435.953
 04 12 11  0 31  0.0000000  0  9G 2G 4G 5G 7G10G13G17G24G30
 106509579.55449  20268080.349    82994514.41149  20268077.963
 116519330.72548  22172871.112    90794331.08348  22172870.789
 115268867.98848  21934929.440    89819900.50549  21934929.296
 128219436.35146  24399334.807    99911292.55647  24399336.901
 109284337.39749  20796107.988    85156641.86549  20796108.001
 125702271.83246  23920344.762    97949807.43947  23920343.471
 111839657.00849  21282366.383    87147823.09949  21282366.645
 111148631.12649  21150868.482    86609378.23049  21150868.879
 116093977.90647  22091944.700    90462860.25848  22091944.612
 04 12 11  0 31 30.0000000  0  9G 2G 4G 5G 7G10G13G17G24G30
 106517241.48549  20269538.361    83000484.75349  20269535.982
 116589807.76548  22186282.452    90849248.26248  22186282.118
 115312926.91948  21943313.605    89854232.11349  21943313.471
 128314822.62545  24417486.306    99985619.37446  24417488.475
 109219157.47749  20783704.638    85105852.33849  20783704.649
 125718739.57946  23923478.458    97962639.45347  23923477.180
 111805626.30849  21275890.550    87121305.67349  21275890.811
 111188794.95249  21158511.392    86640674.73049  21158511.781
 116081510.48948  22089572.241    90453145.37748  22089572.131
 04 12 11  0 32  0.0000000  0  9G 2G 4G 5G 7G10G13G17G24G30
 106525231.71249  20271058.832    83006710.92249  20271056.453
 116660412.05148  22199717.983    90904264.60248  22199717.639
 115357511.31748  21951797.752    89888973.18649  21951797.626
 128410400.97945  24435674.251   100060096.03046  24435676.389
 109154505.74349  20771401.798    85055474.39449  20771401.795
 125735808.38445  23926726.520    97975939.84546  23926725.264
 111771826.64449  21269458.664    87094968.29749  21269458.924
 111229157.40448  21166192.111    86672125.98649  21166192.499
 116069670.38948  22087319.157    90443919.31648  22087319.032
 04 12 11  0 32 30.0000000  0  9G 2G 4G 5G 7G10G13G17G24G30
 106533551.70649  20272642.063    83013194.04549  20272639.683
 116731144.62048  22213177.956    90959380.87348  22213177.626
 115402620.93848  21960381.845    89924123.52349  21960381.728
 128506171.78044  24453898.798   100134722.62346  24453900.958
 109090385.66549  20759200.123    85005510.72949  20759200.112
 125753479.76145  23930089.212    97989709.79847  23930087.989
 111738259.57448  21263071.057    87068812.14349  21263071.316
 111269719.44749  21173910.793    86703732.79749  21173911.182
 116058459.31648  22085185.761    90435183.42448  22085185.616
 04 12 11  0 33  0.0000000  0  9G 2G 4G 5G 7G10G13G17G24G30
 106542202.02949  20274288.164    83019934.55449  20274285.776
 116802006.03148  22226662.434    91014597.57048  22226662.092
 115448255.11948  21969065.771    89959682.59549  21969065.662
 128602135.14646  24472160.115   100209499.13146  24472162.320
 109026799.71349  20747100.089    84955963.26849  20747100.085
 125771754.72145  23933566.797    98003950.04847  23933565.603
 111704926.26849  21256727.922    87042838.15849  21256728.181
 111310481.50249  21181667.561    86735495.43249  21181667.957
 116047878.69347  22083172.341    90426938.79648  22083172.186
 04 12 11  0 33 30.0000000  0 10G 2G 4G 5G 6G 7G10G13G17G24G30
 106551028.44749  20275967.770    83026812.28349  20275965.380
 116872841.66947  22240142.025    91069794.16248  22240141.702
 115494257.88548  21977819.830    89995528.88849  21977819.731
 129685544.94246  24678337.639   101053656.18546  24678337.211
 128698135.80844  24490428.422   100284304.84746  24490430.678
 108963595.46849  20735072.709    84906713.23549  20735072.686
 125790479.27545  23937129.932    98018540.62446  23937128.779
 111671672.76949  21250399.985    87016926.35349  21250400.238
 111351288.90649  21189432.951    86767293.41549  21189433.349
 116037774.62547  22081249.631    90419065.47848  22081249.471
 04 12 11  0 34  0.0000000  0  9G 2G 4G 5G 6G10G13G17G24G30
 106560183.88649  20277709.986    83033946.40349  20277707.582
 116943804.31348  22253645.756    91125089.74048  22253645.432
 115540780.48348  21986672.804    90031780.23949  21986672.720
 129587153.89045  24659614.694   100976987.69745  24659614.029
 108900927.67349  20723147.406    84857881.21249  20723147.384
 125809806.48746  23940807.742    98033600.80347  23940806.636
 111638652.23748  21244116.375    86991196.08349  21244116.621
 111392294.76049  21197236.100    86799246.03649  21197236.490
 116028300.86648  22079446.817    90411683.35448  22079446.659
 04 12 11  0 34 30.0000000  0  9G 2G 4G 5G 6G10G13G17G24G30
 106569666.73849  20279514.507    83041335.63649  20279512.101
 117014891.92447  22267173.272    91180482.69048  22267172.940
 115587819.65548  21995624.096    90068434.11249  21995623.993
 129488797.90144  24640897.654   100900346.74645  24640897.411
 108838796.62948  20711324.244    84809467.44249  20711324.209
 125829735.15145  23944600.017    98049129.65347  23944598.924
 111605863.34748  21237876.845    86965646.31749  21237877.084
 111433496.77849  21205076.583    86831351.50149  21205076.980
 116019455.90847  22077763.677    90404791.17648  22077763.534
 04 12 11  0 35  0.0000000  0  9G 2G 4G 5G 6G10G13G17G24G30
 106579474.94249  20281380.940    83048978.40049  20281378.534
 117086102.23548  22280724.144    91235971.24248  22280723.812
 115635371.71948  22004672.989    90105487.64249  22004672.866
 129390476.79846  24622187.646   100823732.96947  24622187.751
 108777202.40249  20699603.235    84761471.97349  20699603.187
 125850263.10144  23948506.320    98065125.46346  23948505.265
 111573304.50849  21231681.098    86940275.80249  21231681.330
 111474892.57649  21212953.930    86863607.97649  21212954.334
 116011238.37647  22076199.933    90398387.91048  22076199.791
 04 12 11  0 35 30.0000000  0  9G 2G 4G 5G 6G10G13G17G24G30
 106589606.92549  20283308.980    83056873.46049  20283306.573
 117157433.53247  22294298.015    91291554.08648  22294297.679
 115683433.33648  22013818.828    90142938.23549  22013818.676
 129292191.22645  24603484.589   100747146.89447  24603484.801
 108716144.72749  20687984.316    84713894.60149  20687984.254
 125871388.81544  23952526.392    98081587.02446  23952525.392
 111540974.30449  21225528.865    86915083.43849  21225529.082
 111516480.44649  21220867.827    86896014.12349  21220868.238
 116003647.05147  22074755.369    90392472.58048  22074755.229
 04 12 11  0 36  0.0000000  0  9G 2G 4G 5G 6G10G13G17G24G30
 106599907.78249  20285269.156    83064900.10949  20285266.747
 117228730.36747  22307865.345    91347110.07448  22307864.996
 115731847.60948  22023031.788    90180663.61849  22023031.622
 129193787.93846  24584759.083   100670469.05547  24584759.374
 108655470.45549  20676438.350    84666615.98649  20676438.295
 125892957.92245  23956630.779    98098394.17746  23956629.801
 111508718.01749  21219390.679    86889948.69649  21219390.891
 111558104.84749  21228788.687    86928448.72549  21228789.099
 115996527.11147  22073400.484    90386924.59248  22073400.339
 04 12 11  0 36 30.0000000  0  9G 2G 4G 5G 6G10G13G17G24G30
 106610529.86749  20287290.466    83073177.06149  20287288.056
 117300145.22848  22321455.135    91402758.03448  22321454.758
 115780765.52548  22032340.576    90218781.45749  22032340.418
 129095421.50744  24566040.669   100593819.87546  24566040.884
 108595333.86549  20664994.719    84619756.32249  20664994.663
 125915122.37945  23960848.535    98115665.17046  23960847.531
 111476688.66549  21213295.696    86864990.76749  21213295.894
 111599918.55649  21236745.577    86961030.83749  21236745.984
 115990031.68747  22072164.464    90381863.20248  22072164.342
 04 12 11  0 37  0.0000000  0  9G 2G 4G 5G 6G10G13G17G24G30
 106621470.91549  20289372.466    83081702.56149  20289370.062
 117371675.40947  22335066.870    91458495.83048  22335066.520
 115830182.80148  22041744.406    90257288.38149  22041744.279
 128997091.55244  24547328.922   100517199.20346  24547329.181
 108535734.45049  20653653.298    84573315.24649  20653653.240
 125937879.97845  23965179.151    98133398.37246  23965178.130
 111444884.16849  21207243.472    86840208.08449  21207243.649
 111641918.91949  21244737.962    86993758.41649  21244738.370
 115984158.69047  22071046.887    90377286.83548  22071046.761
 04 12 11  0 37 30.0000000  0  9G 2G 4G 5G 6G10G13G17G24G30
 106632727.69549  20291514.561    83090474.07749  20291512.149
 117443317.66747  22348699.933    91514320.97848  22348699.576
 115880094.96148  22051242.393    90296180.95849  22051242.281
 128898797.10045  24528624.057   100440606.09346  24528624.331
 108476670.74649  20642413.831    84527291.60649  20642413.759
 125961227.74245  23969622.011    98151591.50246  23969620.994
 111413301.68249  21201233.537    86815598.34949  21201233.700
 111684102.48248  21252765.222    87026628.73449  21252765.629
 115978905.11047  22070047.176    90373193.13648  22070047.031
 04 12 11  0 38  0.0000000  0  9G 2G 4G 5G 6G10G13G17G24G30
 106644296.53049  20293716.037    83099488.75949  20293713.618
 117515067.59647  22362353.496    91570230.01048  22362353.171
 115930496.05248  22060833.431    90335454.51049  22060833.322
 128800536.20045  24509925.593   100364039.22347  24509925.858
 108418140.42449  20631275.869    84481683.57749  20631275.790
 125985161.93645  23974176.542    98170241.53646  23974175.492
 111381937.46949  21195265.114    86791158.71649  21195265.277
 111726464.90049  21260826.522    87059638.42149  21260826.917
 115974267.44847  22069164.653    90369579.37448  22069164.497
 04 12 11  0 38 30.0000000  0  9G 2G 4G 5G 6G10G13G17G24G30
 106656172.44749  20295975.948    83108742.72649  20295973.532
 117586920.60547  22376026.663    91626219.37548  22376026.322
 115981379.46448  22070516.252    90375103.88749  22070516.143
 128702306.11145  24491233.065   100287496.29447  24491233.308
 108360140.61049  20620238.854    84436488.95149  20620238.762
 126009677.40945  23978841.706    98189344.49147  23978840.622
 111350787.36749  21189337.434    86766885.92449  21189337.598
 111769001.37449  21268920.943    87092783.71849  21268921.337
 115970241.10947  22068398.466    90366441.95048  22068398.337
 04 12 11  0 39  0.0000000  0  9G 2G 4G 5G 6G10G13G17G24G30
 106668504.83049  20298322.717    83118352.37949  20298320.299
 117659025.86648  22389747.844    91682405.28648  22389747.526
 116032892.99248  22080318.962    90415244.28449  22080318.846
 128604258.24144  24472575.128   100211095.41546  24472575.380
 108302822.67149  20609331.595    84391825.64449  20609331.496
 126034923.76745  23983645.916    98209017.00847  23983644.828
 111320001.04649  21183479.010    86742896.55849  21183479.180
 111811861.22548  21277076.890    87126181.02149  21277077.277
 115966976.04347  22067777.115    90363897.76148  22067777.013
 04 12 11  0 39 30.0000000  0  9G 2G 4G 5G 6G10G13G17G24G30
 106680673.51849  20300638.341    83127834.47249  20300635.923
 117730762.51648  22403398.887    91738303.98148  22403398.528
 116084414.46148  22090123.190    90455390.86849  22090123.075
 128505774.26245  24453834.226   100134354.67947  24453834.531
 108245567.56749  20598436.299    84347211.30049  20598436.179
 126060280.51845  23988471.110    98228775.53146  23988470.069
 111288958.35049  21177571.782    86718707.45649  21177571.939
 111854423.80649  21285176.256    87159346.68749  21285176.640
 115963851.88747  22067182.589    90361463.34548  22067182.526
 04 12 11  0 40  0.0000000  0  9G 2G 4G 5G 6G10G13G17G24G30
 106693444.88149  20303068.645    83137786.19749  20303066.213
 117802897.19947  22417125.655    91794512.83848  22417125.290
 116136708.35948  22100074.406    90496139.34649  22100074.292
 128407622.88345  24435156.628   100057873.11746  24435156.953
 108189143.21549  20587699.084    84303244.30449  20587698.944
 126086514.08545  23993463.215    98249217.24347  23993462.213
 111258426.33649  21171761.721    86694916.29149  21171761.863
 111897455.15948  21293364.844    87192877.61149  21293365.227
 115961635.20347  22066760.751    90359736.06248  22066760.698
 04 12 11  0 40 30.0000000  0  9G 2G 4G 5G 6G10G13G17G24G30
 106706508.18749  20305554.509    83147965.39649  20305552.078
 117875118.82947  22430868.974    91850789.42948  22430868.600
 116189462.17548  22110113.135    90537246.19949  22110113.021
 128309495.27145  24416483.599    99981409.94146  24416483.941
 108133240.41249  20577061.122    84259683.70249  20577060.962
 126113313.53145  23998562.986    98270099.91047  23998562.019
 111228094.31449  21165989.717    86671280.97649  21165989.840
 111940644.55949  21301583.514    87226531.68949  21301583.881
 115960015.53848  22066452.545    90358473.96948  22066452.498
 04 12 11  0 41  0.0000000  0  9G 2G 4G 5G 6G10G13G17G24G30
 106719707.49249  20308066.254    83158250.57549  20308063.816
 117947271.28948  22444599.124    91907012.13648  22444598.752
 116242517.99248  22120209.339    90578588.37649  22120209.225
 128211237.60646  24397785.770    99904845.55546  24397786.036
 108077705.09949  20566493.098    84216409.43949  20566492.930
 126140522.79145  24003740.695    98291301.97747  24003739.719
 111197806.97349  21160226.210    86647680.46949  21160226.332
 111983836.18849  21309802.596    87260187.51149  21309802.954
 115958836.97047  22066228.259    90357555.61348  22066228.211
 04 12 11  0 41 30.0000000  0  9G 2G 4G 5G 6G10G13G17G24G30
 106733349.11449  20310662.156    83168880.42849  20310659.704
 118019660.78847  22458374.400    91963419.53148  22458374.029
 116296180.15748  22130420.939    90620403.02949  22130420.814
 128113158.37345  24379121.906    99828420.22947  24379122.130
 108022845.05349  20556053.560    84173661.37849  20556053.386
 126168447.95745  24009054.653    98313061.88546  24009053.673
 111167870.69049  21154529.524    86624353.49949  21154529.640
 112027335.72849  21318080.289    87294083.25649  21318080.626
 115958405.89247  22066146.215    90357219.70648  22066146.179
 04 12 11  0 42  0.0000000  0  9G 2G 4G 5G 6G10G13G17G24G30
 106747278.03849  20313312.742    83179734.13349  20313310.290
 118092131.78947  22472165.155    92019890.44748  22472164.773
 116350291.80648  22140718.044    90662567.94549  22140717.924
 128015103.97845  24360462.787    99752014.19846  24360463.020
 107968506.72349  20545713.302    84131319.84749  20545713.121
 126196933.64945  24014475.336    98335258.50846  24014474.338
 111138130.72049  21148870.178    86601179.51849  21148870.287
 112070987.60149  21326386.958    87328097.71449  21326387.288
 115958567.24147  22066176.907    90357345.43248  22066176.875
 04 12 11  0 42 30.0000000  0  9G 2G 4G 5G 6G10G13G17G24G30
 106761493.35949  20316017.828    83190811.01349  20316015.369
 118164683.42247  22485971.272    92076424.17148  22485970.917
 116404849.97648  22151100.142    90705080.77649  22151100.022
 127917076.17945  24341808.652    99675628.95746  24341808.933
 107914690.52849  20535472.397    84089385.18349  20535472.202
 126225978.57845  24020002.408    98357890.94446  24020001.364
 111108586.58749  21143248.105    86578158.13249  21143248.206
 112114790.78748  21334722.422    87362230.08049  21334722.738
 115959320.15247  22066320.176    90357932.11548  22066320.141
 04 12 11  0 43  0.0000000  0  9G 2G 4G 5G 6G10G13G17G24G30
 106775994.56449  20318777.309    83202110.66449  20318774.837
 118237315.03147  22499792.584    92133020.25448  22499792.212
 116459852.37348  22161566.768    90747939.76749  22161566.649
 127819076.60145  24323159.917    99599265.67246  24323160.231
 107861397.62149  20525331.082    84047858.26649  20525330.874
 126255582.44745  24025635.825    98380958.91847  24025634.761
 111079238.08949  21137663.265    86555289.18849  21137663.354
 112158744.85448  21343086.602    87396480.00849  21343086.920
 115960664.20547  22066575.934    90358979.42848  22066575.898
 04 12 11  0 43 30.0000000  0  9G 2G 4G 5G 6G10G13G17G24G30
 106790781.93849  20321591.247    83213633.30449  20321588.760
 118310026.78647  22513629.177    92189678.73748  22513628.854
 116515297.36148  22172117.616    90791143.63849  22172117.490
 127721107.80645  24304517.146    99522926.27146  24304517.431
 107808629.81449  20515289.690    84006740.51649  20515289.469
 126285745.24345  24031375.608    98404462.41647  24031374.547
 111050086.00449  21132115.826    86532573.26149  21132115.923
 112202850.14349  21351479.560    87430847.78049  21351479.866
 115962599.69947  22066944.217    90360487.62848  22066944.193
 04 12 11  0 44  0.0000000  0  9G 2G 4G 5G 6G10G13G17G24G30
 106805702.03049  20324430.440    83225259.36149  20324427.939
 118382665.10547  22527451.783    92246280.04248  22527451.440
 116571029.51348  22182723.110    90834571.27249  22182722.978
 127623018.07345  24285851.231    99446492.76546  24285851.489
 107756234.98049  20505319.273    83965913.39249  20505319.046
 126316312.95845  24037192.427    98428281.44346  24037191.389
 111020977.25749  21126576.622    86509891.11749  21126576.719
 112246952.91849  21359872.039    87465213.58349  21359872.338
 115964973.29447  22067395.897    90362337.17048  22067395.885
 04 12 11  0 44 30.0000000  0  9G 2G 4G 5G 6G10G13G17G24G30
 106821063.80749  20327353.683    83237229.58649  20327351.183
 118455538.71047  22541319.205    92303064.63548  22541318.894
 116627355.73948  22193441.652    90878461.82349  22193441.521
 127525118.67945  24267221.608    99370207.50947  24267221.866
 107704523.59149  20495478.911    83925618.82349  20495478.670
 126347594.10645  24043145.044    98452656.34647  24043144.020
 110992220.95449  21121104.485    86487483.60149  21121104.583
 112291361.90049  21368322.781    87499817.99149  21368323.073
 115968093.50547  22067989.653    90364768.50348  22067989.641
 04 12 11  0 45  0.0000000  0  9G 2G 4G 5G 6G10G13G17G24G30
 106836714.00849  20330331.824    83249424.55249  20330329.310
 118528494.40647  22555202.200    92359913.24748  22555201.875
 116684120.94948  22204243.724    90922694.43049  22204243.606
 127427258.26245  24248599.384    99293952.64646  24248599.619
 107653343.88849  20485739.725    83885738.55749  20485739.471
 126379435.26345  24049204.191    98477467.68446  24049203.156
 110963664.30249  21115670.329    86465231.67349  21115670.419
 112335923.96049  21376802.653    87534541.68249  21376802.945
 115971807.23947  22068696.353    90367662.31048  22068696.354
 04 12 11  0 45 30.0000000  0  9G 2G 4G 5G 6G10G13G17G24G30
 106852653.47149  20333364.991    83261844.92349  20333362.484
 118601532.53047  22569100.905    92416826.05348  22569100.609
 116741323.58548  22215129.048    90967267.88749  22215128.930
 127329439.99045  24229985.144    99217730.67546  24229985.366
 107602697.53649  20476102.045    83846273.87649  20476101.778
 126411836.64245  24055369.956    98502715.51547  24055368.950
 110935308.37649  21110274.376    86443136.14849  21110274.467
 112380639.35549  21385311.710    87569384.85149  21385311.995
 115976114.99147  22069516.068    90371019.01648  22069516.080
 04 12 11  0 46  0.0000000  0  9G 2G 4G 5G 6G10G13G17G24G30
 106869036.27549  20336482.529    83274610.75249  20336480.022
 118674807.13547  22583044.610    92473923.14148  22583044.324
 116799115.75448  22226126.550    91012300.73649  22226126.427
 127231820.07445  24211408.692    99141663.18646  24211408.962
 107552740.26749  20466595.481    83807346.15049  20466595.214
 126444952.24646  24061671.640    98528519.91747  24061670.625
 110907307.59249  21104945.992    86421317.38249  21104946.070
