     2.10           OBSERVATION DATA    G (GPS)             RINEX VERSION / TYPE
teqc  2007Feb5      UNAVCO Archive Ops  20070321 07:49:47UTCPGM / RUN BY / DATE
Solaris 5.10|UltraSparc IIIi|cc -xarch=v9 SC5.8|=+-|*Sparc  COMMENT
BIT 2 OF LLI FLAGS DATA COLLECTED UNDER A/S CONDITION       COMMENT
GARL                                                        MARKER NAME
49721S001                                                   MARKER NUMBER
Davis, Jim          Harvard-Smithsonian CfA                 OBSERVER / AGENCY
3609A14796          TRIMBLE 4000SSI     7.19B               REC # / TYPE / VERS
0220062100          TRM29659.00     SCIS                    ANT # / TYPE
 -2384509.0615 -4239524.8940  4114370.6286                  APPROX POSITION XYZ
        0.0884        0.0000        0.0000                  ANTENNA: DELTA H/E/N
     1     1                                                WAVELENGTH FACT L1/2
     7    L1    L2    C1    P2    P1    S1    S2            # / TYPES OF OBSERV
    30.0000                                                 INTERVAL
RINEX file created by UNAVCO GPS Archive.                   COMMENT
For more information contact archive@unavco.org             COMMENT
Monument ID: 11764                                          COMMENT
UNAVCO 4-char name:   GARL                                  COMMENT
4-char name from Log or data file: GARL                     COMMENT
Monument location: 40.416527 -119.355457 1640.2266          COMMENT
Visit ID: 59421                                             COMMENT
                                                            COMMENT
GARL-BRGN-NV1996                                            COMMENT
                                                            COMMENT
End of DB comments                                          COMMENT
 SNR is mapped to RINEX snr flag value [1-9]                COMMENT
  L1: 3 -> 1; 8 -> 5; 40 -> 9                               COMMENT
  L2: 1 -> 1; 5 -> 5; 60 -> 9                               COMMENT
  2003    10    29     0     0   30.0000000     GPS         TIME OF FIRST OBS
                                                            END OF HEADER
 03 10 29  0  0 30.0000000  0  8G28G 9G 4G 8G 7G26G29G11
  31079605.04657  24599886.40556  21719913.4534   21719917.8594
        22.2504         18.5004
  -2738517.32356  -1649263.69256  22478144.8204   22478151.8674
        13.0004         12.2504
  -1771369.16555  -1325216.83055  23324537.7974   23324545.1374
         9.5004          8.7504
  52420899.26054  41180284.11655  23443723.0004   23443731.8984
         7.7504          8.5004
   9164175.27857   7185335.41056  20621906.0004   20621911.1214
        24.7504         25.5004
  21387372.29255  17049920.29555  23169601.9064   23169608.8014
        11.5004         10.2504
  28047309.13655  22016654.93555  23563711.8834   23563719.9614
         9.0004          8.2504
  25019822.26453  19403931.40955  24772136.1024   24772142.2424
         5.5004          5.5004
 03 10 29  0  1  0.0000000  0  8G28G 9G 4G 8G 7G26G29G11
  31204099.24747  24696894.84446  21743603.8594   21743608.1024
        22.0004         18.7504
  -2743314.13746  -1653001.36046  22477231.8364   22477239.4454
        13.2504         12.2504
  -1794552.88645  -1343281.88745  23320126.1094   23320131.7584
         9.5004          9.0004
  52608143.69745  41326188.69845  23479355.3134   23479364.6684
         8.7504          8.0004
   9260231.75347   7260184.61446  20640185.0634   20640190.4654
        24.7504         25.2504
  21536889.49845  17166427.13845  23198052.4224   23198059.7274
        11.0004         10.2504
  28207827.47745  22141734.03045  23594255.4534   23594263.2274
         8.2504          8.2504
  25173140.69743  19523400.20944  24801311.3524   24801322.6174
         5.2504          4.7504
 03 10 29  0  1 30.0000000  0  8G28G 9G 4G 8G 7G26G29G11
  31328792.42247  24794058.32346  21767332.2424   21767336.6844
        22.0004         18.7504
  -2747775.94046  -1656478.01646  22476383.3984   22476390.0904
        14.0004         12.0004
  -1817564.59645  -1361212.87045  23315747.2584   23315757.3524
        10.0004          9.2504
  52795584.36145  41472246.14745  23515023.4844   23515033.4264
         8.7504          9.0004
   9356657.55947   7335321.60346  20658533.9924   20658539.2304
        24.7504         25.5004
  21686742.51545  17283195.65745  23226569.4304   23226577.2974
        11.0004         10.2504
  28368556.84145  22266977.48445  23624843.5864   23624851.7114
         9.0004          8.7504
  25326814.73443  19643146.21244  24830554.4304   24830564.1254
         5.0004          4.7504
 03 10 29  0  2  0.0000000  0  8G28G 9G 4G 8G 7G26G29G11
  31453675.42247  24891369.72446  21791096.7814   21791101.2584
        22.0004         18.5004
  -2751909.06546  -1659698.53046  22475596.7664   22475602.4494
        14.5004         12.5004
  -1840409.85745  -1379014.23045  23311399.5164   23311408.8364
         9.7504          9.5004
  52983209.98945  41618447.81445  23550727.1564   23550736.2424
         8.0004          7.7504
   9453442.34147   7410738.31046  20676951.7584   20676956.8554
        25.0004         25.5004
  21836919.74345  17400216.78545  23255147.4534   23255154.6994
        11.0004         10.5004
  28529484.82644  22392375.81745  23655464.0784   23655473.4574
         7.2504          7.7504
  25480833.14143  19763160.48745  24859862.1414   24859869.5274
         5.0004          5.2504
 03 10 29  0  2 30.0000000  0  8G28G 9G 4G 8G 7G26G29G11
  31578761.19647  24988839.12446  21814900.0314   21814904.1684
        22.0004         18.5004
  -2755698.23346  -1662651.06346  22474875.5554   22474880.7464
        14.5004         12.0004
  -1863072.62245  -1396673.38145  23307086.7344   23307095.5274
        10.0004          9.5004
  53171031.78945  41764802.31745  23586469.2584   23586477.9104
         8.7504          9.0004
   9550597.60247   7486443.70046  20695439.6954   20695445.0744
        25.0004         25.2504
  21987430.76245  17517498.03245  23283788.8754   23283796.6024
        11.0004         10.2504
  28690621.30544  22517936.50845  23686129.5864   23686137.2894
         7.7504          7.7504
  25635206.60543  19883451.40244  24889239.5864   24889245.1174
         5.0004          4.7504
 03 10 29  0  3  0.0000000  0  8G28G 9G 4G 8G 7G26G29G11
  30128629.70847  23858866.51346  21538949.1094   21538953.9614
        22.0004         18.2504
  -4334564.85646  -2892936.68846  22174427.3834   22174432.6334
        13.5004         12.0004
  -3460974.42345  -2641791.50945  23003016.1334   23003025.9224
        10.2504          9.2504
  51783629.72145  40683709.61745  23322455.5084   23322464.8754
        10.5004          9.2504
   8072701.56147   6334836.38746  20414205.5634   20414210.7664
        24.7504         25.2504
  20562854.02945  16407438.14845  23012701.6334   23012709.3134
        11.0004         10.5004
  27276544.62744  21416058.44545  23417040.8594   23417049.2424
         7.5004          7.0004
  24214514.17842  18776418.35544  24618892.4614   24618903.3874
         4.7504          4.5004
 03 10 29  0  3 30.0000000  0  8G28G 9G 4G 8G 7G26G29G11
  30254109.33847  23956642.80546  21562826.9844   21562831.4384
        21.7504         18.0004
  -4337669.80646  -2895356.05946  22173835.7194   22173842.5784
        13.7504         12.2504
  -3483274.22345  -2659167.80845  22998772.5944   22998781.5164
        11.5004         10.0004
  51971825.68745  40830355.65945  23358267.6804   23358276.5434
         9.2504          8.5004
   8170582.55947   6411107.29446  20432831.6484   20432836.8404
        24.7504         25.2504
  20714012.84545  16525224.15445  23041465.8284   23041473.3324
        10.7504          9.7504
  27438077.60945  21541928.13045  23447780.7584   23447788.6254
         8.0004          7.2504
  24369579.61642  18897248.44744  24648399.6254   24648410.7154
         4.7504          4.7504
 03 10 29  0  4  0.0000000  0  8G28G 9G 4G 8G 7G26G29G11
  30379790.50247  24054576.15046  21586743.4304   21586748.1414
        21.7504         18.2504
  -4340424.12346  -2897502.21546  22173312.0944   22173318.6684
        14.5004         12.5004
  -3505383.01746  -2676395.26045  22994565.8284   22994573.4734
        13.0004         10.7504
  52160210.28945  40977148.72145  23394116.9144   23394127.2664
         9.7504          8.7504
   8268829.08247   6487663.01646  20451527.3834   20451532.7034
        24.7504         25.2504
  20865495.68945  16643262.64345  23070292.5394   23070300.7114
        10.5004         10.2504
  27599808.86643  21667952.37245  23478554.9614   23478565.5704
         6.7504          6.7504
  24524992.38442  19018349.19544  24677974.4384   24677978.7624
         4.5004          4.2504
 03 10 29  0  4 30.0000000  0  8G28G 9G 4G 8G 7G26G29G11
  30505667.07047  24152661.74646  21610696.9844   21610701.8594
        21.5004         18.2504
  -4342831.47546  -2899377.99846  22172853.8134   22172859.6254
        14.7504         12.5004
  -3527303.66146  -2693476.12445  22990394.1564   22990402.0944
        12.2504         10.0004
  52348775.47245  41124082.47645  23430000.3754   23430009.2974
         9.5004          8.0004
   8367433.94247   6564497.96746  20470290.9694   20470296.3714
        24.7504         25.2504
  21017293.54545  16761546.58345  23099178.0554   23099184.9494
        10.7504         10.0004
  27761729.09743  21794123.76645  23509367.4534   23509377.9694
         6.5004          6.2504
  24680744.46142  19139714.46245  24707611.7424   24707622.3984
         4.5004          5.5004
 03 10 29  0  5  0.0000000  0  8G28G 9G 4G 8G 7G26G29G11
  30631739.85647  24250900.24946  21634687.4924   21634692.5084
        21.5004         18.0004
  -4344888.50246  -2900980.78646  22172462.4844   22172468.1334
        14.7504         12.5004
  -3549032.23745  -2710407.30245  22986258.8524   22986267.8204
        10.2504          9.2504
  52537520.16545  41271156.12345  23465916.4144   23465928.1724
         8.0004          6.5004
   8466396.39147   6641611.55846  20489123.3524   20489128.4844
        24.7504         25.5004
  21169404.32745  16880074.39445  23128124.4064   23128131.4184
        10.5004          9.7504
  27923836.27644  21920440.95245  23540215.2894   23540223.8134
         7.7504          6.5004
  24836834.33442  19261342.77745  24737315.2344   24737322.1054
         4.5004          5.0004
 03 10 29  0  5 30.0000000  0  8G28G 9G 4G 8G 7G26G29G11
  30758011.48947  24349293.69046  21658716.6884   21658721.4344
        21.2504         17.5004
  -4346589.99046  -2902306.60746  22172138.6884   22172145.7114
        14.5004         13.0004
  -3570562.89745  -2727184.21845  22982161.6254   22982171.2034
         9.5004          8.5004
  52726444.70545  41418369.91345  23501868.0084   23501876.8714
         9.7504          7.2504
   8565717.91147   6719004.94546  20508023.4064   20508028.5164
        24.7504         25.5004
  21321827.69745  16998845.75445  23157129.6564   23157137.0664
        10.7504          9.7504
  28086129.79145  22046903.21945  23571100.2274   23571109.8054
         8.0004          6.7504
  24993262.32142  19383234.61645  24767081.4224   24767096.2034
         4.5004          5.0004
 03 10 29  0  6  0.0000000  0  8G28G 9G 4G 8G 7G26G29G11
  30884484.87647  24447844.35146  21682783.5234   21682788.1414
        21.5004         17.7504
  -4347930.37146  -2903350.97446  22171883.6564   22171890.2074
        14.5004         13.0004
  -3591889.73645  -2743802.30245  22978102.4144   22978111.9454
         9.2504          8.2504
  52915550.08345  41565724.66445  23537853.6724   23537858.0664
         8.7504          5.2504
   8665399.83847   6796679.16546  20526992.2894   20526997.4224
        24.7504         25.2504
  21474563.60745  17117860.64445  23186194.2344   23186202.9574
        10.7504         10.0004
  28248609.51244  22173510.68545  23602017.8524   23602028.2274
         7.0004          6.5004
  25150028.93142  19505390.49845  24796915.5634   24796925.5864
         4.7504          5.0004
 03 10 29  0  6 30.0000000  0  8G28G 9G 4G 8G 7G26G29G11
  31011151.97947  24546545.95746  21706887.3834   21706892.1294
        21.2504         17.5004
  -4348915.09946  -2904118.24146  22171696.1024   22171702.8524
        15.0004         13.5004
  -3613017.20045  -2760265.08545  22974082.2034   22974090.5984
        10.0004          8.2504
  53104826.01943  41713212.27944  23573870.5554   23573874.0594
         5.0004          4.5004
   8765432.87447   6874626.98146  20546027.8524   20546033.0554
        24.7504         25.2504
  21627600.89545  17237110.38145  23215316.5944   23215323.1454
        10.5004          9.7504
  28411264.39844  22300254.57745  23632971.4924   23632983.3324
         7.2504          7.2504
  25307124.02542  19627802.21344  24826809.5234   24826814.8914
         4.5004          4.7504
 03 10 29  0  7  0.0000000  0  8G28G 9G 4G 8G 7G26G29G11
  31138018.77147  24645403.16046  21731029.5084   21731034.3714
        21.2504         17.5004
  -4349535.54446  -2904601.63146  22171578.0864   22171584.2504
        15.7504         13.5004
  -3633936.17245  -2776565.39845  22970102.1644   22970109.6214
        10.7504          8.0004
  53294276.75843  41860835.98345  23609922.1174   23609931.4384
         5.5004          5.5004
   8865821.91047   6952852.19746  20565131.3984   20565136.4844
        24.7504         25.2504
  21780942.84145  17356597.54245  23244495.8674   23244504.2624
        10.2504         10.0004
  28574097.69445  22427137.49945  23663959.9144   23663967.1844
         8.0004          7.2504
  25464551.15542  19750472.77644  24856766.3364   24856774.8954
         4.7504          4.7504
 03 10 29  0  7 30.0000000  0  8G28G 9G 4G 8G 7G26G29G11
  31265088.23747  24744418.29446  21755210.1484   21755214.6604
        21.0004         17.5004
  -4349786.63746  -2904797.24946  22171529.9534   22171535.4734
        15.7504         13.5004
  -3654640.83745  -2792698.71045  22966161.6484   22966171.0864
        10.0004          8.2504
  53483902.73943  42008596.35345  23646008.0784   23646018.1844
         6.7504          7.0004
   8966568.12747   7031355.73946  20584302.8914   20584307.9654
        24.7504         25.2504
  21934589.07945  17476321.78945  23273734.2114   23273742.1134
        10.5004          9.0004
  28737108.21944  22554158.55045  23694976.8204   23694985.7774
         7.2504          7.0004
  25622311.27842  19873402.69544  24886786.5394   24886792.3164
         4.7504          4.5004
 03 10 29  0  8  0.0000000  0  8G28G 9G 4G 8G 7G26G29G11
  31392352.22447  24843585.00846  21779427.7274   21779432.3554
        21.2504         17.5004
  -4349673.92846  -2904709.36146  22171551.4064   22171557.0084
        15.0004         13.0004
  -3675136.24645  -2808668.94545  22962261.1564   22962270.3594
        10.0004          8.5004
  53673693.67645  42156485.22145  23682124.0474   23682135.2544
         8.2504          8.2504
   9067662.00647   7110130.17946  20603540.1414   20603545.3204
        24.7504         25.0004
  22088528.37645  17596274.38945  23303026.8984   23303035.1644
         9.7504          8.5004
  28900285.10244  22681309.20745  23726028.7664   23726039.4924
         7.0004          7.2504
  25780393.64043  19996583.83344  24916869.3284   24916877.0784
         5.0004          4.7504
 03 10 29  0  8 30.0000000  0  8G28G 9G 4G 8G 7G26G29G11
  31519815.58547  24942907.06946  21803683.1884   21803687.6644
        21.0004         17.2504
  -4349189.74646  -2904332.03646  22171643.3914   22171649.1914
        15.0004         13.2504
  -3695413.71845  -2824469.38545  22958402.7274   22958410.1374
        11.5004          9.7504
  53863652.76445  42304505.11045  23718272.0704   23718282.3284
        11.0004         10.5004
   9169107.45447   7189178.57246  20622844.6724   20622849.6884
        24.7504         25.2504
  22242762.99545  17716457.07945  23332377.0784   23332384.8404
        10.0004          9.0004
  29063630.87644  22808591.46345  23757113.3134   23757121.8714
         7.2504          6.5004
  25938801.28343  20120018.44943  24947012.9454   24947014.8794
         5.0004          3.2504
 03 10 29  0  9  0.0000000  0  8G28G 9G 4G 8G 7G26G29G11
  31647480.47247  25042386.17246  21827977.1484   21827981.8134
        21.0004         17.0004
  -4348329.45346  -2903661.61246  22171807.5864   22171813.0474
        15.7504         13.7504
  -3715468.26745  -2840096.07645  22954585.8594   22954593.8094
        11.7504         10.5004
  54053780.05745  42452656.09845  23754452.3284   23754461.7664
        11.7504         11.0004
   9270904.85647   7268501.22246  20642215.9454   20642221.0084
        24.7504         25.2504
  22397291.80445  17836869.06345  23361783.6414   23361791.6604
        10.0004          9.7504
  29227144.06444  22936004.17445  23788228.1884   23788238.5044
         7.0004          6.0004
  26097533.82343  20243706.25545  24977218.6644   24977226.3324
         5.0004          5.0004
 03 10 29  0  9 30.0000000  0  8G28G 9G 4G 8G 7G26G29G11
  31775350.78047  25142025.33746  21852309.8834   21852314.2424
        20.7504         16.7504
  -4347086.60846  -2902693.14746  22172043.6954   22172050.1414
        16.2504         14.2504
  -3735292.76646  -2855543.56345  22950813.3284   22950822.0274
        13.0004         10.7504
  54244077.08945  42600939.32145  23790665.1724   23790673.5084
        10.5004          9.7504
   9373057.19147   7348100.43546  20661655.2274   20661660.4304
        25.0004         25.2504
  22552115.84045  17957511.03145  23391246.4534   23391255.6214
        10.0004          9.2504
  29390825.36544  23063547.91845  23819375.1174   23819385.7734
         7.2504          7.0004
  26256592.72243  20367648.47544  25007484.8134   25007485.4224
         5.0004          4.5004
 03 10 29  0 10  0.0000000  0  8G28G 9G 4G 8G 7G26G29G11
  31903424.46547  25241822.98446  21876681.5474   21876686.1524
        20.5004         17.0004
  -4345460.99746  -2901426.38646  22172352.8914   22172358.8554
        16.0004         13.7504
  -3754885.97746  -2870810.80245  22947084.8524   22947092.8834
        13.5004         11.0004
  54434539.91345  42749351.76145  23826908.5704   23826917.6334
         8.0004          8.0004
   9475560.80747   7427973.38046  20681160.8914   20681166.1294
        24.7504         25.0004
  22707230.09045  18078379.21745  23420760.9924   23420768.7074
         9.5004          9.2504
  29554669.94343  23191218.83145  23850553.4224   23850558.5314
         6.2504          6.0004
  26415973.69242  20491841.41543  25037813.0234   25037818.6604
         4.7504          3.7504
 03 10 29  0 10 30.0000000  0  8G28G 9G 4G 8G 7G26G29G11
  32031696.65947  25341775.31446  21901091.0704   21901095.4064
        20.7504         16.7504
  -4343454.74346  -2899863.01146  22172734.7664   22172740.0274
        15.5004         13.5004
  -3774249.61446  -2885899.17445  22943400.6484   22943409.1484
        14.2504         11.7504
  54625161.69343  42897888.01945  23863182.3674   23863190.7854
         6.2504          7.0004
   9578409.49647   7508115.20846  20700732.0474   20700737.2274
        24.7504         25.0004
  22862626.61345  18199467.26745  23450335.2584   23450342.1174
        10.7504          9.0004
  29718669.94444  23319010.92145  23881762.2664   23881770.8594
         7.0004          7.2504
  26575669.61342  20616279.94744  25068203.8914   25068213.2234
         4.7504          4.0004
 03 10 29  0 11  0.0000000  0  8G28G 9G 4G 8G 7G26G29G11
  32160168.58647  25441883.27546  21925538.4064   21925542.8014
        20.2504         16.7504
  -4341064.22946  -2898000.25746  22173189.6564   22173196.3954
        15.5004         13.5004
  -3793379.27246  -2900805.23745  22939759.5394   22939766.9734
        12.7504         10.5004
  54815941.38142  43046547.26745  23899485.1094   23899496.9494
         4.0004          5.7504
   9681602.95547   7588525.69346  20720369.2114   20720374.4734
        24.7504         25.2504
  23018303.67145  18320773.98745  23479958.0944   23479965.4924
        10.0004          9.0004
  29882823.17143  23446922.36145  23912999.3754   23913009.0124
         6.7504          7.2504
  26735679.57642                  25098652.3594
         4.7504
 03 10 29  0 11 30.0000000  0  8G28G 9G 4G 8G 7G26G29G11
  32288838.32947  25542145.38846  21950023.2114   21950027.6524
        20.2504         16.5004
  -4338288.63646  -2895837.38246  22173717.8204   22173723.3754
        15.7504         13.7504
  -3812273.61445  -2915527.91045  22936164.4064   22936171.6174
        11.5004         10.5004
  -1543593.64651  43195327.81743  23935820.2114   23935834.6994
         3.7504          3.5004
   9785138.12247   7669202.44146  20740071.2194   20740076.4804
        24.7504         25.2504
  23174256.26245  18442295.39145  23509636.5784   23509643.6954
        10.0004          9.0004
  30047125.01843  23574949.57345  23944264.3594   23944275.2624
         6.7504          6.2504
  26895999.18242                  25129157.8594
         4.7504
 03 10 29  0 12  0.0000000  0  8G28G 9G 4G 8G 7G26G29G11
  32417709.87847  25642564.74046  21974547.2274   21974551.3404
        20.5004         16.5004
  -4335121.51146  -2893369.49046  22174319.9534   22174326.4224
        15.7504         14.0004
  -3830925.65245  -2930061.80545  22932614.3674   22932622.4924
        11.0004         10.5004
  -1428911.04353  43344227.39642  23972183.7424   23972185.9924
         6.0004          2.7504
   9889017.35047   7750147.28946  20759838.9224   20759844.0784
        24.5004         25.0004
  23330485.32345  18564032.22245  23539365.2504   23539372.6254
        10.0004          9.2504
  30211576.33144  23703093.32945  23975560.3284   23975568.5704
         7.0004          7.2504
  27056630.20042                  25159726.7974
         4.7504
 03 10 29  0 12 30.0000000  0  8G28G 9G 4G 8G 7G26G29G11
  32546779.23047  25743138.24546  21999107.9534   21999112.3484
        20.2504         16.5004
  -4331564.55646  -2890597.76446  22174996.7584   22175003.4734
        15.7504         14.0004
  -3849336.02545  -2944407.39945  22929111.2344   22929119.5594
        11.2504         10.2504
  -1237671.87445                  24008576.3914
         9.2504
   9993235.25547   7831356.04446  20779671.0634   20779676.3244
        24.7504         25.0004
  23486983.76045  18685978.92345  23569145.0164   23569153.1054
         9.7504          8.5004
  30376169.33743  23831347.41745  24006879.2664   24006887.7774
         6.2504          7.0004
  27217566.33942                  25190352.0394
         4.7504
 03 10 29  0 13  0.0000000  0  8G28G 9G 4G 8G 7G26G29G11
  31100627.40947  24616266.66346  21723914.4614   21723919.2074
        20.0004         16.5004
  -5903038.27746  -4115122.69446  21875955.2814   21875961.9024
        16.0004         14.0004
  -5442925.45245  -4186165.20345  22625860.0314   22625868.0164
        10.0004         10.0004
  -2621702.02345                  23745203.5864
         8.7504
   8522370.81647   6685227.90046  20499774.7344   20499780.1024
        24.7504         25.0004
  22068330.63245  17580534.81045  23299185.5864   23299193.1134
         9.5004          9.2504
  28965483.72743  22732111.74645  23738435.4454   23738442.7854
         6.7504          6.2504
  25803387.18042                  24921242.7814
         4.7504
 03 10 29  0 13 30.0000000  0  8G28G 9G 4G 8G 7G26G29G11
  31230091.08846  24717147.42546  21748550.4844   21748555.2424
        19.7504         16.0004
  -5898695.24946  -4111738.45046  21876782.0944   21876788.3404
        16.2504         14.0004
  -5460844.23245  -4200127.76445  22622450.4614   22622457.3204
        11.0004          9.7504
  -2430171.03445  -2395493.33055  23781650.7194   23781660.9064
         8.2504          7.5004
   8627260.82947   6766960.37146  20519734.7814   20519740.0204
        24.7504         24.7504
  22225357.53745  17702893.32045  23329066.2504   23329073.2624
         9.7504          8.2504
  29130351.00943  22860579.52745  23769809.0784   23769820.3444
         6.5004          6.7504
  25964925.04542                  24951981.6644
         4.5004
 03 10 29  0 14  0.0000000  0  8G28G 9G 4G 8G 7G26G29G11
  31359762.59646  24818190.13346  21773226.2974   21773230.6214
        19.7504         16.0004
  -5893944.79646  -4108036.77046  21877685.7034   21877692.1954
        15.7504         14.0004
  -5478501.70845  -4213886.69745  22619090.3754   22619097.1844
        11.7504          9.0004
  -2238486.58245  -2246128.96445  23818127.2194   23818137.4414
         8.0004          7.2504
   8732495.47847   6848961.39146  20539760.0944   20539765.2734
        24.7504         25.0004
  22382654.85745  17825462.55145  23358999.9454   23359007.8484
         9.7504          8.5004
  29295361.05343  22989158.62445  23801208.1484   23801218.6054
         6.0004          7.0004
  26126770.86342                  24982779.7114
         4.5004
 03 10 29  0 14 30.0000000  0  8G28G 9G 4G 8G 7G26G29G11
  31489626.64246  24919382.87046  21797938.5554   21797943.2544
        19.7504         16.0004
  -5888799.46546  -4104027.37246  21878664.9844   21878671.3014
        15.7504         14.2504
  -5495910.11546  -4227451.58445  22615777.5944   22615783.8754
        12.5004          9.7504
  -2046666.08445  -2096658.62645  23854629.8204   23854640.3364
         8.0004          7.7504
   8838058.01947   6931217.91046  20559847.8754   20559853.0904
        24.7504         25.0004
  22540204.17045  17948228.13745  23388979.8754   23388987.7664
         9.5004          9.0004
  29460495.73943  23117834.83845  23832633.7814   23832641.4734
         6.2504          6.0004
  26288907.21842                  25013634.0084
         4.2504
 03 10 29  0 15  0.0000000  0  8G28G 9G 4G 8G 7G26G29G11
  31619694.73146  25020734.60046  21822689.8364   21822694.3484
        19.7504         16.2504
  -5883245.63246  -4099699.63946  21879722.2034   21879728.1564
        16.5004         14.5004
  -5513054.64746  -4240810.82545  22612515.2114   22612523.4654
        12.7504         10.7504
  -1854700.14643  -1947074.89345  23891159.9304   23891170.1884
         6.2504          7.0004
   8943958.35947   7013737.64946  20580000.0864   20580005.1374
        24.7504         25.0004
  22698013.88045  18071196.63145  23419011.2894   23419018.5944
        10.0004          8.7504
  29625763.68743  23246614.88145  23864081.6644   23864091.2894
         6.0004          6.2504
  26451343.01942                  25044543.3594
         4.2504
 03 10 29  0 15 30.0000000  0  8G28G 9G 4G 8G 7G26G29G11
  31749965.35646  25122244.15646  21847479.6174   21847484.7384
        19.7504         16.2504
  -5877282.22346  -4095052.77046  21880856.4454   21880861.7424
        16.7504         14.5004
  -5529933.87246  -4253963.35745  22609302.5944   22609310.4734
        12.2504         10.7504
  -1662592.43441  -1797380.81245  23927716.7894   23927727.4104
         3.2504          5.2504
   9050193.75447   7096518.46946  20600216.0944   20600221.2384
        24.7504         24.7504
  22856079.43345  18194364.46445  23449089.4924   23449097.0904
         9.5004          8.7504
  29791160.02443  23375494.93845  23895558.3134   23895567.1414
         6.7504          6.2504
  26614074.63642                  25075509.5784
         4.2504
 03 10 29  0 16  0.0000000  0  8G28G 9G 4G 8G 7G26G29G11
  31880436.12746  25223909.65746  21872306.9614   21872311.8014
        19.5004         16.2504
  -5870909.16046  -4090086.69346  21882068.9614   21882074.5044
        16.2504         14.5004
  -5546546.75645  -4266908.33845  22606140.8524   22606149.2114
        11.7504         11.2504
  -1470347.39543  -1647579.73545  23964300.2424   23964309.7274
         6.5004          7.2504
   9156760.38447   7179557.38946  20620495.0234   20620500.2154
        24.7504         24.7504
  23014395.39145  18317727.46745  23479215.4224   23479224.8594
         9.2504          9.0004
  29956679.28243  23504470.84645  23927056.6024   23927067.1644
         6.7504          5.7504
  26777097.46141                  25106532.3284
         3.7504
 03 10 29  0 16 30.0000000  0  8G28G 9G 4G 8G 7G26G29G11
  32011103.41746  25325728.30246  21897172.1884   21897177.0634
        19.5004         16.0004
  -5864127.49646  -4084802.22546  21883359.8524   21883365.5944
        16.2504         14.2504
  -5562893.78746  -4279646.12245  22603031.1254   22603039.2734
        13.0004         11.0004
  -1277970.78944  -1497676.06845  24000908.2274   24000918.6844
         7.7504          8.0004
   9263653.15047   7262850.45246  20640836.2034   20640841.3594
        24.7504         25.0004
  23172955.25445  18441280.48045  23509388.7584   23509396.2384
         9.7504          8.2504
  30122314.90043  23633537.36145  23958573.7734   23958579.3164
         5.7504          5.5004
  26940405.19541                  25137609.9774
         3.7504
 03 10 29  0 17  0.0000000  0  8G28G 9G 4G 8G 7G26G29G11
  32141973.52246  25427704.97646  21922076.1254   21922081.3164
        19.2504         15.7504
  -5856928.76646  -4079192.79846  21884729.6334   21884735.9844
        17.7504         15.2504
  -5578965.70346  -4292169.56445  22599972.0234   22599980.1604
        12.5004         10.7504
  -1085458.51543  -1347666.67645  24037542.3524   24037556.5704
         6.7504          5.7504
   9370876.84047   7346401.36546  20661240.1484   20661245.4804
        24.7504         25.0004
  23331761.99545  18565025.89845  23539609.6024   23539616.3164
         9.5004          8.2504
  30288070.14643  23762697.09145  23990118.1564   23990130.4414
         6.2504          6.0004
  27104001.82142                  25168739.2664
         4.0004
 03 10 29  0 17 30.0000000  0  8G28G 9G 4G 8G 7G26G29G11
  32273044.56246  25529838.21046  21947018.0634   21947022.9384
        19.0004         16.0004
  -5849312.22446  -4073257.73846  21886179.2194   21886184.3054
        18.0004         15.5004
  -5594761.16946  -4304477.61645  22596966.1484   22596973.0204
        12.7504         11.5004
   -892814.62743  -1197554.59943  24074201.1644   24074216.0634
         5.5004          3.5004
   9478428.10047   7430207.53346  20681706.6024   20681711.9104
        24.7504         25.0004
  23490810.70845  18688959.87345  23569875.2344   23569884.4144
         9.2504          8.5004
  30453939.78443  23891945.97345  24021681.3524   24021691.9734
         5.5004          6.7504
  27267883.00241                  25199926.6644
         3.5004
 03 10 29  0 18  0.0000000  0  8G28G 9G 4G 8G 7G26G29G11
  32404315.43046  25632127.15946  21971998.1334   21972002.4104
        19.2504         16.0004
  -5841276.65746  -4066996.20946  21887708.0864   21887713.3484
        17.0004         14.7504
  -5610278.14846  -4316568.63945  22594014.2664   22594021.7934
        13.5004         11.7504
   -700042.42644  -1047342.73045  24110884.0784   24110893.9264
         7.0004          6.2504
   9586304.48947   7514267.04646  20702234.4614   20702239.9804
        24.7504         24.5004
  23650096.98045  18813078.92145  23600185.1174   23600194.1804
         8.7504          8.7504
  30619919.64843  24021280.69845  24053264.8444   24053271.7154
         5.5004          5.5004
  27432045.11141                  25231163.1644
         3.2504
 03 10 29  0 18 30.0000000  0  8G28G 9G 4G 8G 7G26G29G11
  32535777.45646  25734565.07746  21997014.6884   21997019.8324
        18.7504         16.0004
  -5832828.34746  -4060413.04446  21889315.5864   21889321.0594
        17.0004         15.2504
  -5625522.07346  -4328446.87845  22591113.2584   22591120.7274
        14.0004         11.7504
   -507152.49545   -897039.10845  24147590.5474   24147601.4264
         8.0004          6.7504
   9694495.90247   7598572.03146  20722822.8284   20722828.0314
        24.7504         24.5004
  23809609.45145  18937374.23245  23630538.8834   23630546.9964
         8.2504          7.7504
  30785998.39343  24150692.50745  24084866.8444   24084878.7194
         5.0004          6.5004
  27596477.07141                  25262454.2974
         3.2504
 03 10 29  0 19  0.0000000  0  8G28G 9G 4G 8G 7G26G29G11
  32667442.70646  25837161.32246  22022069.5634   22022073.9924
        18.5004         15.7504
  -5823952.85146  -4053497.05246  21891004.6174   21891010.8404
        17.7504         15.7504
  -5640477.69746  -4340100.47745  22588266.7814   22588274.9304
        13.0004         11.0004
   -314135.06443   -746636.11045  24184321.0944   24184331.7034
         6.7504          5.7504
   9803012.96947   7683130.77546  20743473.2114   20743478.5434
        24.7504         24.5004
  23969357.05945  19061852.81845  23660938.3674   23660947.2074
         9.0004          8.5004
  30952184.74443  24280188.15445  24116493.9694   24116506.0554
         6.0004          7.2504
  27761188.64941                  25293797.2344
         3.0004
 03 10 29  0 19 30.0000000  0  8G28G 9G 4G 8G 7G26G29G11
  32799312.00746  25939916.58446  22047163.8984   22047168.5164
        18.5004         15.5004
  -5814646.89246  -4046245.60446  21892775.4304   21892781.8984
        18.0004         16.0004
  -5655141.05146  -4351526.33445  22585476.6174   22585484.0164
        13.5004         11.2504
   -120991.35842   -596134.71245  24221074.7584   24221083.0474
         4.5004          5.0004
   9911854.95647   7767942.70146  20764184.7424   20764190.0274
        24.7504         24.5004
  24129337.33545  19186512.62145  23691383.8594   23691391.0354
         9.2504          8.5004
  31118476.38443  24409765.88245  24148138.8984   24148153.1414
         6.0004          6.2504
  27926178.29041                  25325194.7504
         2.7504
 03 10 29  0 20  0.0000000  0  8G28G 9G 4G 8G 7G26G29G11
  32931381.55246  26042827.87646  22072295.4454   22072300.3204
        18.2504         15.7504
  -5804911.56246  -4038659.59146  21894628.1414   21894634.3874
        17.2504         15.2504
  -5669512.90446  -4362725.05945  22582741.2504   22582748.1564
        13.5004         11.2504
     72272.93242   -445539.36044  24257852.3834   24257859.5704
         4.5004          4.5004
  10021016.78247   7853003.85446  20784957.4844   20784962.8284
        24.7504         24.5004
  24289543.67345  19311348.62845  23721869.5554   23721878.2544
         9.0004          8.2504
  31284866.80343  24539420.53745  24179801.2504   24179811.4614
         5.7504          5.5004
                                  25356643.4534
         2.7504
 03 10 29  0 20 30.0000000  0  8G28G 9G 4G 8G 7G26G29G11
  33063646.97246  26145891.78746  22097464.7974   22097469.4964
        18.5004         15.2504
  -5794748.91446  -4030740.55746  21896561.5314   21896566.7814
        17.0004         14.5004
  -5683594.25146  -4373697.41245  22580061.8054   22580068.3324
        13.5004         11.0004
    265650.92243   -294855.50345  24294651.2734   24294661.1564
         5.7504          5.5004
  10130492.47547   7938309.57746  20805790.4694   20805795.6724
        24.7504         24.2504
  24449968.52045  19436354.89545  23752397.0394   23752405.0704
         8.7504          8.2504
  31451348.34443  24669146.17645  24211485.4384   24211501.8244
         6.7504          5.7504
                                  25388139.6414
         2.7504
 03 10 29  0 21  0.0000000  0  8G28G 9G 4G 8G 7G26G29G11
  33196114.16946  26249112.93846  22122672.5554   22122677.3364
        18.2504         15.0004
  -5784150.95146  -4022482.37246  21898578.6174   21898584.4884
        18.0004         15.5004
  -5697376.38346  -4384436.60045  22577439.0084   22577445.8404
        14.0004         11.0004
    459146.38043   -144080.02145  24331472.3284   24331481.0514
         6.2504          6.7504
  10240286.59147   8023863.42246  20826683.3754   20826688.7194
        24.5004         24.2504
  24610614.52645  19561533.44945  23782967.8204   23782976.5664
         9.0004          8.5004
  31617923.92343  24798945.20244  24243182.5784   24243188.6024
         5.7504          4.7504
                                  25419691.1094
         2.5004
 03 10 29  0 21 30.0000000  0  8G28G 9G 4G 8G 7G26G29G11
  33328782.12246  26352490.52346  22147918.7344   22147923.4344
        18.2504         15.5004
  -5773116.20646  -4013883.83346  21900678.3984   21900684.1414
        18.0004         16.2504
  -5710856.85046  -4394940.71945  22574873.8444   22574880.9384
        14.2504         11.2504
    652756.40543      6784.71845  24368315.1094   24368325.5084
         6.0004          7.0004
  10350396.54347   8109663.36746  20847636.5634   20847641.7544
        24.5004         24.2504
  24771477.76245  19686881.29445  23813579.9614   23813588.6374
         9.2504          8.5004
  31784589.57543  24928814.22845  24274898.2424   24274909.8714
         5.5004          6.0004
                                  25451291.4774
         2.5004
 03 10 29  0 22  0.0000000  0  8G28G 9G 4G 8G 7G26G29G11
  33461649.22346  26456023.27946  22173202.9454   22173208.1254
        18.2504         15.7504
  -5761643.68546  -4004944.17246  21902861.1564   21902867.4964
        17.5004         16.5004
  -5724034.33546  -4405208.76746  22572366.1804   22572373.3794
        14.5004         12.0004
    846477.18943    157735.75845  24405178.3834   24405186.7194
         6.0004          6.7504
  10460819.38947   8195707.13446  20868649.1484   20868654.5864
        24.5004         24.2504
  24932553.57845  19812394.85245  23844230.1174   23844238.2544
         8.7504          8.2504
  31951340.43843  25058749.77745  24306628.6094   24306641.7384
         5.0004          5.7504
  -2990062.42741                  25482941.4454
         2.7504
 03 10 29  0 22 30.0000000  0  8G28G 9G 4G 8G 7G26G29G11
  33594715.18946  26559711.00046  22198523.9144   22198528.8594
        18.0004         15.2504
  -5749731.68746  -3995662.00646  21905128.2034   21905134.0984
        17.5004         15.5004
  -5736906.11046  -4415238.60845  22569916.4774   22569923.9104
        14.7504         11.7504
   1040306.17443    308771.01845  24442063.4064   24442076.4774
         6.7504          5.5004
  10571553.13447   8281993.15146  20889721.2814   20889726.7074
        24.2504         24.0004
  25093838.27545  19938071.09745  23874922.7814   23874931.4454
         9.0004          7.7504
  32118172.91643  25188748.94644  24338377.7424   24338381.3634
         5.5004          4.7504
  -2823479.94241                  25514640.6804
         2.5004
 03 10 29  0 23  0.0000000  0  6G28G 9G 4G 8G 7G26
  32152569.76046  25435961.27246  21924092.9144   21924097.8014
        17.7504         15.0004
  -7312792.07046  -5213631.10046  21607687.3594   21607692.6684
        17.7504         15.2504
  -7324884.03846  -5652623.87046  22267734.6644   22267741.2734
        14.7504         12.0004
   -341166.99844   -767701.88545  24179177.8524   24179191.1214
         7.7504          6.0004
   9107185.41047   7140927.38246  20611061.5004   20611066.8444
        24.5004         24.2504
  23679919.70345  18836316.25145  23605863.2814   23605871.1024
         9.0004          7.7504
 03 10 29  0 23 30.0000000  0  7G28G 9G 4G 8G 7G26G29
  32286039.02846  25539963.25646  21949491.0864   21949495.7854
        18.0004         15.0004
  -7299988.16746  -5203653.99146  21610124.2974   21610129.2304
        18.0004         16.0004
  -7337129.23846  -5662165.46945  22265403.1484   22265410.3484
        13.5004         11.5004
   -147122.55544   -616498.49945  24216103.2034   24216117.1174
         7.7504          5.2504
   9218542.35247   7227699.01046  20632251.8364   20632257.0984
        24.2504         24.0004
  23841618.84745  18962315.49845  23636631.6564   23636639.9924
         8.2504          8.2504
  -4598231.94853                  24102124.5084
         5.0004
 03 10 29  0 24  0.0000000  0  7G28G 9G 4G 8G 7G26G29
  32419710.68046  25644122.95046  21974928.4224   21974933.3204
        18.2504         15.2504
  -7286733.98446  -5193325.99546  21612646.1024   21612651.6564
        18.0004         16.2504
  -7349055.79746  -5671458.73746  22263133.7584   22263141.0984
        14.2504         12.2504
     47027.30643   -465213.03544  24253048.8364   24253061.2274
         6.7504          4.5004
   9330209.46347   7314712.32646  20653501.6174   20653506.9964
        24.2504         23.7504
  24003521.38745  19088473.18045  23667441.9144   23667450.4844
         8.7504          8.2504
  -4431162.76943                  24133918.4304
         5.0004
 03 10 29  0 24 30.0000000  0  7G28G 9G 4G 8G 7G26G29
  32553578.03146  25748435.11646  22000402.5474   22000407.1994
        18.2504         14.5004
  -7273033.78746  -5182650.46846  21615253.0634   21615258.8054
        18.2504         17.0004
  -7360667.13746  -5680506.41746  22260924.3524   22260931.4694
        14.0004         12.0004
    241273.67843   -313852.44244  24290013.3444   24290026.2274
         5.7504          4.2504
   9442178.58447   7401960.98246  20674808.5634   20674813.9304
        24.2504         24.2504
  24165617.59044  19214781.77745  23698287.5084   23698296.7814
         7.7504          7.5004
  -4264027.06442  -3656753.94655  24165719.5164   24165727.5234
         4.5004          5.2504
 03 10 29  0 25  0.0000000  0  7G28G 9G 4G 8G 7G26G29
  32687642.42146  25852900.84046  22025913.7584   22025919.0084
        17.7504         14.7504
  -7258884.08046  -5171624.66946  21617945.6804   21617951.8204
        18.0004         16.5004
  -7371959.05846  -5689305.18946  22258775.8834   22258783.5044
        14.5004         12.2504
    435615.97543   -162417.07845  24326995.1484   24327005.0554
         5.0004          5.5004
   9554449.81847   7489445.04146  20696172.8834   20696178.2624
        24.2504         24.0004
  24327905.62844  19341239.84545  23729169.0084   23729177.4024
         7.7504          7.0004
  -4096826.15042  -3526467.63944  24197539.4454   24197550.5004
         4.7504          4.5004
 03 10 29  0 25 30.0000000  0  8G28G 9G 4G 8G 7G26G 5G29
  32821903.97946  25957520.17946  22051463.2734   22051468.5594
        18.0004         14.2504
  -7244282.42846  -5160246.70846  21620724.4384   21620730.4494
        18.0004         15.5004
  -7382928.14046  -5697852.39146  22256688.0474   22256695.0354
        14.7504         12.5004
    630051.84242    -10908.90644  24363994.9384   24364005.8284
         4.7504          4.7504
   9667021.43547   7577163.17046  20717594.6884   20717599.8324
        24.2504         24.0004
  24490382.54445  19467845.13245  23760089.3524   23760100.3244
         8.0004          7.0004
  -4736820.58552                  25170955.1254
         4.0004
  -3929563.34443  -3396133.26445  24229371.0164   24229376.6524
         5.7504          6.0004
 03 10 29  0 26  0.0000000  0  8G28G 9G 4G 8G 7G26G 5G29
  32956368.02346  26062297.33846  22077050.7894   22077056.3554
        17.7504         14.5004
  -7229221.20046  -5148510.63746  21623590.2894   21623596.0204
        18.5004         16.5004
  -7393566.07246  -5706141.56146  22254663.8914   22254671.0204
        15.2504         12.5004
    824584.85742    140675.12444  24401013.5084   24401023.9884
         4.5004          4.7504
   9779897.48147   7665118.51446  20739074.3204   20739079.7114
        24.5004         24.0004
  24653050.57845  19594599.28845  23791043.4924   23791053.5744
         8.0004          8.2504
                                  25168325.4304
         3.0004
  -3762236.08442  -3265748.49444  24261210.8834   24261216.2854
         4.7504          4.5004
 03 10 29  0 26 30.0000000  0  8G28G 9G 4G 8G 7G26G 5G29
  33091032.78346  26167230.87146  22102676.7814   22102681.5864
        17.7504         14.2504
  -7213700.01046  -5136416.15746  21626543.8834   21626549.3914
        18.7504         16.7504
  -7403871.78046  -5714171.85546  22252702.3204   22252708.6844
        14.7504         12.7504
   1019210.54342    292331.22445  24438050.5864   24438060.3984
         4.5004          5.5004
   9893074.55247   7753308.42246  20760611.3364   20760616.4224
        24.2504         23.7504
  24815904.68245  19721498.45045  23822033.1954   23822042.9614
         8.0004          7.5004
                                  25165697.0944
         3.0004
  -3594849.37043  -3135317.71545  24293063.4694   24293076.0944
         5.5004          5.2504
 03 10 29  0 27  0.0000000  0  8G28G 9G 4G 8G 7G26G 5G29
  33225892.99946  26272316.70146  22128339.8984   22128345.0434
        17.5004         14.2504
  -7197721.66246  -5123965.48046  21629584.7424   21629590.9064
        18.7504         17.0004
  -7413847.11046  -5721944.71146  22250804.2114   22250810.8554
        15.2504         12.7504
   1213921.84643    444054.14045  24475102.2424   24475111.2704
         5.0004          5.2504
  10006546.11147   7841727.80146  20782204.2584   20782209.4734
        24.2504         23.7504
  24978936.66644  19848536.21745  23853057.4614   23853065.0474
         7.5004          7.7504
  -4728567.02251                  25163063.0004
         3.2504
  -3427411.29142  -3004846.64045  24324924.5314   24324935.0824
         4.2504          5.5004
 03 10 29  0 27 30.0000000  0  8G28G 9G 4G 8G 7G26G 5G29
  33360954.97946  26377559.76146  22154041.3914   22154046.6174
        17.7504         14.2504
  -7181277.51546  -5111151.77246  21632713.3524   21632719.0824
        18.5004         16.7504
  -7423482.86146  -5729452.95046  22248970.4534   22248977.6884
        15.2504         13.0004
   1408722.91943    595846.92245  24512172.7274   24512184.5784
         6.0004          6.0004
  10120317.00247   7930380.41946  20803853.9844   20803859.5044
        24.2504         23.5004
  25142149.72744  19975715.09245  23884114.9304   23884121.8594
         7.5004          7.0004
  -4742428.86542                  25160429.3134
         4.7504
  -3259918.66343  -2874333.18645  24356802.6414   24356815.2074
         6.2504          5.0004
 03 10 29  0 28  0.0000000  0  8G28G 9G 4G 8G 7G26G 5G29
  33496213.26246  26482955.79046  22179780.0164   22179785.1604
        17.5004         14.0004
  -7164370.78746  -5097977.64946  21635930.6094   21635936.2234
        19.0004         16.5004
  -7432781.35046  -5736698.40546  22247200.3524   22247206.9494
        15.2504         12.7504
   1603606.00443    747703.66245  24549257.8984   24549269.7154
         6.2504          6.5004
  10234380.07247   8019260.71046  20825559.4924   20825564.9064
        24.2504         23.7504
  25305535.39344  20103028.43045  23915206.9224   23915215.2814
         7.7504          7.2504
  -4756315.33743                  25157787.4064
         5.5004
  -3092379.96542  -2743783.72945  24388679.9774   24388691.1134
         4.5004          5.2504
 03 10 29  0 28 30.0000000  0  8G28G 9G 4G 8G 7G26G 5G29
  33631673.15346  26588508.90046  22205556.9844   22205562.5274
        16.7504         14.2504
  -7146993.86446  -5084437.14646  21639237.4144   21639243.0164
        19.2504         17.0004
  -7441734.36846  -5743674.67246  22245496.9384   22245503.6294
        15.7504         12.7504
   1798574.44743    899626.90345  24586358.5864   24586371.6914
         6.7504          6.5004
  10348739.21547   8108371.70246  20847321.3444   20847326.7234
        24.2504         23.5004
  25469095.80345  20230477.95445  23946333.2734   23946340.8594
         8.5004          7.0004
  -4770221.02143                  25155138.3524
         5.7504
  -2924792.82842  -2613196.69744  24420574.0004   24420586.3094
         4.7504          4.5004
 03 10 29  0 29  0.0000000  0  8G28G 9G 4G 8G 7G26G 5G29
  33767336.68146  26694220.69846  22231373.5474   22231378.7154
        16.7504         14.0004
  -7129142.75746  -5070527.15546  21642634.6094   21642639.8484
        19.5004         17.2504
  -7450336.66746  -5750377.65146  22243859.2584   22243866.4344
        14.7504         12.5004
   1993627.96743   1051616.45845  24623476.5164   24623484.6294
         6.7504          6.7504
  10463395.03547   8197713.87746  20869139.6804   20869145.2814
        24.0004         23.5004
  25632829.83344  20358062.75045  23977488.4144   23977497.9224
         7.5004          7.5004
  -4784142.86843  -3686778.86055  25152488.7344   25152494.8984
         6.0004          5.5004
  -2757158.34142  -2482572.57645  24452472.7424   24452481.5234
         4.7504          5.2504
 03 10 29  0 29 30.0000000  0  8G28G 9G 4G 8G 7G26G 5G29
  33903203.45146  26800090.87846  22257227.7114   22257233.2664
        16.5004         13.7504
  -7110815.39646  -5056246.04546  21646121.9384   21646127.0234
        19.5004         17.0004
  -7458585.65446  -5756805.30846  22242290.3364   22242297.1684
        15.7504         13.0004
   2188764.19543   1203670.51845  24660608.7894   24660622.6334
         6.2504          6.0004
  10578345.73947   8287285.83346  20891014.0944   20891019.7194
        24.2504         23.7504
  25796734.02645  20485780.12445  24008681.2734   24008690.5234
         8.7504          7.5004
  -4798080.80543  -3697639.57645  25149837.7034   25149848.6524
         6.2504          6.0004
  -2589479.62742  -2351914.16045  24484382.4924   24484393.1724
         4.7504          5.0004
 03 10 29  0 30  0.0000000  0  8G28G 9G 4G 8G 7G26G 5G29
  34039279.25446  26906123.90146  22283122.5004   22283127.5164
        16.5004         13.5004
  -7092003.85546  -5041587.65946  21649702.0084   21649707.4454
        19.7504         17.0004
  -7466472.56646  -5762950.86646  22240788.9694   22240796.3444
        15.7504         13.5004
   2383986.69343   1355791.71545  24697759.2194   24697773.2034
         6.0004          5.7504
  10693595.49047   8377090.81346  20912945.3444   20912950.8984
        24.2504         23.5004
  25960811.20844  20613632.34945  24039901.8284   24039909.6374
         7.5004          7.0004
  -4812028.62243  -3708507.97345  25147182.2034   25147191.4304
         6.2504          6.2504
  -2421754.21042  -2221219.30145  24516296.6644   24516308.0704
         4.0004          5.0004
 03 10 29  0 30 30.0000000  0  8G28G 9G 4G 8G 7G26G 5G29
  34175558.47446  27012315.44246  22309055.4304   22309060.7734
        16.2504         13.5004
  -7072711.44746  -5026554.57946  21653372.9614   21653378.4344
        19.5004         17.0004
  -7473999.89446  -5768816.22546  22239357.4534   22239363.9454
        16.2504         13.2504
   2579287.74443   1507974.20144  24734924.1174   24734933.7664
         5.2504          4.5004
  10809137.45547   8467123.48946  20934932.2584   20934937.6954
        24.2504         23.5004
  26125052.78144  20741612.61645  24071158.4064   24071165.6994
         7.7504          7.2504
  -4825991.17643  -3719387.81745  25144525.8054   25144534.9024
         6.0004          6.7504
  -2253990.33242  -2090494.43845  24548224.8984   24548241.4144
         4.5004          5.0004
 03 10 29  0 31  0.0000000  0  8G28G 9G 4G 8G 7G26G 5G29
  34312050.09046  27118672.51546  22335028.9224   22335033.7854
        16.2504         13.5004
  -7052927.10246  -5011138.16146  21657137.8524   21657143.2544
        19.7504         17.0004
  -7481155.88546  -5774392.22846  22237994.3204   22238001.3914
        15.0004         13.2504
   2774674.08642   1660223.11044  24772105.3984   24772115.7504
         4.5004          4.0004
  10924978.71647   8557389.39046  20956976.1644   20956981.7664
        24.2504         23.5004
  26289464.35645  20869725.37045  24102444.3674   24102452.5984
         8.2504          7.5004
  -4839958.95243  -3730271.68845  25141866.6094   25141876.4104
         5.5004          5.5004
  -2086182.34143  -1959735.13744  24580157.4064   24580168.3094
         5.2504          4.0004
 03 10 29  0 31 30.0000000  0  8G28G 9G 4G 8G 7G26G 5G29
  34448752.83746  27225194.08746  22361042.7114   22361047.6094
        16.0004         13.2504
  -7032649.77246  -4995337.61046  21660996.3054   21661001.5204
        19.7504         17.0004
  -7487938.62346  -5779677.38646  22236704.6174   22236711.1684
        16.0004         13.5004
   2970142.47542   1812535.84243  24809303.0474   24809312.8484
         4.0004          3.2504
  11041116.91047   8647886.66346  20979076.5864   20979081.9884
        24.2504         23.5004
  26454041.79644  20997967.37945  24133760.7034   24133769.0274
         7.2504          7.2504
  -4853932.86142  -3741160.21244  25139208.0164   25139213.8754
         4.5004          4.7504
  -1918334.16042  -1828944.61145  24612095.8444   24612104.0044
         4.5004          5.5004
 03 10 29  0 32  0.0000000  0  8G28G 9G 4G 8G 7G26G 5G29
  34585658.41546  27331873.72046  22387094.9844   22387100.5164
        16.2504         13.5004
  -7011885.65246  -4979157.73246  21664947.2584   21664952.4264
        19.5004         17.2504
  -7494353.40646  -5784675.81946  22235482.8754   22235489.5904
        15.5004         13.5004
   3165682.40041                  24846512.3284
         3.0004
  11157542.15747   8738607.62646  21001231.6954   21001237.1684
        24.2504         23.2504
  26618773.57845  21126329.64145  24165110.8134   24165117.3054
         8.0004          7.0004
  -4867920.57642  -3752059.71844  25136546.8594   25136558.1484
         4.0004          4.2504
  -1750457.12942  -1698131.61344  24644042.4774   24644056.6484
         4.5004          4.7504
 03 10 29  0 32 30.0000000  0  8G28G 9G 4G 8G 7G26G 5G29
  34722777.54946  27438719.74846  22413187.6174   22413193.0204
        16.0004         13.5004
  -6990621.78847  -4962588.45446  21668994.0164   21668999.4414
        20.0004         17.5004
  -7500386.38146  -5789376.77646  22234335.3204   22234342.2854
        16.2504         13.5004
   3361302.48141                  24883737.1024
         2.5004
  11274263.71747   8829559.47646  21023442.7424   21023448.0274
        24.2504         23.2504
  26783667.59844  21254818.30145  24196485.9064   24196492.4344
         7.5004          7.2504
  -4881910.24841                  25133882.9774
         3.2504
  -1582543.33642  -1567290.00245  24675995.4144   24676007.8054
         4.7504          5.0004
 03 10 29  0 33  0.0000000  0  8G28G 9G 4G 8G 7G26G 5G29
  33284686.36646  26318129.18546  22139528.3134   22139533.9494
        16.0004         13.2504
  -8544283.70747  -6173234.07046  21373341.7114   21373346.8204
        20.2504         18.0004
  -9081463.34946  -7021384.71946  21933466.1884   21933473.2584
        17.0004         14.5004
  -6190782.38851                  24621183.9774
         2.0004
   9815855.60047   7693137.55446  20745917.1094   20745922.5474
        24.2504         23.0004
  25373297.62044  20155828.55345  23928102.9534   23928113.4344
         7.5004          7.0004
  -6471330.33141                  24831427.0554
         2.7504
  -2990018.82742  -2664024.30644  24408162.5474   24408179.4494
         4.5004          4.2504
 03 10 29  0 33 30.0000000  0  7G28G 9G 4G 8G 7G26G29
  33422216.15246  26425295.19146  22165698.9144   22165704.1644
        15.7504         13.2504
  -8522030.26947  -6155893.70046  21377576.6484   21377582.0044
        20.2504         17.7504
  -9086740.31146  -7025496.57646  21932462.0004   21932468.4694
        16.7504         13.7504
                                  24658436.1884
         1.2504
   9933148.82147   7784534.85546  20768237.2114   20768242.6954
        24.0004         23.0004
  25538490.18644  20284549.86445  23959538.6564   23959548.9844
         7.5004          7.0004
  -2822057.16242  -2533145.46444  24440123.4304   24440136.8404
         4.7504          4.7504
 03 10 29  0 34  0.0000000  0  6G28G 9G 4G 7G26G29
  33559954.34846  26532623.60346  22191910.0004   22191915.1684
        15.7504         13.0004
  -8499275.91646  -6138162.99346  21381906.2504   21381911.7464
        19.7504         17.2504
  -9091631.86146  -7029308.09346  21931531.0394   21931537.7194
        16.2504         13.5004
  10050728.91747   7876155.70046  20790611.9064   20790617.2384
        24.0004         23.0004
  25703830.53844  20413386.34645  23991003.0704   23991015.0634
         7.2504          6.5004
  -2654072.87343  -2402248.95843  24472092.7274   24472102.4454
         5.0004          3.5004
 03 10 29  0 34 30.0000000  0  7G28G 9G 4G 7G26G 5G29
  33697904.63646  26640117.29146  22218161.5314   22218166.4654
        16.0004         13.2504
  -8476014.76447  -6120037.39346  21386332.8674   21386338.0944
        20.2504         17.7504
  -9096131.32446  -7032814.08046  21930675.1884   21930681.6214
        17.5004         14.5004
  10168597.87347   7968001.63146  20813041.8754   20813047.3014
        24.0004         23.0004
  25869319.01044  20542338.18745  24022493.4534   24022503.2304
         7.2504          7.2504
                                  24823424.4304
         3.7504
  -2486065.17242  -2271334.01844  24504060.8754   24504074.5554
         4.5004          4.0004
 03 10 29  0 35  0.0000000  0  7G28G 9G 4G 7G26G 5G29
  33836064.47746  26747774.27646  22244452.1174   22244457.0984
        15.7504         13.5004
  -8452246.99547  -6101517.02746  21390856.0004   21390861.4614
        20.5004         18.2504
  -9100238.14346  -7036014.14046  21929893.1804   21929899.5784
        17.0004         13.7504
  10286751.95047   8060069.72946  20835525.7114   20835531.2074
        23.7504         22.5004
  26034950.46544  20671401.55645  24054013.7344   24054023.5474
         7.0004          6.5004
  -6315230.31943                  24820759.7504
         5.0004
  -2318039.30542  -2140405.09944  24536035.0234   24536036.9224
         4.2504          4.7504
 03 10 29  0 35 30.0000000  0  7G28G 9G 4G 7G26G 5G29
  33974430.60346  26855591.98946  22270782.1334   22270787.4184
        15.2504         13.2504
  -8427973.94647  -6082602.93446  21395474.5394   21395480.0474
        20.5004         18.2504
  -9103952.64846  -7038908.49046  21929186.0944   21929192.7154
        16.5004         13.7504
  10405186.34347   8152356.26246  20858063.0474   20858068.5084
        24.2504         23.0004
  26200718.35943  20800571.10245  24085555.5084   24085565.5084
         6.7504          7.0004
  -6329254.02743                  24818091.3284
         6.5004
  -2150001.80742  -2009467.26044  24568015.0864   24568026.6804
         4.5004          4.5004
 03 10 29  0 36  0.0000000  0  7G28G 9G 4G 7G26G 5G29
  34113005.11746  26963572.08846  22297152.3524   22297157.9884
        15.5004         12.7504
  -8403191.53947  -6063291.93646  21400190.2894   21400196.0904
        20.0004         18.0004
  -9107269.85746  -7041493.23346  21928554.6254   21928560.6954
        16.2504         13.5004
  10523901.54347   8244861.60246  20880653.8594   20880659.2034
        24.2504         23.0004
  26366621.87344  20929846.40345  24117128.6644   24117138.4304
         7.2504          6.7504
  -6343280.96144  -4916229.82554  24815422.4454   24815428.7384
         7.5004          4.0004
  -1981953.47942  -1878520.74444  24599993.3834   24600004.1214
         4.7504          4.5004
 03 10 29  0 36 30.0000000  0  7G28G 9G 4G 7G26G 5G29
  34251787.61746  27071714.25446  22323561.7194   22323567.2154
        15.5004         13.2504
  -8377898.13447  -6043582.75746  21405003.3674   21405008.9224
        20.2504         17.7504
  -9110187.35246  -7043766.52046  21928000.3524   21928006.6684
        17.0004         14.0004
  10642895.66147   8337584.29046  20903297.5784   20903303.2274
        24.0004         22.7504
  26532657.30544  21059224.49645  24148722.5634   24148732.7154
         7.2504          7.0004
  -6357309.92445  -4927161.42745  24812752.0394   24812758.7774
         8.0004          5.5004
  -1813897.29741                  24631971.2274
         3.7504
 03 10 29  0 37  0.0000000  0  7G28G 9G 4G 7G26G 5G29
  34390770.30146  27180012.41146  22350009.4924   22350015.0824
        15.7504         13.0004
  -8352099.15647  -6023479.63846  21409913.0554   21409918.4224
        20.5004         18.0004
  -9112709.81946  -7045731.97546  21927519.6094   21927525.3284
        16.5004         13.5004
  10762159.70847   8430517.30646  20925992.8444   20925998.3404
