     2.10           OBSERVATION DATA    G (GPS)             RINEX VERSION / TYPE
teqc  2007Feb5      UNAVCO Archive Ops  20070321 07:48:46UTCPGM / RUN BY / DATE
Solaris 5.10|UltraSparc IIIi|cc -xarch=v9 SC5.8|=+-|*Sparc  COMMENT
BIT 2 OF LLI FLAGS DATA COLLECTED UNDER A/S CONDITION       COMMENT
GARL                                                        MARKER NAME
49721S001                                                   MARKER NUMBER
Davis, Jim          Harvard-Smithsonian CfA                 OBSERVER / AGENCY
3609A14796          TRIMBLE 4000SSI     7.19B               REC # / TYPE / VERS
0220062100          TRM29659.00     SCIS                    ANT # / TYPE
 -2384509.0615 -4239524.8940  4114370.6286                  APPROX POSITION XYZ
        0.0884        0.0000        0.0000                  ANTENNA: DELTA H/E/N
     1     1                                                WAVELENGTH FACT L1/2
     7    L1    L2    C1    P2    P1    S1    S2            # / TYPES OF OBSERV
    30.0000                                                 INTERVAL
RINEX file created by UNAVCO GPS Archive.                   COMMENT
For more information contact archive@unavco.org             COMMENT
Monument ID: 11764                                          COMMENT
UNAVCO 4-char name:   GARL                                  COMMENT
4-char name from Log or data file: GARL                     COMMENT
Monument location: 40.416527 -119.355457 1640.2266          COMMENT
Visit ID: 59421                                             COMMENT
                                                            COMMENT
GARL-BRGN-NV1996                                            COMMENT
                                                            COMMENT
End of DB comments                                          COMMENT
 SNR is mapped to RINEX snr flag value [1-9]                COMMENT
  L1: 3 -> 1; 8 -> 5; 40 -> 9                               COMMENT
  L2: 1 -> 1; 5 -> 5; 60 -> 9                               COMMENT
  2003    10    28     0     0   30.0000000     GPS         TIME OF FIRST OBS
                                                            END OF HEADER
 03 10 28  0  0 30.0000000  0  8G 9G 8G28G 7G 4G26G29G11
  -2777612.01756  -1390638.29555  22565224.3984   22565231.6334
        12.5004         11.2504
  49746863.92655  39145025.77655  23229060.3594   23229066.3594
         9.7504          8.7504
  29178710.45257  23294457.11456  21602609.6174   21602613.3324
        22.7504         19.2504
   7944328.21857   6238067.33656  20549835.2424   20549839.9184
        24.7504         25.7504
  -1623527.23855  -1175434.74855  23435082.6414   23435090.4494
        10.0004          8.2504
  19840205.74156   8563466.79255  23013572.2344   23013577.8834
        12.0004         10.7504
  26167632.16054  20477071.66355  23390562.7584   23390569.3794
         7.7504          8.0004
  23457280.08954  17555850.46255  24611417.3594   24611425.9184
         7.0004          6.2504
 03 10 28  0  1  0.0000000  0  8G 9G 8G28G 7G 4G26G29G11
  -2785546.78246  -1396821.12045  22563714.2344   22563720.7504
        12.5004         11.5004
  49931986.98445  39289277.42345  23264287.8524   23264296.2704
        10.2504          8.5004
  29301131.13947  23389849.85646  21625905.5864   21625909.4064
        22.7504         19.0004
   8036873.29847   6310180.39846  20567445.8914   20567450.6954
        24.5004         25.7504
  -1648427.66346  -1194837.54945  23430344.1884   23430353.6134
        12.0004         10.7504
  19986373.59545   8677363.73045  23041388.6644   23041396.4144
        11.7504         10.7504
  26325871.07245  20600374.62445  23420674.9694   23420682.6024
         8.0004          7.7504
  23607161.86143  17672641.51245  24639940.4534   24639941.0164
         6.7504          5.2504
 03 10 28  0  1 30.0000000  0  8G 9G 8G28G 7G 4G26G29G11
  -2793177.21846  -1402766.83445  22562262.3524   22562269.0904
        12.2504         11.5004
  50117313.18345  39433687.39845  23299555.0084   23299563.8134
        11.0004          8.2504
  29423741.52247  23485390.40746  21649237.5084   21649241.1294
        22.5004         18.7504
   8129788.59747   6382581.94146  20585126.9144   20585131.7544
        24.5004         25.5004
  -1673191.26646  -1214133.68745  23425631.2424   23425637.5594
        13.5004         10.0004
  20132891.87945   8791533.78645  23069268.7194   23069275.6374
        11.2504         10.2504
  26484336.61445  20723854.15845  23450830.9614   23450838.7344
         8.7504          8.0004
  23757407.51243  17789715.98845  24668530.6954   24668538.8204
         6.5004          5.2504
 03 10 28  0  2  0.0000000  0  8G 9G 8G28G 7G 4G26G29G11
  -2800509.72646  -1408480.36846  22560867.2504   22560875.1524
        12.7504         12.2504
  50302831.38646  39578246.96545  23334858.6024   23334866.2114
        12.5004          9.2504
  29546532.60647  23581071.76546  21672603.9384   21672607.7344
        22.5004         19.2504
   8223063.73147   6455263.87746  20602876.8914   20602881.7304
        24.5004         25.7504
  -1697823.72546  -1233327.60945  23420943.3674   23420950.7894
        12.5004          8.0004
  20279748.66845   8905967.63045  23097215.7734   23097221.7734
        11.5004         10.0004
  26643016.68245  20847500.85645  23481025.4774   23481031.6644
         8.7504          7.7504
  23908006.00943  17907065.57645  24697189.5234   24697198.6454
         6.5004          5.5004
 03 10 28  0  2 30.0000000  0  8G 9G 8G28G 7G 4G26G29G11
  -2807532.03546  -1413952.18346  22559530.9924   22559536.8284
        13.5004         12.0004
  50488549.30545  39722962.09845  23370198.1884   23370206.0314
         9.7504          9.0004
  29669513.76147  23676901.23346  21696006.7734   21696010.3834
        22.7504         19.0004
   8316707.15547   6528232.78846  20620696.2504   20620701.0554
        24.5004         25.7504
  -1722312.37045  -1252409.53545  23416282.3834   23416289.8284
        10.5004          8.0004
  20426950.74546   9020670.46845  23125227.0634   23125232.3954
        12.2504         10.7504
  26801917.39745  20971319.51345  23511264.0084   23511269.2114
         8.7504          7.7504
  24058964.66343  18024695.56944  24725915.6254   24725918.8134
         6.0004          4.7504
 03 10 28  0  3  0.0000000  0  8G 9G 8G28G 7G 4G26G29G11
  -2814223.20846  -1419166.02146  22558257.7274   22558264.1134
        14.2504         12.5004
  50674483.70545  39867846.00045  23405580.9454   23405587.4024
         8.7504          7.5004
  29792703.76447  23772893.44046  21719449.0864   21719452.7194
        22.2504         18.5004
   8410736.13847   6601502.13946  20638589.6884   20638594.5274
        24.5004         25.7504
  -1746635.40645  -1271362.47345  23411654.5864   23411661.5744
         9.5004          7.5004
  20574513.80045   9135654.62145  23153307.1564   23153312.2774
        11.5004          9.7504
  26961054.34545  21095322.25945  23541546.2114   23541551.3204
         8.2504          7.7504
  24210299.84343  18142619.16445  24754714.0314   24754722.7894
         6.0004          5.2504
 03 10 28  0  3 30.0000000  0  8G 9G 8G28G 7G 4G26G29G11
  -2820591.52346  -1424128.26145  22557045.5004   22557051.6054
        13.7504         11.5004
  50860621.45645  40012888.28045  23441003.1334   23441011.3874
         8.7504          8.5004
  29916091.69347  23869039.87046  21742929.1414   21742933.0204
        22.5004         18.5004
   8505138.69347   6675062.58446  20656553.8914   20656558.6374
        24.7504         25.7504
  -1770800.53045  -1290192.31945  23407056.0314   23407063.5594
         9.7504          6.5004
  20722424.07545   9250909.29745  23181453.6884   23181461.0164
        11.0004          9.7504
  27120414.01745  21219498.49845  23571871.5634   23571879.7464
         8.5004          8.0004
  24361998.77643  18260826.22445  24783581.3754   24783588.0084
         5.7504          5.2504
 03 10 28  0  4  0.0000000  0  8G 9G 8G28G 7G 4G26G29G11
  -2826643.98746  -1428844.36945  22555893.7734   22555900.0554
        13.7504         11.7504
  51046951.07643  40158080.06645  23476458.7734   23476467.0514
         6.7504          7.0004
  30039667.76147  23965332.90746  21766444.4774   21766447.9694
        22.2504         18.7504
   8599903.79547   6748905.52946  20674586.9614   20674591.6954
        24.7504         25.7504
  -1794814.06945  -1308904.07545  23402486.3134   23402493.1214
         9.7504          7.5004
  20870669.13845   9366424.87745  23209664.3134   23209670.3834
        11.5004         10.0004
  27279983.52345  21343838.30945  23602237.9614   23602245.5944
         8.7504          8.0004
  24514049.63343  18379307.31545  24812515.7034   24812521.0594
         5.5004          5.2504
 03 10 28  0  4 30.0000000  0  8G 9G 8G28G 7G 4G26G29G11
  -4407795.40846  -2660910.36745  22255010.8834   22255016.7774
        13.2504         11.7504
  49658059.28645  39075826.61545  23212161.4224   23212168.1374
         8.0004          7.7504
  28588018.96747  22834178.00346  21490205.2194   21490208.9574
        22.2504         18.7504
   7119616.26847   5595434.74446  20392897.5234   20392902.4454
        24.7504         25.7504
  -3394090.93145  -2555093.67945  23098153.2814   23098159.7154
         9.5004          8.2504
  19443833.57145   8254604.88645  22938145.7194   22938152.5784
        11.5004          9.7504
  25864347.90245  20240745.48345  23332851.8984   23332860.7034
         8.5004          8.0004
  23091038.06043  17270467.35645  24541723.8134   24541736.1214
         5.5004          5.2504
 03 10 28  0  5  0.0000000  0  8G 9G 8G28G 7G 4G26G29G11
  -4413197.01246  -2665119.32546  22253982.5784   22253989.4224
        13.0004         12.5004
  49844777.74045  39221321.41445  23247693.6564   23247701.7934
         8.7504          8.5004
  28711982.66247  22930773.09746  21513794.6804   21513798.8984
        22.2504         18.7504
   7215114.11347   5669848.66246  20411070.2584   20411074.9694
        24.5004         25.5004
  -3417780.51745  -2573552.91145  23093645.3834   23093650.8794
         9.5004          9.0004
  19592750.69045   8370644.14545  22966484.5164   22966491.7384
        11.2504          9.7504
  26024339.24945  20365413.97145  23363297.6094   23363304.8094
         9.0004          8.0004
  23243797.45043  17389500.59445  24570794.2424   24570803.4224
         5.0004          5.5004
 03 10 28  0  5 30.0000000  0  8G 9G 8G28G 7G 4G26G29G11
  -4418274.93646  -2669076.05046  22253016.4844   22253023.6724
        13.5004         12.5004
  50031681.81345  39366960.82045  23283260.1254   23283267.2544
         8.2504          8.5004
  28836134.49547  23027514.78046  21537419.6334   21537423.5124
        22.0004         18.5004
   7310970.80347   5744542.19746  20429311.2504   20429315.6914
        24.7504         25.5004
  -3441308.93645  -2591886.55845  23089168.1334   23089175.1334
        10.0004          9.2504
  19741993.70345   8486937.38545  22994883.8364   22994890.8594
        11.0004         10.5004
  26184531.26045  20490238.81245  23393779.4774   23393787.9884
         8.2504          7.7504
  23396902.23543  17508803.02644  24599930.3444   24599934.9734
         5.0004          4.7504
 03 10 28  0  6  0.0000000  0  8G 9G 8G28G 7G 4G26G29G11
  -4423025.48746  -2672777.66546  22252112.4304   22252117.7734
        14.2504         12.5004
  50218770.81645  39512744.34145  23318861.8914   23318868.9494
         8.0004          7.0004
  28960475.86047  23124404.14946  21561081.4064   21561085.1684
        22.0004         18.7504
   7407186.15547   5819515.20946  20447620.5234   20447625.0594
        24.7504         25.5004
  -3464671.91445  -2610091.31745  23084722.0784   23084729.5704
         9.5004          8.7504
  19891561.17845   8603483.40545  23023346.2504   23023352.5084
        11.5004          9.7504
  26344921.94345  20615218.46045  23424301.3284   23424308.4574
         8.2504          6.7504
  23550351.30743  17628373.87744  24629130.2034   24629143.9414
         5.0004          4.2504
 03 10 28  0  6 30.0000000  0  8G 9G 8G28G 7G 4G26G29G11
  -4427439.54246  -2676217.12046  22251272.4224   22251277.7304
        14.2504         12.5004
  50406049.29045  39658675.51045  23354500.0164   23354507.5664
         8.7504          9.0004
  29085012.76047  23221445.88846  21584779.8364   21584783.7854
        22.0004         18.5004
   7503765.46647   5894771.82846  20465998.7114   20466003.1764
        24.7504         25.5004
  -3487859.61045  -2628159.48245  23080308.9534   23080315.6914
        10.0004          8.7504
  20041456.53545   8720284.93545  23051870.5634   23051877.0314
        11.0004          9.7504
  26505514.88844  20740355.69245  23454860.8674   23454866.6684
         7.5004          8.2504
  23704148.95143  17748216.07643  24658396.3674   24658400.1174
         5.0004          3.5004
 03 10 28  0  7  0.0000000  0  8G 9G 8G28G 7G 4G26G29G11
  -4431522.26046  -2679398.38845  22250495.4774   22250501.0314
        14.0004         11.7504
  50593507.40745  39804746.68845  23390172.3134   23390181.0594
        10.5004          8.7504
  29209737.95047  23318634.35146  21608514.3834   21608518.4734
        21.7504         18.5004
   7600699.92147   5970305.17746  20484444.9144   20484449.4964
        24.7504         25.5004
  -3510876.52945  -2646094.58945  23075928.7894   23075935.3984
        10.0004          9.5004
  20191669.26745   8837333.75745  23080454.6254   23080460.1334
        11.0004         10.0004
  26666299.44244  20865642.18545  23485459.2734   23485466.3094
         7.5004          7.2504
  23858285.46642  17868322.60443  24687728.3594   24687733.3874
         4.7504          3.5004
 03 10 28  0  7 30.0000000  0  8G 9G 8G28G 7G 4G26G29G11
  -4435266.59946  -2682315.95046  22249782.6414   22249789.3324
        13.5004         12.0004
  50781147.61845  39950959.71245  23425878.9694   23425886.8954
         9.2504          8.2504
  29334655.85247  23415972.97246  21632285.4144   21632289.2234
        21.7504         18.2504
   7697992.44247   6046117.54046  20502959.0164   20502963.7034
        24.7504         25.5004
  -3533714.91345  -2663890.53845  23071583.4614   23071589.3554
        11.5004          8.7504
  20342200.90245   8954631.05845  23109100.6024   23109107.2704
        10.7504          9.7504
  26827276.88744  20991079.04645  23516092.3984   23516102.0354
         7.5004          7.2504
  24012763.34442  17988694.85143  24717123.0784   24717126.8054
         4.5004          3.2504
 03 10 28  0  8  0.0000000  0  8G 9G 8G28G 7G 4G26G29G11
  -4438672.48446  -2684969.79546  22249134.4144   22249139.5234
        14.2504         12.2504
  50968965.49745  40097311.26145  23461619.4924   23461626.5514
         9.7504          8.5004
  29459763.79847  23513459.68846  21656092.5474   21656096.2974
        21.7504         18.0004
   7795639.43847   6122206.12446  20521540.4224   20521545.0744
        24.7504         25.7504
  -3556374.15246  -2681546.91445  23067271.7664   23067278.1054
        13.0004         10.0004
  20493046.02845   9072172.66345  23137804.6334   23137811.7974
        10.2504          9.7504
  26988441.60744  21116661.83645  23546760.1954   23546765.3524
         7.2504          7.0004
  24167577.34642  18109329.21144  24746581.9534   24746587.7074
         4.5004          4.2504
 03 10 28  0  8 30.0000000  0  8G 9G 8G28G 7G 4G26G29G11
  -4441735.39546  -2687356.40146  22248551.4774   22248556.7154
        14.5004         12.5004
  51156960.85045  40243801.01345  23497394.0314   23497402.0744
         9.2504          8.0004
  29585063.83847  23611096.07446  21679936.4924   21679940.0784
        21.2504         18.0004
   7893641.31347   6198571.23446  20540189.6174   20540194.4574
        24.5004         25.5004
  -3578848.96846  -2699059.60745  23062994.7034   23063001.9964
        12.7504         10.2504
  20644203.55245   9189957.69645  23166570.0084   23166576.5354
        10.5004          9.5004
  27149792.52344  21242389.71845  23577463.2424   23577472.2234
         7.2504          7.0004
  24322727.48942                  24776107.8364
         4.5004
 03 10 28  0  9  0.0000000  0  8G 9G 8G28G 7G 4G26G29G11
  -4444452.62846  -2689473.63246  22248034.5084   22248039.6414
        14.7504         12.7504
  51345131.98944  40390427.81745  23533201.4144   23533209.9964
         7.7504          6.5004
  29710556.23947  23708882.37046  21703816.6804   21703820.7114
        21.2504         18.0004
   7991997.29847   6275212.27746  20558906.0084   20558910.8954
        24.7504         25.5004
  -3601136.24445  -2716426.15845  23058753.0234   23058760.3284
        10.5004          9.5004
  20795670.76745   9307984.04945  23195392.3134   23195399.4654
        10.5004          9.2504
  27311327.02543  21368260.62945  23608201.6334   23608210.6024
         6.7504          7.0004
  24478211.85742                  24805696.4774
         4.5004
 03 10 28  0  9 30.0000000  0  8G 9G 8G28G 7G 4G26G29G11
  -4446810.85246  -2691311.15746  22247585.3364   22247591.6174
        14.5004         12.7504
  51533487.40445  40537198.10345  23569045.6254   23569052.6844
         9.7504          7.0004
  29836251.57547  23806826.76946  21727735.8524   21727739.7544
        21.2504         17.7504
   8090716.56547   6352136.38546  20577691.7664   20577696.5354
        24.7504         25.5004
  -3623221.76745  -2733635.42745  23054550.1174   23054557.7854
         9.2504          9.2504
  20947455.50945   9426257.83845  23224277.1484   23224282.5394
        10.7504          9.7504
  27473052.52644  21494280.37345  23638980.5474   23638988.9884
         7.7504          7.2504
  24634038.93942                  24835348.0084
         4.5004
 03 10 28  0 10  0.0000000  0  8G 9G 8G28G 7G 4G26G29G11
  -4448822.25546  -2692878.38546  22247202.3754   22247209.4574
        14.5004         13.0004
  51722010.44145  40684099.18345  23604920.6024   23604928.0004
         8.7504          6.0004
  29962135.25147  23904917.94546  21751690.7194   21751694.6214
        21.2504         17.7504
   8189783.17747   6429331.15846  20596543.5004   20596548.1884
        24.5004         25.5004
  -3645117.03745  -2750696.51745  23050383.1564   23050390.4734
         9.5004          8.7504
  21099540.14045   9544765.24645  23253217.7664   23253223.1564
        10.2504          9.2504
  27634951.31044  21620435.18245  23669786.6564   23669794.7934
         7.5004          7.2504
  24790191.67242  -1138349.67754  24865063.2504   24865071.7154
         4.5004          4.7504
 03 10 28  0 10 30.0000000  0  8G 9G 8G28G 7G 4G26G29G11
  -4450484.80746  -2694173.74146  22246886.3054   22246892.3284
        14.7504         13.5004
  51910698.41443  40831128.71944  23640825.4064   23640832.4414
         5.2504          4.7504
  30088206.61247  24003155.36546  21775681.5164   21775685.3484
        21.2504         17.5004
   8289195.15747   6506795.05146  20615461.1884   20615465.9344
        24.7504         25.5004
  -3666819.59845  -2767607.42945  23046253.8674   23046258.9534
        10.2504          8.0004
  21251921.10345   9663503.63445  23282213.8524   23282221.0274
        10.5004          9.5004
  27797019.72144  21746722.09045  23700627.3054   23700636.5314
         7.0004          6.5004
  24946667.33642  -1016420.42445  24894838.8754   24894846.6484
         4.5004          5.0004
 03 10 28  0 11  0.0000000  0  8G 9G 8G28G 7G 4G26G29G11
  -4451790.43846  -2695191.02346  22246637.8134   22246643.3204
        15.5004         13.5004
  52099554.90243  40978289.49845  23676763.8284   23676768.7034
         5.5004          5.7504
  30214471.22647  24101543.37146  21799708.6804   21799712.7114
        21.0004         17.5004
   8388956.51847   6584531.18646  20634444.9694   20634449.5634
        24.7504         25.2504
  -3688320.49845  -2784361.24445  23042162.1174   23042167.5204
        11.0004          8.2504
  21404600.77745   9782474.74445  23311268.5634   23311276.8164
        10.0004          9.7504
  27959260.06944  21873143.03545  23731501.4534   23731509.7424
         7.2504          7.2504
  25103469.01642   -894237.26344  24924678.0864   24924683.8524
         4.5004          4.5004
 03 10 28  0 11 30.0000000  0  8G 9G 8G28G 7G 4G26G29G11
  -4452741.25546  -2695931.84446  22246456.6414   22246461.7274
        15.7504         13.5004
  52288572.78443  41125576.05745  23712732.7344   23712738.4304
         6.5004          7.0004
  30340924.31247  24200078.22946  21823771.8984   21823775.6604
        21.0004         17.7504
   8489061.43347   6662535.02446  20653494.3204   20653498.9734
        24.7504         25.5004
  -3709621.48445  -2800959.30345  23038108.7504   23038116.5124
        10.2504          8.5004
  21557571.56045   9901672.69145  23340377.8444   23340385.2304
        10.7504          9.2504
  28121664.69144  21999692.00045  23762406.7584   23762414.5314
         7.5004          6.2504
  25260589.72542   -771805.65545  24954576.8284   24954587.6484
         4.7504          5.2504
 03 10 28  0 12  0.0000000  0  8G 9G 8G28G 7G 4G26G29G11
  -4453328.07846  -2696389.04546  22246345.0474   22246350.2504
        15.0004         13.2504
  52477756.99945  41272992.21145  23748733.5784   23748740.3524
         8.0004          8.0004
  30467572.55647  24298765.16646  21847872.3834   21847876.1094
        21.0004         17.7504
   8589515.15247   6740810.66146  20672609.9304   20672614.5594
        24.7504         25.5004
  -3730712.56645  -2817393.76345  23034093.1094   23034100.6844
         9.5004          8.2504
  21710837.13245  10021100.38345  23369543.7114   23369549.0084
        10.0004          9.2504
  28284237.04644  22126371.58845  23793342.7344   23793348.9344
         7.0004          7.0004
  25418033.88542   -649121.77843  24984536.7344   24984536.8754
         4.7504          3.2504
 03 10 28  0 12 30.0000000  0  8G 9G 8G28G 7G 4G26G29G11
  -4453556.02046  -2696566.59246  22246301.4774   22246307.8634
        14.7504         13.5004
  52667097.57045  41420530.15345  23784764.1644   23784773.2154
        10.7504          9.5004
  30594408.24147  24397598.15746  21872008.3524   21872012.0204
        21.0004         17.2504
   8690308.65947   6819351.05946  20691790.4384   20691794.8914
        24.7504         25.2504
  -3751598.23545  -2833668.15645  23030120.5164   23030126.4344
        11.2504          9.2504
  21864386.80345  10140749.39045  23398763.9924   23398772.2934
        10.0004          9.0004
  28446966.64044  22253173.77445  23824308.6564   23824315.0904
         7.2504          7.2504
  25575791.52642   -526193.55545  25014557.4694   25014560.1174
         4.7504          5.5004
 03 10 28  0 13  0.0000000  0  8G 9G 8G28G 7G 4G26G29G11
  -4453422.50846  -2696462.46246  22246326.8364   22246333.1414
        15.2504         13.7504
  52856592.61445  41568188.58145  23820824.4304   23820832.9064
        11.7504         11.0004
  30721431.58047  24496577.37146  21896180.2194   21896184.0274
        20.5004         17.2504
   8791440.65947   6898155.22946  20711035.1724   20711039.9064
        24.7504         25.2504
  -3772275.28745  -2849779.97845  23026185.0084   23026190.1884
        11.7504         10.2504
  22018217.56745  10260617.45245  23428036.1954   23428043.7934
        10.5004          8.7504
  28609850.32843  22380095.98845  23855303.8754   23855310.4844
         6.5004          6.2504
  25733860.32043   -403023.09745  25044637.9384   25044646.0744
         5.0004          5.2504
 03 10 28  0 13 30.0000000  0  8G 9G 8G28G 7G 4G26G29G11
  -4452916.99346  -2696068.43546  22246423.0474   22246429.2584
        16.0004         14.0004
  53046247.87545  41715971.78845  23856914.8754   23856922.8594
        10.7504         10.2504
  30848650.39647  24595708.91546  21920389.0554   21920392.8754
        21.0004         17.2504
   8892917.67147   6977228.22646  20730345.7194   20730350.4184
        24.7504         25.2504
  -3792732.47746  -2865720.53245  23022291.7344   23022299.0274
        12.5004         10.5004
  22172334.61345  10380708.61145  23457362.9454   23457369.8874
         9.7504          9.0004
  28772892.90944  22507141.99445  23886331.8284   23886337.6994
         7.5004          6.7504
  25892246.23642   -279605.39643  25074776.7344   25074782.4304
         4.7504          3.7504
 03 10 28  0 14  0.0000000  0  8G 9G 8G28G 7G 4G26G29G11
  -4452041.87546  -2695386.45446  22246589.4144   22246595.2154
        15.7504         14.0004
  53236056.63245  41863874.63045  23893033.9454   23893043.4774
         8.2504          7.7504
  30976059.96347  24694989.08846  21944634.1724   21944638.1214
        20.5004         17.0004
   8994733.59447   7056565.31546  20749720.2894   20749724.9304
        24.7504         25.5004
  -3812971.38846  -2881490.97745  23018441.1254   23018448.0784
        13.5004         11.0004
  22326729.92845  10501016.59045  23486743.7194   23486750.8244
        10.2504          9.5004
  28936086.47943  22634305.66545  23917385.5634   23917391.2464
         6.7504          6.5004
  26050942.37543   -155946.02245  25104976.1024   25104985.3634
         5.0004          5.0004
 03 10 28  0 14 30.0000000  0  8G 9G 8G28G 7G 4G26G29G11
  -6026211.14146  -3922011.77346  21947035.0864   21947039.7034
        15.7504         13.5004
  51850606.62943  40784303.08545  23629391.2734   23629399.8444
         6.7504          6.7504
  29528248.03447  23566823.93646  21669124.7664   21669128.5164
        20.7504         17.0004
   7521473.89747   5908570.74946  20469368.5234   20469373.2114
        24.5004         25.2504
  -5408405.97146  -4124686.63345  22714839.6334   22714846.6564
        13.7504         10.7504
  20905989.17245   9393945.80345  23216386.4694   23216394.5704
         9.7504          9.0004
  27524017.12344  21533991.74745  23648678.0864   23648685.7074
         7.5004          7.0004
  24634534.93042  -1259640.05044  24835443.0164   24835446.6254
         4.7504          4.7504
 03 10 28  0 15  0.0000000  0  8G 9G 8G28G 7G 4G26G29G11
  -6024585.74546  -3920745.15446  21947344.0164   21947349.0784
        15.2504         13.2504
  52040719.65742  40932443.04745  23665568.1254   23665576.3094
         4.2504          5.7504
  29656042.66147  23666404.16446  21693443.4304   21693447.3794
        20.5004         16.7504
   7623967.05847   5988435.55746  20488872.2894   20488877.0704
        24.5004         25.5004
  -5428195.14346  -4140106.59745  22711074.2034   22711080.6374
        13.0004         10.7504
  21060935.64445   9514683.28145  23245871.8134   23245877.9064
        10.5004          8.7504
  27687507.14044  21661386.41445  23679788.4694   23679796.9574
         7.0004          7.2504
  24793847.60242  -1135500.30344  24865756.4694   24865759.7854
         4.7504          4.5004
 03 10 28  0 15 30.0000000  0  8G 9G 8G28G 7G 4G26G29G11
  -6022584.93046  -3919185.99546  21947724.9534   21947730.0164
        15.7504         13.7504
  52230978.02241  41080696.11643  23701772.7034   23701785.9614
         3.5004          3.0004
  29784026.11647  23766131.52046  21717797.8524   21717801.6724
        20.2504         16.7504
   7726793.21947   6068559.84646  20508439.4144   20508444.1844
        24.5004         25.2504
  -5447758.31545  -4155350.49245  22707350.5164   22707357.1484
        11.2504         10.0004
  21216149.58445   9635629.13245  23275407.9064   23275413.6724
        10.0004          9.2504
  27851137.37244  21788890.29945  23710926.9064   23710934.7384
         7.0004          6.2504
  24953461.10942  -1011126.14342  24896130.9304   24896136.9534
         4.7504          2.5004
 03 10 28  0 16  0.0000000  0  8G 9G 8G28G 7G 4G26G29G11
  -6020205.33746  -3917331.68746  21948177.5864   21948183.3524
        16.0004         14.5004
  52421380.54043                  23738005.6254
         5.7504
  29912199.29647  23866006.72746  21742188.5944   21742192.2624
        20.5004         16.7504
   7829951.66147   6148943.06146  20528069.8054   20528074.6564
        24.5004         25.2504
  -5467091.34245  -4170415.00445  22703671.7274   22703678.7734
        11.0004          9.7504
  21371628.84945   9756781.75745  23304994.4844   23305000.6954
        10.5004          9.2504
  28014905.56944  21916501.77345  23742092.4774   23742100.4024
         7.5004          6.2504
  25113374.61942   -886518.05642  24926562.5474   24926569.6524
         4.7504          2.2504
 03 10 28  0 16 30.0000000  0  8G 9G 8G28G 7G 4G26G29G11
  -6017445.88946  -3915181.38746  21948702.3054   21948707.6254
        15.5004         13.7504
  52611923.74245                  23774265.6804
         9.0004
  30040561.10147  23966028.90846  21766615.0004   21766618.3284
        20.5004         16.5004
   7933439.85647   6229583.22346  20547762.9064   20547767.6644
        24.5004         25.2504
  -5486192.39045  -4185298.79345  22700036.7664   22700043.9414
        10.7504         10.2504
  21527369.20145   9878137.79745  23334631.2814   23334638.2464
         9.7504          9.2504
  28178806.91044  22044216.99345  23773282.2734   23773289.8134
         7.2504          6.0004
  25273584.07442   -761679.48643  24957048.7344   24957059.0394
         4.7504          3.5004
 03 10 28  0 17  0.0000000  0  8G 9G 8G28G 7G 4G26G29G11
  -6014299.38646  -3912729.49546  21949301.2034   21949306.5234
        15.7504         14.0004
  52802610.13845                  23810551.9384
         9.0004
  30169115.90947  24066201.49046  21791077.9064   21791081.1884
        20.0004         16.5004
   8037260.90047   6310482.74846  20567519.3754   20567524.0744
        24.5004         25.0004
  -5505053.78545  -4199995.82645  22696446.9534   22696453.8594
        10.5004          9.5004
  21683371.90545   9999698.31045  23364317.4304   23364323.9804
         9.7504          8.7504
  28342842.96444  22172037.11345  23804496.9614   23804504.4184
         7.7504          6.2504
  25434091.99142   -636608.42944  24987592.7114   24987601.5864
         4.7504          4.2504
 03 10 28  0 17 30.0000000  0  8G 9G 8G28G 7G 4G26G29G11
  -6010767.90446  -3909977.63146  21949973.2814   21949978.6024
        16.0004         14.0004
  52993433.05145  -2380846.29455  23846864.6954   23846872.8794
         8.0004          7.0004
  30297859.27847  24166520.99046  21815576.8594   21815580.6094
        20.0004         16.5004
   8141408.92647   6391637.05846  20587338.1024   20587342.8014
        24.5004         25.0004
  -5523676.72545  -4214507.06245  22692903.0864   22692910.6954
        10.7504          9.2504
  21839629.52845  10121457.40045  23394053.6564   23394061.2194
         9.7504          8.2504
  28507006.46744  22299956.57845  23835735.1414   23835744.3554
         7.5004          7.2504
  25594891.49642                  25018192.2664
         4.5004
 03 10 28  0 18  0.0000000  0  8G 9G 8G28G 7G 4G26G29G11
  -6006846.12546  -3906921.63646  21950719.4384   21950724.7934
        16.0004         14.2504
  53184393.14645  -2232046.33545  23883203.2114   23883212.1094
         8.0004          6.7504
  30426794.03346  24266989.63246  21840112.1334   21840115.5784
        19.7504         16.5004
   8245885.17847   6473047.13846  20607219.2114   20607223.7584
        24.5004         25.0004
  -5542055.33745  -4228827.91245  22689405.6414   22689412.8524
        11.0004          9.5004
  21996141.80045  10243414.95245  23423834.4774   23423841.1914
         9.2504          8.2504
  28671297.42644  22427975.40045  23867000.7584   23867005.7384
         7.2504          6.2504
  25755983.03042                  25048845.7894
         4.5004
 03 10 28  0 18 30.0000000  0  8G 9G 8G28G 7G 4G26G29G11
  -6002533.19346  -3903560.84346  21951540.0314   21951545.5744
        15.7504         14.0004
  53375486.85445  -2083142.23045  23919567.3984   23919575.4884
         8.0004          7.2504
  30555918.36946  24367605.99646  21864684.0164   21864687.8134
        19.7504         16.5004
   8350686.77447   6554710.72846  20627162.5084   20627167.0784
        24.5004         25.0004
  -5560187.96046  -4242957.10645  22685955.4144   22685960.4884
        12.7504         10.0004
  22152904.10145  10365567.32845  23453666.2974   23453671.3714
         9.5004          8.2504
  28835710.50944  22556089.33445  23898287.5944   23898296.3634
         7.5004          6.2504
  25917362.41642                  25079555.6484
         4.2504
 03 10 28  0 19  0.0000000  0  8G 9G 8G28G 7G 4G26G29G11
  -5997828.03746  -3899894.43746  21952435.2814   21952440.5554
        16.2504         14.7504
  53566710.50943  -1934136.87645  23955955.8914   23955964.4494
         6.7504          7.2504
  30685230.96246  24468369.06346  21889291.4064   21889295.3324
        19.7504         16.7504
   8455810.82547   6636625.58846  20647167.0554   20647171.5314
        24.7504         25.0004
  -5578072.99446  -4256893.40245  22682551.7504   22682558.9384
        12.5004          9.7504
  22309911.93845  10487911.03645  23483544.9534   23483552.5864
         9.7504          8.5004
  29000241.12044  22684294.92645  23929595.1174   23929599.0664
         7.2504          5.7504
  26079026.11442                  25110319.2814
         4.2504
 03 10 28  0 19 30.0000000  0  8G 9G 8G28G 7G 4G26G29G11
  -5992725.05346  -3895918.02846  21953406.5084   21953411.8164
        16.7504         14.5004
  53758065.37841  -1785029.28545  23992369.6724   23992378.1374
         3.5004          5.7504
  30814735.28346  24569281.50946  21913935.2034   21913939.3634
        19.7504         16.5004
   8561259.19447   6718793.16346  20667233.1644   20667237.7934
        24.5004         25.0004
  -5595703.73846  -4270631.54545  22679196.7194   22679202.0984
        12.5004         10.7504
  22467165.56745  10610446.27545  23513468.7034   23513475.4414
         9.5004          7.7504
  29164890.06244  22812592.59945  23960930.6174   23960938.5904
         7.7504          5.7504
  26240974.83142                  25141136.6254
         4.0004
 03 10 28  0 20  0.0000000  0  8G 9G 8G28G 7G 4G26G29G11
  -5987227.68846  -3891634.30246  21954452.0634   21954457.7704
        16.2504         14.5004
  53949543.30543  -1635825.87545  24028806.7034   24028818.7304
         6.0004          7.0004
  30944424.99146  24670338.42746  21938614.2274   21938617.8134
        19.7504         16.5004
   8667024.41147   6801207.63146  20687359.3204   20687363.8094
        24.5004         25.2504
  -5613083.36645  -4284173.97445  22675888.9694   22675895.2034
        11.7504         10.2504
  22624655.82145  10733165.86245  23543438.9614   23543445.6884
         9.7504          8.5004
  29329647.98843  22940975.28944  23992280.1484   23992288.7194
         6.5004          4.7504
  26403200.31842                  25172007.1804
         4.0004
 03 10 28  0 20 30.0000000  0  8G 9G 8G28G 7G 4G26G29G11
  -5981332.23746  -3887040.39246  21955574.2424   21955579.6094
        16.2504         14.5004
  54141143.21444  -1486527.39545  24065266.8524   24065275.1994
         7.7504          8.0004
  31074301.74646  24771541.10346  21963329.1174   21963332.8674
        19.5004         16.2504
   8773106.36947   6883868.91146  20707546.0784   20707550.8244
        24.7504         24.7504
  -5630207.14046  -4297517.05545  22672630.7194   22672637.5904
        12.5004         11.2504
  22782381.02045  10856068.58745  23573451.9844   23573457.5984
         9.5004          9.0004
  29494513.06643  23069441.43545  24023652.8594   24023661.8634
         5.5004          5.5004
  26565701.75741                  25202930.3524
         3.7504
 03 10 28  0 21  0.0000000  0  8G 9G 8G28G 7G 4G26G29G11
  -5975034.26846  -3882132.81446  21956772.6174   21956777.9024
        17.0004         14.5004
  54332865.13343  -1337133.78545  24101750.4454   24101758.2194
         6.7504          6.0004
  31204367.40546  24872890.95646  21988079.4064   21988083.0984
        19.2504         16.2504
   8879505.63947   6966777.44546  20727792.8984   20727797.4454
        24.5004         25.2504
  -5647069.94246  -4310656.78545  22669421.3754   22669427.0824
        12.5004         10.7504
  22940339.88445  10979153.32645  23603509.9534   23603515.9184
         9.2504          8.2504
  29659483.91943  23197990.00545  24055044.6804   24055053.8134
         5.7504          5.7504
  26728478.60141                  25233905.7974
         3.7504
 03 10 28  0 21 30.0000000  0  8G 9G 8G28G 7G 4G26G29G11
  -5968338.10746  -3876914.95646  21958047.0084   21958052.4574
        18.0004         15.5004
  54524700.24543  -1187651.83243  24138255.7344   24138259.8954
         5.7504          3.0004
  31334614.95646  24974382.56546  22012864.8914   22012868.9224
        19.0004         16.0004
   8986213.80947   7049926.69046  20748098.9144   20748103.6604
        24.7504         25.0004
  -5663675.73646  -4323596.25145  22666262.3204   22666268.4494
        13.2504         11.0004
  23098522.72145  11102412.61445  23633612.0004   23633620.3714
         9.0004          8.2504
  29824551.08843  23326613.68845  24086454.5314   24086463.1724
         5.5004          6.2504
  26891521.45541                  25264931.3524
         3.2504
 03 10 28  0 22  0.0000000  0  8G 9G 8G28G 7G 4G26G29G11
  -5961244.32646  -3871387.29146  21959397.3594   21959402.3634
        17.5004         15.0004
  54716643.16943  -1038085.96544  24174781.3204   24174789.8444
         6.7504          4.7504
  31465041.31146  25076013.47846  22037684.4534   22037688.3914
        19.0004         16.2504
   9093226.52747   7133313.23346  20768462.8754   20768467.6334
        24.5004         25.0004
  -5680024.04546  -4336335.09445  22663150.4304   22663157.0744
        13.2504         11.2504
  23256923.44245  11225841.64545  23663755.8054   23663763.4264
         9.0004          8.7504
  29989708.40843  23455307.51945  24117883.0314   24117894.0394
         5.2504          5.7504
  27054825.26841                  25296007.9454
         3.2504
 03 10 28  0 22 30.0000000  0  8G 9G 8G28G 7G 4G26G29G11
  -5953744.71446  -3865543.37446  21960823.8054   21960829.1954
        16.5004         14.5004
  54908697.68945   -888433.28945  24211328.2734   24211338.0864
         8.0004          7.2504
  31595652.63846  25177788.54346  22062538.6334   22062542.4774
        18.7504         16.0004
   9200548.16847   7216940.50346  20788885.4924   20788890.1914
        24.5004         24.7504
  -5696105.92346  -4348866.30945  22660091.0004   22660097.8324
        14.0004         11.7504
  23415544.67245  11349442.53445  23693939.1954   23693945.6764
         8.7504          8.0004
  30154958.39643  23584073.59745  24149330.3444   24149337.2734
         6.0004          6.2504
  27218393.34041                  25327133.5084
         3.0004
 03 10 28  0 23  0.0000000  0  8G 9G 8G28G 7G 4G26G29G11
  -5945832.61446  -3859378.03146  21962329.6254   21962334.4534
        17.5004         15.2504
  55100865.92244   -738691.94445  24247896.3674   24247904.5864
         7.0004          6.5004
  31726452.95846  25279710.86346  22087429.5234   22087433.4144
        18.7504         15.7504
   9308181.61647   7300810.73846  20809367.5164   20809372.2274
        24.7504         24.7504
  -5711914.18046  -4361184.31145  22657081.9614   22657087.2114
        13.0004         11.2504
  23574387.70645  11473216.24845  23724166.4844   23724173.1524
         9.0004          8.2504
  30320302.69743  23712913.18445  24180794.8444   24180800.8914
         6.0004          6.0004
  27382227.50641                  25358309.7424
         3.0004
 03 10 28  0 23 30.0000000  0  8G 9G 8G28G 7G 4G26G29G11
  -5937517.62046  -3852898.74546  21963911.7274   21963916.6254
        18.0004         16.0004
  55293133.91742   -588872.77445  24284484.9844   24284498.4534
         4.7504          5.7504
  31857430.55046  25381771.32646  22112353.6884   22112357.4494
        18.5004         15.5004
   9416113.36747   7384913.41146  20829906.1954   20829910.7544
        24.5004         24.7504
  -5727457.42346  -4373295.80845  22654124.5944   22654129.7154
        13.5004         11.5004
  23733437.53945  11597151.09545  23754432.4454   23754439.8094
         9.0004          8.0004
  30485725.99343  23841814.19745  24212270.2974   24212278.7734
         5.5004          6.5004
  27546313.30241                  25389533.3914
         3.0004
 03 10 28  0 24  0.0000000  0  8G 9G 8G28G 7G 4G26G29G11
  -5928796.77246  -3846103.21346  21965571.3754   21965576.5904
        17.5004         15.0004
  55485499.96342   -438977.41644  24321090.2424   24321100.3484
         4.2504          4.2504
  31988585.63146  25483970.09946  22137311.2734   22137315.0824
        18.2504         15.7504
   9524342.42547   7469247.75946  20850501.6024   20850506.1134
        24.5004         24.5004
  -5742732.04046  -4385198.00545  22651217.5474   22651223.5354
        13.5004         11.0004
  23892691.26845  11721244.81045  23784734.9694   23784743.0944
         8.5004          7.7504
  30651225.50043  23970774.74245  24243766.4144   24243775.9574
         6.0004          5.5004
  27710648.68941                  25420805.9304
         2.5004
 03 10 28  0 24 30.0000000  0  8G 9G 8G28G 7G 4G26G29G11
  -5919659.54446  -3838983.22346  21967309.9774   21967314.6884
        17.0004         14.5004
  55677969.96943   -289000.67044  24357716.8834   24357723.9064
         5.5004          4.7504
  32119926.43046  25586313.56646  22162304.6644   22162308.7194
        18.2504         15.5004
   9632875.36247   7553818.89046  20871154.7194   20871159.1484
        24.5004         24.7504
  -5757726.96046  -4396882.22745  22648364.1334   22648369.5824
        13.2504         11.2504
  24052154.09845  11845501.50945  23815083.3754   23815089.7974
         9.0004          8.5004
  30816806.63343  24099798.84545  24275276.0234   24275283.7624
         6.2504          6.0004
  -3123397.25751                  25452127.3364
         2.7504
 03 10 28  0 25  0.0000000  0  8G 9G 8G28G 7G 4G26G29G11
  -7485533.52146  -5059144.69646  21669333.9064   21669338.6764
        17.7504         15.0004
  54295117.89543  -1366547.93645  24094568.0554   24094578.1484
         6.2504          6.2504
  30676027.10646  24461197.21846  21887539.9534   21887543.8094
        18.2504         15.5004
   8166284.31147   6411020.68246  20592071.9454   20592076.3284
        24.5004         24.5004
  -7347869.56846  -5635954.30245  22345769.9924   22345776.0514
        13.5004         11.5004
  22636398.17845  10742314.95845  23545674.4304   23545682.2274
         9.0004          8.0004
  29407041.46442  23001280.41245  24007004.9304   24007014.6024
         4.7504          5.5004
  -4698776.60451                  25183702.7734
         2.7504
 03 10 28  0 25 30.0000000  0  8G 9G 8G28G 7G 4G26G29G11
  -7475569.09746  -5051380.14346  21671230.1644   21671234.7934
        18.2504         16.5004
  54487776.60143  -1216424.38945  24131229.8364   24131237.1524
         6.0004          6.5004
  30807726.70846  24563820.28446  21912601.1334   21912604.8244
        18.0004         15.5004
   8275408.15247   6496052.25746  20612837.2344   20612841.9104
        24.5004         24.5004
  -7362308.11646  -5647204.97145  22343022.3444   22343027.9104
        14.0004         11.2504
  22796257.28945  10866880.43545  23576093.9694   23576099.9574
         9.0004          8.5004
  29572763.60043  23130414.43345  24038540.0864   24038550.7074
         5.0004          6.0004
  -4698735.13351                  25215116.2194
         2.5004
 03 10 28  0 26  0.0000000  0  8G 9G 8G28G 7G 4G26G29G11
  -7465190.93546  -5043293.18346  21673204.9614   21673210.5744
        17.7504         16.2504
  54680523.21543  -1066232.38045  24167908.4144   24167914.4734
         6.0004          6.5004
  30939602.29746  24666580.49446  21937696.4534   21937700.4734
        18.2504         15.7504
   8384821.96547   6581309.78246  20633658.0394   20633662.6804
        24.2504         24.5004
  -7376467.24746  -5658237.97645  22340327.7734   22340333.6094
        14.5004         11.5004
  22956306.62145  10991594.10845  23606549.9694   23606556.2974
         8.5004          7.5004
  29738548.28043  23259597.12445  24070089.9924   24070101.5744
         5.2504          6.0004
                                  25246576.1884
         2.5004
 03 10 28  0 26 30.0000000  0  8G 9G 8G28G 7G 4G26G29G11
  -7454392.47746  -5034878.72046  21675259.6644   21675265.1954
        17.2504         16.0004
  54873359.59443   -915970.42645  24204603.8834   24204613.0984
         6.5004          6.0004
  31071657.78546  24769480.86746  21962825.8134   21962829.5274
        18.0004         15.5004
   8494528.28847   6666795.23446  20654534.1414   20654538.8404
        24.2504         24.2504
  -7390339.70146  -5669047.54945  22337687.3594   22337692.6214
        14.5004         11.7504
  23116547.04545  11116456.71245  23637041.2274   23637049.8204
         8.2504          8.0004
  29904396.67343  23388829.46045  24101651.5704   24101662.6024
         5.2504          6.0004
                                  25278077.7424
         2.5004
 03 10 28  0 27  0.0000000  0  8G 9G 8G28G 7G 4G26G29G11
  -7443172.92446  -5026136.13946  21677394.3914   21677399.2304
        17.5004         15.7504
  55066282.28144   -765641.15145  24241315.9304   24241325.6954
         7.5004          6.2504
  31203892.08846  24872520.58246  21987989.2344   21987992.7734
        18.0004         15.2504
   8604524.28547   6752506.41146  20675465.9064   20675470.7464
        24.2504         24.2504
  -7403923.45346  -5679632.18846  22335103.1334   22335109.4144
        14.5004         12.0004
  23276974.21545  11241464.80545  23667569.2114   23667575.5044
         8.2504          8.7504
  30070304.59242  23518108.34544  24133220.9694   24133234.9414
         4.2504          4.7504
  -4565990.21541                  25309631.6414
         2.7504
 03 10 28  0 27 30.0000000  0  7G 9G 8G28G 7G 4G26G29
  -7431537.99646  -5017069.90246  21679608.5864   21679613.5314
        18.0004         15.7504
  55259280.91644   -615252.63044  24278042.5784   24278049.5784
         7.7504          4.5004
  31336296.96346  24975693.22146  22013185.1094   22013188.4264
        18.0004         15.2504
   8714800.38447   6838435.84846  20696450.7584   20696455.5984
        24.2504         24.2504
  -7417224.02146  -5689996.15646  22332571.7344   22332578.0514
        14.5004         12.0004
  23437576.89345  11366609.71045  23698134.8594   23698141.5864
         9.0004          7.2504
  -4632218.62553                  24164803.4844
         5.5004
 03 10 28  0 28  0.0000000  0  8G 9G 8G28G 7G 4G26G29G11
  -7419488.63046  -5007680.71546  21681901.6644   21681907.1484
        18.0004         16.0004
  55452349.90644   -464809.31945  24314782.0634   24314785.9184
         7.0004          5.2504
  31468868.84546  25078995.99046  22038412.6334   22038416.5704
        18.0004         15.0004
   8825351.67347   6924579.70946  20717487.8444   20717492.4384
        24.2504         24.2504
  -7430241.37246  -5700139.39845  22330094.0004   22330099.5664
        13.5004         11.5004
  23598348.39245  11491886.04045  23728726.5314   23728734.7974
         8.2504          7.7504
  -4466221.56643                  24196391.7814
         5.0004
                                  25372861.8284
         2.7504
 03 10 28  0 28 30.0000000  0  7G 9G 8G28G 7G 4G26G29
  -7407013.35146  -4997959.64146  21684275.6414   21684280.6804
        18.2504         16.5004
  55645496.40743   -314305.69644  24351537.1254   24351546.5634
         6.0004          4.7504
  31601617.18746  25182436.26646  22063673.9384   22063677.6414
        18.2504         15.0004
   8936185.92547   7010944.07146  20738579.0234   20738583.7464
        24.0004         24.2504
  -7442963.36746  -5710052.53646  22327673.4924   22327680.0784
        14.2504         12.0004
  23759295.07645  11617298.98245  23759354.6254   23759362.5044
         8.2504          8.0004
  -4300176.39443  -3682804.93854  24227989.0004   24227993.0784
         5.0004          4.5004
 03 10 28  0 29  0.0000000  0  7G 9G 8G28G 7G 4G26G29
  -7394112.32946  -4987906.82046  21686730.5084   21686735.5824
        18.0004         16.2504
  55838715.66643   -163745.26744  24388304.8594   24388316.3244
         5.0004          4.5004
  31734539.29946  25286011.94546  22088967.8754   22088972.1644
        17.7504         15.0004
   9047299.05747   7097525.74346  20759723.2034   20759727.7154
        24.2504         24.0004
  -7455389.37546  -5719734.99646  22325308.5084   22325315.2584
        14.5004         12.2504
  23920411.23645  11742843.92945  23790014.1564   23790024.0274
         8.0004          7.5004
  -4134089.15842  -3553386.34345  24259592.2894   24259600.4024
         4.7504          5.2504
 03 10 28  0 29 30.0000000  0  7G 9G 8G28G 7G 4G26G29
  -7380783.29246  -4977520.49046  21689266.7504   21689271.9414
        18.0004         16.2504
  56032005.70142    -13129.85045  24425087.5084   24425095.7734
         4.7504          5.5004
  31867635.25746  25389723.07646  22114295.1414   22114298.9264
        17.5004         14.0004
   9158689.62947   7184323.59646  20780920.1174   20780925.0274
        24.2504         24.0004
  -7467516.31346  -5729184.41946  22323000.4454   22323005.7894
        14.7504         12.5004
  24081693.69844  11868518.49945  23820703.9454   23820710.8754
         7.2504          7.5004
  -3967962.42243  -3423937.13345  24291210.4454   24291214.1254
         6.2504          5.0004
 03 10 28  0 30  0.0000000  0  8G 9G 8G28G 7G 4G26G 5G29
  -7367020.69246  -4966796.32246  21691885.7664   21691890.7114
        18.2504         16.0004
  56225367.47042    137541.46943  24461882.9844   24461899.5594
         4.5004          3.7504
  32000908.20146  25493572.13946  22139656.5634   22139660.7934
        17.7504         14.5004
   9270359.37147   7271338.98346  20802169.9304   20802174.4414
        24.2504         24.0004
  -7479338.04246  -5738396.03046  22320750.9774   22320756.3554
        15.0004         12.7504
  24243142.66245  11994322.77745  23851428.0084   23851436.5314
         8.2504          8.0004
  -4731743.55851                  25238535.8984
         3.7504
  -3801796.31442  -3294457.15945  24322822.7584   24322836.1214
         4.2504          6.0004
 03 10 28  0 30 30.0000000  0  8G 9G 8G28G 7G 4G26G 5G29
  -7352825.20046  -4955734.83946  21694586.9924   21694592.1604
        18.5004         16.5004
  56418795.85942    288264.74345  24498690.6564   24498699.2154
         4.5004          5.2504
  32134355.27746  25597556.88146  22165050.3364   22165053.9924
        17.7504         14.5004
   9382303.89547   7358568.49246  20823472.3984   20823476.9574
        24.2504         24.0004
  -7490854.27446  -5747369.58346  22318559.5004   22318565.2424
        14.7504         12.5004
  24404752.05844  12120252.10345  23882179.7734   23882188.4734
         7.5004          6.7504
                                  25235678.8204
         3.0004
  -3635596.86243  -3164951.23545  24354455.7664   24354470.1954
         5.7504          5.5004
 03 10 28  0 31  0.0000000  0  8G 9G 8G28G 7G 4G26G 5G29
  -7338195.84346  -4944335.28446  21697370.9384   21697375.9184
        18.7504         16.7504
  56612287.44942    439037.32845  24535511.4144   24535518.1524
         4.7504          5.2504
  32267975.06246  25701676.19946  22190477.4774   22190481.4494
        17.7504         14.0004
   9494520.37847   7446009.91146  20844826.5554   20844831.0664
        24.2504         24.0004
  -7502063.37746  -5756103.81646  22316426.8134   22316432.9654
        15.2504         12.7504
  24566517.48945  12246303.01845  23912964.6804   23912973.2154
         8.2504          7.2504
  -4734787.42951                  25232817.8834
         3.2504
  -3469368.64342  -3035422.89245  24386083.5314   24386093.0394
         4.2504          6.2504
 03 10 28  0 31 30.0000000  0  8G 9G 8G28G 7G 4G26G 5G29
  -7323122.80346  -4932589.99346  21700238.6954   21700243.4774
        18.5004         16.7504
  56805847.63343    589863.24045  24572344.8134   24572354.3204
         5.7504          6.0004
  32401775.19246  25805936.04846  22215938.5704   22215942.9064
        17.5004         14.2504
   9607015.00147   7533668.06946  20866233.5234   20866238.1884
        24.2504         23.7504
  -7512954.43746  -5764590.21946  22314354.0004   22314359.5784
        15.2504         12.7504
  24728443.34644  12372478.84845  23943775.2274   23943784.7464
         7.2504          7.2504
                                  25229949.3364
         4.0004
  -3303106.30943  -2905868.01845  24417727.8364   24417735.0704
         6.0004          5.7504
 03 10 28  0 32  0.0000000  0  8G 9G 8G28G 7G 4G26G 5G29
  -7307613.34346  -4920504.63746  21703190.2814   21703195.5084
        18.7504         16.5004
  56999464.72243    740733.56645  24609188.8284   24609200.1764
         6.2504          6.7504
  32535746.23146  25910329.08046  22241432.5864   22241436.3594
        17.5004         14.2504
   9719776.70247   7621534.33746  20887691.2734   20887695.9024
        24.2504         23.7504
  -7523534.16746  -5772834.05446  22312340.7894   22312346.1684
        15.2504         13.0004
  24890517.19945  12498770.05245  23974620.6564   23974630.1884
         8.7504          7.2504
  -4740888.21243                  25227069.6884
         5.0004
  -3136823.06143  -2776296.88245  24449368.9924   24449378.9574
         5.7504          6.2504
 03 10 28  0 32 30.0000000  0  8G 9G 8G28G 7G 4G26G 5G29
  -7291654.95346  -4908069.47846  21706227.1334   21706231.8324
        19.2504         16.7504
  57193146.83043    891654.58145  24646046.2194   24646054.6954
         6.7504          6.2504
  32669898.19646  26014863.07546  22266960.9384   22266964.7464
        17.0004         14.2504
   9832814.15047   7709615.47046  20909201.5314   20909206.2424
        24.2504         24.0004
  -7533789.22446  -5780824.89046  22310388.6334   22310394.2584
        15.2504         12.7504
  25052745.91944  12625181.95445  24005489.1254   24005496.9694
         7.2504          7.2504
  -4756060.14943                  25224181.8984
         5.5004
  -2970511.68942  -2646703.61345  24481017.4534   24481028.5204
         4.2504          6.0004
 03 10 28  0 33  0.0000000  0  8G 9G 8G28G 7G 4G26G 5G29
  -7275252.65846  -4895288.41946  21709348.5084   21709353.0434
        19.5004         17.0004
  57386884.54643   1042618.86245  24682912.8754   24682922.1024
         6.7504          6.7504
  32804223.94246  26119532.49046  22292522.0234   22292525.3054
        16.7504         14.0004
   9946118.64547   7797904.69546  20930762.4694   20930767.2154
        24.0004         24.2504
  -7543723.94646  -5788566.08846  22308498.3364   22308503.2814
        15.0004         12.5004
  25215119.37345  12751706.64845  24036389.4144   24036397.3284
         8.5004          7.2504
  -4771278.52443                  25221286.6254
         6.0004
  -2804182.21143  -2517096.50545  24512667.3834   24512679.2704
         5.0004          5.2504
 03 10 28  0 33 30.0000000  0  8G 9G 8G28G 7G 4G26G 5G29
  -7258401.43346  -4882157.53746  21712554.6724   21712559.0784
        19.2504         16.7504
  57580678.57643   1193627.03345  24719791.0164   24719802.4104
         6.2504          6.0004
  32938726.13146  26224339.39346  22318117.1174   22318121.8164
        16.7504         14.2504
  10059691.53047   7886403.05346  20952374.8984   20952379.7034
        24.2504         23.7504
  -7553332.54546  -5796053.17446  22306670.2194   22306675.7624
        15.2504         12.7504
  25377637.19944  12878343.86245  24067312.2344   24067318.0824
         7.2504          7.0004
  -4786539.89043  -3683594.07355  25218382.0314   25218394.8794
         6.2504          6.0004
  -2637834.68442  -2387475.22044  24544323.7424   24544338.5594
         4.5004          4.7504
 03 10 28  0 34  0.0000000  0  8G 9G 8G28G 7G 4G26G 5G29
  -7241091.01246  -4868668.84346  21715849.1334   21715854.0314
        19.7504         17.2504
  57774534.77043   1344683.70044  24756680.6024   24756687.2464
         6.0004          4.2504
  33073412.99746  26329290.20446  22343746.9454   22343751.1994
        16.2504         13.7504
  10173539.46647   7975115.74546  20974039.4924   20974044.1094
        24.2504         24.0004
  -7562603.50746  -5803277.19246  22304905.2814   22304910.6024
        15.2504         13.2504
  25540304.53145  13005097.46245  24098268.8674   24098275.1484
         8.0004          7.7504
  -4801835.42243  -3695512.52745  25215470.0004   25215481.2894
         6.2504          6.5004
  -2471464.04742  -2257835.84243  24575982.3284   24575988.2464
         4.5004          3.5004
 03 10 28  0 34 30.0000000  0  8G 9G 8G28G 7G 4G26G 5G29
  -7223326.39746  -4854826.23746  21719229.6884   21719234.8204
        19.7504         17.5004
  57968443.79943   1495781.54344  24793580.5554   24793589.1724
         5.5004          4.7504
  33208277.30546  26434379.28746  22369410.7664   22369414.8554
        16.2504         14.0004
  10287653.65947   8064035.91046  20995754.7894   20995759.5474
        24.2504         23.7504
  -7571541.49746  -5810241.71746  22303205.1414   22303210.5204
        16.0004         13.0004
  25703110.87244  13131959.48645  24129250.9844   24129256.8554
         7.5004          7.5004
  -4817172.19343  -3707463.01245  25212551.9384   25212560.1454
         6.0004          5.2504
  -2305080.59942                  24607646.1564
         4.5004
 03 10 28  0 35  0.0000000  0  8G 9G 8G28G 7G 4G26G 5G29
  -8780516.95746  -6068221.42846  21422905.9774   21422910.8404
        19.5004         17.5004
  56586997.70442                  24530699.6644
         4.5004
  31767911.29446  25312016.15246  22095318.6644   22095322.6604
        16.0004         14.0004
   8826624.25147   6925571.44746  20717729.9774   20717734.7114
        24.2504         23.7504
  -9155555.71946  -7044538.39546  22001776.3524   22001781.2734
        15.2504         13.0004
  24290646.46644  12031337.70645  23860468.3594   23860474.0434
         7.5004          7.5004
  -6407962.56043  -4947039.69445  24909834.5394   24909843.9534
         5.5004          6.5004
  -3714094.14343                  24339520.1024
         5.2504
 03 10 28  0 35 30.0000000  0  8G 9G 8G28G 7G 4G26G 5G29
  -8761821.50846  -6053653.49046  21426463.6414   21426468.4574
        19.7504         17.5004
  56781021.73042                  24567620.6564
         4.0004
  31903146.21646  25417394.00446  22121052.5634   22121056.1374
        16.0004         13.7504
   8941282.43747   7014915.49546  20739548.7194   20739553.1724
        24.2504         23.7504
  -9163802.55346  -7050964.38446  22000207.0784   22000212.1764
        15.7504         13.2504
  24453737.50745  12158421.55845  23891503.2274   23891511.4694
         8.0004          7.7504
  -6423364.20843  -4959040.74244  24906904.5004   24906916.6454
         5.0004          4.7504
  -3547678.30642  -4910404.85553  24371185.4844   24371194.3364
         4.5004          3.5004
 03 10 28  0 36  0.0000000  0  8G 9G 8G28G 7G 4G26G 5G29
  -8742662.30946  -6038724.20346  21430109.3204   21430113.9614
        19.5004         17.5004
  56975095.01041                  24604551.4844
         3.2504
  32038561.25746  25522912.22346  22146821.5554   22146825.6334
        16.0004         13.5004
   9056205.29947   7104465.79346  20761417.7894   20761422.4064
        24.2504         23.7504
  -9171704.21646  -7057121.41346  21998703.3364   21998708.9964
        15.5004         13.2504
  24616961.27144  12285608.76645  23922562.4304   23922571.9734
         7.7504          7.0004
  -6438802.01442  -4971069.97445  24903963.9384   24903972.2854
         4.0004          5.0004
  -3381255.58642  -4780724.97844  24402855.2274   24402862.9654
         4.2504          4.7504
 03 10 28  0 36 30.0000000  0  8G 9G 8G28G 7G 4G26G 5G29
  -8723038.63346  -6023432.96946  21433843.5314   21433848.3364
