     2.10           OBSERVATION DATA    G (GPS)             RINEX VERSION / TYPE
teqc  2007Feb5      UNAVCO Archive Ops  20070321 07:52:58UTCPGM / RUN BY / DATE
Solaris 5.10|UltraSparc IIIi|cc -xarch=v9 SC5.8|=+-|*Sparc  COMMENT
BIT 2 OF LLI FLAGS DATA COLLECTED UNDER A/S CONDITION       COMMENT
GARL                                                        MARKER NAME
49721S001                                                   MARKER NUMBER
Davis, Jim          Harvard-Smithsonian CfA                 OBSERVER / AGENCY
3609A14796          TRIMBLE 4000SSI     7.19B               REC # / TYPE / VERS
0220062100          TRM29659.00     SCIS                    ANT # / TYPE
 -2384509.0615 -4239524.8940  4114370.6286                  APPROX POSITION XYZ
        0.0884        0.0000        0.0000                  ANTENNA: DELTA H/E/N
     1     1                                                WAVELENGTH FACT L1/2
     7    L1    L2    C1    P2    P1    S1    S2            # / TYPES OF OBSERV
    30.0000                                                 INTERVAL
RINEX file created by UNAVCO GPS Archive.                   COMMENT
For more information contact archive@unavco.org             COMMENT
Monument ID: 11764                                          COMMENT
UNAVCO 4-char name:   GARL                                  COMMENT
4-char name from Log or data file: GARL                     COMMENT
Monument location: 40.416527 -119.355457 1640.2266          COMMENT
Visit ID: 59421                                             COMMENT
                                                            COMMENT
GARL-BRGN-NV1996                                            COMMENT
                                                            COMMENT
End of DB comments                                          COMMENT
 SNR is mapped to RINEX snr flag value [1-9]                COMMENT
  L1: 3 -> 1; 8 -> 5; 40 -> 9                               COMMENT
  L2: 1 -> 1; 5 -> 5; 60 -> 9                               COMMENT
  2003    11     2     0     0   30.0000000     GPS         TIME OF FIRST OBS
                                                            END OF HEADER
 03 11  2  0  0 30.0000000  0  7G11G 7G 9G 4G 8G26G29
     61996.09351                  25180478.8914
         3.0004
  -7959336.53557  -6371052.78356  20677955.2194   20677959.9774
        22.0004         24.0004
 -10359590.08056  -6934879.25756  21898582.8674   21898587.9884
        16.0004         14.7504
  -7781783.92955  -5802568.75255  22628845.6484   22628853.0234
        10.7504         10.2504
  16848242.07853    891367.39555  24045665.5944   24045678.6054
         6.5004          7.2504
   5610793.05455   8199975.66055  23557393.6954   23557404.1644
         8.0004          8.2504
     63212.67353                  24002734.0554
         5.2504
 03 11  2  0  1  0.0000000  0  8G11G28G 7G 9G 4G 8G26G29
    171626.30741                  25201340.8674
         3.2504
        -2.58556        -2.94156  21951337.3594   21951341.7424
        17.0004         15.7504
  -7906036.61947  -6329520.35346  20688098.0084   20688102.8834
        22.0004         24.2504
 -10406071.03246  -6971098.09646  21889737.6094   21889742.4614
        16.0004         14.7504
  -7851942.47945  -5857237.54245  22615495.4224   22615503.3244
        11.5004         10.7504
  16986664.89543    999229.20845  24072006.0474   24072015.4024
         5.5004          5.0004
   5715737.14045   8281750.14845  23577365.0554   23577373.5784
         8.0004          7.7504
    174855.95843                  24023978.4144
         5.2504
 03 11  2  0  1 30.0000000  0  8G11G28G 7G 9G 4G 8G26G29
    281532.96941                  25222254.9454
         3.0004
     76996.19746     59996.09446  21965989.6414   21965994.1994
        17.0004         15.2504
  -7852416.34747  -6287738.30246  20698301.4694   20698306.2624
        22.0004         24.0004
 -10452137.73546  -7006994.14246  21880971.1414   21880976.2504
        15.0004         14.0004
  -7921829.43946  -5911694.68145  22602196.4614   22602204.7734
        12.0004         11.0004
  17125211.97443   1107187.87744  24098371.6484   24098389.2194
         5.5004          4.7504
   5820913.61944   8363705.71545  23597379.6174   23597389.7584
         7.7504          7.5004
    286605.02043      2900.15555  24045244.2194   24045253.9384
         5.5004          5.7504
 03 11  2  0  2  0.0000000  0  8G11G28G 7G 9G 4G 8G26G29
    391712.25441                  25243222.3054
         2.7504
    154187.90846    120145.46946  21980679.1334   21980682.9774
        17.0004         15.2504
  -7798478.87147  -6245709.08246  20708565.2114   20708569.9104
        22.0004         24.0004
 -10497789.53246  -7042566.88646  21872283.9924   21872289.3244
        15.2504         14.7504
  -7991443.23246  -5965939.00045  22588949.5554   22588957.5744
        12.5004         11.2504
  17263879.52244   1215240.24045  24124759.4774   24124772.5004
         7.0004          6.7504
   5926317.56844   8445838.49545  23617436.7194   23617445.1954
         7.7504          8.2504
    398455.84143     90056.40545  24066527.5864   24066540.1414
         5.2504          6.5004
 03 11  2  0  2 30.0000000  0  8G11G28G 7G 9G 4G 8G26G29
    502159.05941                  25264240.6414
         2.7504
    231569.78546    180443.04046  21995404.1644   21995408.7464
        16.7504         15.5004
  -7744228.46447  -6203436.01446  20718888.9304   20718894.0164
        22.0004         24.0004
 -10543026.79046  -7077816.59946  21863675.4774   21863681.1254
        16.0004         15.2504
  -8060783.96846  -6019970.52545  22575754.2504   22575761.7074
        12.0004         11.2504
  17402662.55243   1323382.70545  24151168.9774   24151179.9844
         6.7504          6.7504
   6031943.24745   8528144.08445  23637537.3754   23637546.6134
         8.0004          8.7504
    510402.17943    177287.04845  24087831.0474   24087844.8554
         5.0004          6.5004
 03 11  2  0  3  0.0000000  0  8G11G28G 7G 9G 4G 8G26G29
    612873.36941                  25285306.3364
         2.7504
    309144.22446    240890.64646  22010165.9064   22010170.2194
        16.5004         14.7504
  -7689664.08447  -6160918.29746  20729272.1024   20729277.0004
        22.0004         23.7504
 -10587844.66646  -7112739.53046  21855147.0004   21855152.5084
        16.0004         15.2504
  -8129845.76745  -6073784.71345  22562611.6804   22562618.5004
        11.7504         10.7504
  17541561.32243   1431615.31745  24177600.7894   24177608.4454
         5.0004          5.2504
   6137790.01444   8610621.93545  23657678.0944   23657685.8444
         7.7504          8.0004
    622443.12743    264591.40545  24109152.5864   24109163.1844
         5.7504          6.7504
 03 11  2  0  3 30.0000000  0  8G11G28G 7G 9G 4G 8G26G29
                                  25306426.5164
         2.5004
    386911.73046    301488.69746  22024964.8594   22024969.3954
        16.5004         14.7504
  -7634786.80347  -6118156.75946  20739714.9064   20739719.6644
        22.0004         23.7504
 -10632240.24546  -7147333.38946  21846698.4454   21846704.5394
        15.2504         14.5004
  -8198624.86645  -6127378.62945  22549523.3914   22549530.6724
        11.7504         11.0004
  17680574.57941   1539937.09944  24204054.3134   24204068.0744
         3.7504          4.7504
   6243855.36645   8693270.12045  23677862.7034   23677872.9614
         8.0004          8.2504
    734576.52243    351967.82145  24130491.6094   24130504.3284
         5.7504          6.2504
 03 11  2  0  4  0.0000000  0  8G11G28G 7G 9G 4G 8G26G29
     85309.91451                  25327597.3134
         2.5004
    464877.90246    362241.55946  22039801.0314   22039805.2034
        16.2504         15.0004
  -7579592.26247  -6075148.01446  20750218.0474   20750222.8164
        22.0004         23.7504
 -10676205.44746  -7181591.89846  21838331.9844   21838337.0594
        15.7504         14.2504
  -8267112.65246  -6180745.50645  22536490.7974   22536497.3364
        12.5004         11.0004
  17819705.34442   1648350.46644  24230530.1724   24230545.0004
         4.2504          4.2504
   6350141.62244   8776090.40145  23698089.1414   23698097.8874
         7.7504          8.5004
    846804.87043    439418.17845  24151847.4534   24151861.6134
         5.0004          6.0004
 03 11  2  0  4 30.0000000  0  8G11G28G 7G 9G 4G 8G26G29
                                  25348817.1884
         2.2504
    543036.76546    423144.54746  22054674.8594   22054679.0904
        16.5004         14.7504
  -7524088.12947  -6031898.02346  20760780.2974   20760785.0084
        21.7504         23.7504
 -10719743.94646  -7215517.92246  21830047.2584   21830052.2274
        16.2504         15.0004
  -8335312.08646  -6233887.75245  22523512.1644   22523519.0354
        12.2504         10.7504
  17958945.59043   1756849.19145  24257026.6094   24257036.4454
         5.5004          6.0004
   6456639.70844   8859075.83445  23718353.5784   23718364.4924
         7.2504          8.0004
    959118.74943    526935.17845  24173221.1254   24173234.3244
         5.0004          6.0004
 03 11  2  0  5  0.0000000  0  8G11G28G 7G 9G 4G 8G26G29
                                  25370084.5084
         2.2504
    621400.20146    484206.96046  22069586.3754   22069590.5944
        16.2504         14.7504
  -7468263.98247  -5988398.67046  20771402.8914   20771407.7304
        21.7504         23.7504
 -10762841.39546  -7249100.25246  21821845.9844   21821851.1644
        16.0004         16.0004
  -8403208.26145  -6286793.66845  22510591.7894   22510599.0824
        11.7504         11.0004
  18098305.02243   1865440.84445  24283545.1804   24283554.2894
         5.5004          6.5004
   6563358.43445   8942233.08845  23738664.3444   23738673.8404
         8.2504          8.2504
   1071527.23743    614525.91045  24194610.3364   24194623.7344
         5.0004          5.2504
 03 11  2  0  5 30.0000000  0  8G11G28G 7G 9G 4G 8G26G29
     41109.10751                  25391408.8594
         2.5004
    699966.18946    545427.19046  22084537.1724   22084541.0514
        16.2504         14.7504
  -7412123.04947  -5944652.47146  20782086.4384   20782091.1604
        21.7504         23.5004
 -10805497.54046  -7282338.70246  21813728.3444   21813733.7704
        15.2504         15.5004
  -8470799.59646  -6339462.07945  22497729.5474   22497736.0274
        12.7504         10.7504
  18237779.70643   1974122.20745  24310087.0704   24310098.8524
         5.2504          6.5004
   6670292.83944   9025558.49245  23759011.6334   23759019.5594
         7.7504          7.2504
   1184025.41042    702186.57645  24216019.6884   24216028.2464
         4.7504          5.2504
 03 11  2  0  6  0.0000000  0  8G11G28G 7G 9G 4G 8G26G29
                                  25412778.2664
         2.2504
    778731.82146    606802.99746  22099525.9774   22099530.1724
        16.5004         15.0004
  -7355669.95647  -5900663.02746  20792829.0164   20792833.8794
        21.7504         23.5004
 -10847713.09746  -7315233.83646  21805695.0004   21805699.7464
        15.2504         15.0004
  -8538086.40046  -6391893.16245  22484925.2424   22484932.4884
        12.7504         11.7504
  18377364.23743   2082889.16845  24336649.7814   24336662.2194
         5.7504          6.5004
   6777436.68044   9109047.03945  23779401.2344   23779410.4264
         7.7504          8.0004
   1296607.05242    789912.29945  24237443.2814   24237452.9184
         4.2504          5.0004
 03 11  2  0  6 30.0000000  0  7G28G 7G 9G 4G 8G26G29
    857703.38446    668339.26146  22114553.5164   22114557.6414
        16.0004         14.5004
  -7298899.70147  -5856426.44746  20803632.1954   20803637.1524
        21.7504         23.5004
 -10889479.18546  -7347778.76546  21797747.1094   21797751.9734
        16.0004         14.7504
  -8605059.05346  -6444079.47045  22472180.5314   22472187.1524
        13.0004         11.7504
  18517063.08743   2191745.18845  24363233.2274   24363241.3984
         6.5004          5.2504
   6884793.42744   9192701.49345  23799830.2114   23799839.3444
         7.7504          7.7504
                                                  23959100.9694
                         4.7504
 03 11  2  0  7  0.0000000  0  7G28G 7G 9G 4G 8G26G29
    936878.33246    730034.01646  22129620.0314   22129624.0394
        16.0004         14.7504
  -7241816.40547  -5811945.93946  20814494.4924   20814499.4024
        21.7504         23.2504
 -10930796.02646  -7379973.62746  21789884.7504   21789890.3984
        16.2504         15.5004
  -8671716.98046  -6496020.56245  22459495.8674   22459503.2424
        12.7504         11.7504
  18656871.39444                  24389838.0704
         7.0004
   6992357.28944   9276517.33545  23820298.7034   23820308.2234
         7.5004          8.0004
     41346.66152                  24280339.9614
         4.5004
 03 11  2  0  7 30.0000000  0  7G28G 7G 9G 4G 8G26G29
   1016256.97346    791887.50246  22144725.0394   22144729.7504
        16.0004         14.5004
  -7184421.33147  -5767222.47746  20825416.6644   20825421.5634
        21.7504         23.2504
 -10971661.24946  -7411816.56146  21782108.5784   21782113.7114
        16.2504         15.7504
  -8738056.78146  -6547713.73945  22446871.3524   22446877.8794
        12.2504         11.2504
  18796787.16743                  24416463.3834
         6.5004
   7100125.52144   9360492.44045  23840806.1564   23840817.7504
         7.2504          8.2504
    154174.98842                  24301807.4924
         4.2504
 03 11  2  0  8  0.0000000  0  7G28G 7G 9G 4G 8G26G29
   1095843.42446    853902.91246  22159870.1484   22159874.4844
        16.2504         14.5004
  -7126711.63347  -5722253.85746  20836398.2424   20836403.1174
        21.7504         23.2504
 -11012068.18446  -7443302.39946  21774418.9694   21774423.8324
        16.2504         16.2504
  -8804071.10146  -6599153.30645  22434309.0554   22434315.3014
        12.5004         11.7504
  18936812.82543                  24443108.6644
         5.7504
   7208099.21444   9444627.63345  23861354.0634   23861364.8714
         7.2504          8.0004
    267083.21942                  24323297.4064
         4.7504
 03 11  2  0  8 30.0000000  0  8G28G 7G 9G 4G 8G26G 5G29
   1175638.07046    916080.55546  22175054.3984   22175058.9804
        16.0004         14.2504
  -7068688.44947  -5677040.96346  20847439.5704   20847444.3054
        21.7504         23.2504
 -11052013.99046  -7474428.91046  21766817.5784   21766822.9104
        16.2504         16.0004
  -8869756.45446  -6650336.52345  22421810.0704   22421816.4694
        13.0004         11.7504
  19076946.27342                  24469776.5004
         4.7504
   7316275.67343   9528920.80445  23881938.8524   23881947.5394
         6.7504          7.2504
    -11315.06952                  25320659.1024
         4.0004
    380068.14143     73366.53254  24344798.5864   24344810.4144
         5.0004          4.2504
 03 11  2  0  9  0.0000000  0  8G28G 7G 9G 4G 8G26G 5G29
   1255640.85446    978420.38846  22190278.2664   22190282.6484
        15.7504         14.2504
  -7010353.46047  -5631585.09846  20858540.2344   20858545.1334
        21.7504         23.2504
 -11091496.81446  -7505194.66546  21759303.8364   21759308.8874
        16.2504         15.7504
  -8935110.02946  -6701261.23346  22409373.1644   22409379.4924
        13.0004         12.0004
  19217185.50042     43716.49154  24496462.1884   24496476.2664
         4.2504          4.5004
   7424651.47943   9613369.36845  23902561.9614   23902572.0314
         6.7504          7.2504
    -79226.22841                  25307732.2114
         3.2504
    493127.09842    161464.24645  24366310.0554   24366320.5004
         4.2504          5.5004
 03 11  2  0  9 30.0000000  0  8G28G 7G 9G 4G 8G26G 5G29
   1335848.05146   1040919.51146  22205541.5474   22205545.7304
        16.2504         14.2504
  -6951711.80747  -5585890.27946  20869699.5234   20869704.3524
        21.7504         23.0004
 -11130518.07446  -7535600.77446  21751878.6644   21751883.7854
        16.5004         15.7504
  -9000132.50346  -6751927.92546  22396999.6564   22397006.2664
        13.2504         12.2504
  19357524.42942    153071.42945  24523168.5864   24523183.2274
         4.0004          5.5004
   7533219.95144   9697968.03045  23923221.9064   23923230.4654
         7.0004          7.5004
   -147156.27241                  25294803.7344
         3.0004
    606252.97243    249613.91145  24387838.7344   24387849.7074
         5.7504          5.2504
 03 11  2  0 10  0.0000000  0  8G28G 7G 9G 4G 8G26G 5G29
   1416263.40546   1103580.83846  22220843.7734   22220848.3554
        15.7504         14.0004
  -6892761.15147  -5539954.67246  20880917.2664   20880921.9884
        21.7504         23.2504
 -11169071.43846  -7565642.27946  21744542.1724   21744547.0004
        17.0004         16.2504
  -9064816.92946  -6802331.18446  22384690.4144   22384696.3914
        13.0004         12.0004
  19497964.66942    262505.24645  24549894.3134   24549908.3674
         4.0004          5.0004
   7641981.69644   9782717.29345  23943919.8134   23943929.8014
         7.2504          7.0004
    -11324.07051                  25281876.5164
         3.0004
    719446.79042    337816.64544  24409378.8594   24409393.3594
         4.2504          4.2504
 03 11  2  0 10 30.0000000  0  8G28G 7G 9G 4G 8G26G 5G29
   1496887.02946   1166404.45346  22236186.0084   22236190.3554
        16.0004         14.0004
  -6833502.89747  -5493779.37546  20892194.0634   20892198.9844
        21.7504         23.0004
 -11207154.47946  -7595317.29446  21737295.1564   21737300.0204
        16.7504         15.7504
  -9129160.10246  -6852468.57146  22372446.1724   22372453.4184
        13.2504         12.2504
  19638504.53942    372016.64644  24576636.9304   24576654.3594
         4.2504          4.7504
   7750933.91343   9867615.01945  23964651.2344   23964660.2734
         6.5004          7.2504
    -79282.42541                  25268947.3524
         3.7504
    832705.88443    426070.24845  24430932.7344   24430946.7074
         5.5004          5.2504
 03 11  2  0 11  0.0000000  0  8G28G 7G 9G 4G 8G26G 5G29
   1577720.30446   1229391.41546  22251568.0314   22251572.0394
        15.7504         13.7504
  -6773937.00947  -5447364.37246  20903528.8834   20903533.5124
        21.7504         23.0004
 -11244763.57446  -7624623.00946  21730138.0234   21730142.7934
        16.7504         16.0004
  -9193157.66646  -6902336.63146  22360268.0394   22360275.2504
        14.0004         12.7504
  19779142.88243    481604.81945  24603399.5084   24603408.6174
         5.0004          6.2504
   7860074.89644   9952659.72945  23985422.0944   23985432.2114
         7.2504          7.2504
   -147252.54842                  25256008.2664
         4.5004
    946028.29842    514373.20945  24452493.5944   24452505.3754
         4.0004          5.2504
 03 11  2  0 11 30.0000000  0  8G28G 7G 9G 4G 8G26G 5G29
   1658760.65546   1292539.75846  22266989.6564   22266994.3914
        15.7504         14.0004
  -6714067.46947  -5400712.75146  20914921.3284   20914925.9924
        21.7504         23.0004
 -11281898.91246  -7653559.55846  21723071.6804   21723076.5204
        17.0004         16.5004
  -9256808.86446  -6951934.76846  22348155.5234   22348163.0864
        13.7504         12.5004
  19919875.20843    591266.28445  24630180.6724   24630193.4734
         5.5004          5.2504
   7969398.79843  10037847.09245  24006224.2504   24006235.0234
         6.7504          7.2504
   -215236.28242    -10594.14854  25243072.7194   25243083.5984
         4.7504          4.0004
   1059408.05643    602720.80545  24474074.7584   24474086.9614
         5.5004          5.5004
 03 11  2  0 12  0.0000000  0  8G28G 7G 9G 4G 8G26G 5G29
   1740015.00046   1355854.83546  22282451.7194   22282456.2304
        15.7504         13.7504
  -6653889.33647  -5353820.67046  20926373.2504   20926378.0554
        21.7504         23.0004
 -11318551.74046  -7682120.13846  21716096.8594   21716101.4654
        17.5004         16.5004
  -9320104.06646  -7001255.51046  22336110.5084   22336116.9414
        13.7504         12.5004
  20060706.06143    701004.55745  24656980.1804   24656995.4304
         6.0004          6.5004
   8078909.45845  10123179.90445  24027066.4924   24027077.4884
         8.0004          7.0004
   -283226.71643    -63573.53145  25230134.8754   25230145.9304
         5.2504          5.5004
   1172849.72642    691116.67044  24495660.0394   24495669.2194
         4.2504          4.5004
 03 11  2  0 12 30.0000000  0  8G28G 7G 9G 4G 8G26G 5G29
   1821484.96746   1419337.92246  22297954.7504   22297958.7344
        15.0004         13.2504
  -6593402.03947  -5306687.68546  20937883.5164   20937888.2854
        21.5004         23.0004
 -11354717.96446  -7710301.53246  21709214.4694   21709219.4614
        17.5004         16.2504
  -9383038.33646  -7050295.04146  22324134.4454   22324141.1024
        13.7504         12.5004
  20201634.94043    810819.21345  24683797.6884   24683810.4064
         6.0004          6.5004
   8188605.51843  10208657.24145  24047937.1334   24047946.7344
         6.5004          7.5004
   -351221.41843   -116556.12545  25217196.2734   25217205.1604
         5.7504          5.7504
   1286351.79042    779559.58344  24517259.4924   24517271.4734
         4.7504          4.7504
 03 11  2  0 13  0.0000000  0  8G28G 7G 9G 4G 8G26G 5G29
   1903166.42046   1482985.79746  22313498.5234   22313502.4614
        15.2504         13.5004
  -6532611.28347  -5259318.24246  20949451.3134   20949455.8364
        21.7504         23.0004
 -11390399.53346  -7738105.29346  21702424.3444   21702429.4414
        17.5004         16.7504
  -9445612.98246  -7099054.31546  22312226.8834   22312233.1054
        14.0004         13.0004
  20342655.75043    920705.52645  24710632.6804   24710649.0314
         6.0004          5.7504
   8298479.71844  10294273.30545  24068849.0944   24068858.5434
         7.7504          7.5004
   -419223.91843   -169544.77145  25204255.9614   25204264.2274
         6.0004          6.2504
   1399906.88142    868043.87144  24538865.0554   24538878.0084
         4.5004          4.7504
 03 11  2  0 13 30.0000000  0  8G28G 7G 9G 4G 8G26G 5G29
   1985062.43246   1546800.88746  22329082.5234   22329087.5744
        14.5004         13.5004
  -6471515.51047  -5211711.13046  20961077.7194   20961082.5354
        21.5004         23.0004
 -11425591.03446  -7765527.17446  21695727.8364   21695732.3714
        17.7504         17.0004
  -9507821.67346  -7147528.43746  22300389.0234   22300395.9414
        14.2504         13.0004
  20483769.22443   1030663.95145  24737486.5784   24737500.5394
         5.5004          5.7504
   8408532.03143  10380028.25845  24089789.3054   24089795.6684
         6.7504          7.0004
   -487230.39543   -222536.45345  25191311.4064   25191319.7074
         5.5004          5.7504
   1513515.53141    956569.88943  24560485.5634   24560501.7854
         3.2504          3.2504
 03 11  2  0 14  0.0000000  0  8G28G 7G 9G 4G 8G26G 5G29
   2067178.53146   1610787.44446  22344709.1414   22344713.7464
        14.7504         13.2504
  -6410110.52247  -5163863.06046  20972762.4774   20972767.2234
        21.7504         23.0004
 -11460284.56946  -7792561.03046  21689125.7814   21689130.4924
        17.7504         16.7504
  -9569655.97046  -7195710.79246  22288621.5554   22288627.4384
        14.2504         12.5004
  20624979.05143   1140697.51944  24764357.1414   24764372.2034
         5.0004          4.7504
   8518765.10644  10465923.97745  24110768.0944   24110777.7894
         7.2504          7.5004
   -555234.97343   -275526.68545  25178371.2584   25178379.9454
         5.2504          6.5004
   1627179.95641   1045139.28344  24582115.0314   24582125.6764
         3.7504          4.2504
 03 11  2  0 14 30.0000000  0  8G28G 7G 9G 4G 8G26G 5G29
   2149520.81246   1674950.25246  22360377.6804   22360382.2854
        14.5004         13.2504
  -6348391.71347  -5115770.46546  20984507.2194   20984512.0474
        21.7504         23.0004
 -11494472.01746  -7819200.52946  21682620.0084   21682624.8594
        18.0004         17.0004
  -9631106.65746  -7243594.27646  22276928.2194   22276935.3134
        14.5004         12.7504
  20766289.01842   1250809.14744  24791247.5634   24791253.9384
         4.5004          4.2504
   8629181.78943  10551962.77245  24131778.5314   24131786.1294
         6.7504          6.7504
   -623230.74642   -328510.08745  25165432.4304   25165442.4654
         4.5004          5.2504
   1740903.31942   1133754.64244  24603755.5474   24603768.0084
         4.0004          4.0004
 03 11  2  0 15  0.0000000  0  8G28G 7G 9G 4G 8G26G 5G29
   2232078.41546   1739280.83146  22376088.3914   22376093.1724
        14.7504         13.0004
  -6286371.65247  -5067443.12646  20996309.3754   20996314.2034
        21.7504         23.2504
 -11528162.33546  -7845452.66446  21676208.7424   21676213.2074
        17.5004         16.5004
  -9692181.91346  -7291185.20646  22265305.7344   22265312.0274
        14.2504         12.7504
  20907686.07041   1360988.60845  24818154.6024   24818164.7304
         3.7504          5.2504
   8739767.96444  10638133.68145  24152821.6094   24152833.5204
         7.0004          7.0004
   -691228.09442   -381494.61145  25152493.8204   25152505.7774
         4.0004          5.5004
   1854671.70742   1222405.07845  24625406.7114   24625415.8324
         4.5004          5.0004
 03 11  2  0 15 30.0000000  0  8G28G 7G 9G 4G 8G26G 5G29
   2314856.31446   1803783.07846  22391840.7114   22391845.5394
        14.5004         13.0004
  -6224046.52447  -5018878.07046  21008169.6024   21008174.0904
        21.7504         22.7504
 -11561348.16946  -7871311.68646  21669893.5634   21669898.6724
        17.5004         16.7504
  -9752873.23846  -7338476.96046  22253756.1884   22253762.4454
        14.0004         12.7504
  21049172.96041   1471238.25242  24845078.7974   24845094.2934
         3.0004          2.2504
   8850525.83744  10724438.32845  24173897.6024   24173909.0784
         7.0004          7.2504
   -759221.45141   -434476.15144  25139552.5784   25139568.7194
         3.2504          4.0004
   1968487.40141   1311092.34144  24647063.8834   24647074.0354
         3.7504          4.0004
 03 11  2  0 16  0.0000000  0  8G28G 7G 9G 4G 8G26G 5G29
   2397854.49146   1868456.97546  22407634.3364   22407639.2814
        14.7504         13.0004
  -6161418.04347  -4970076.63846  21020087.3914   21020091.6684
        21.7504         22.7504
 -11594027.34546  -7896775.90446  21663675.1804   21663680.1604
        18.0004         17.2504
  -9813178.05546  -7385467.54646  22242280.5234   22242286.7934
        14.2504         12.7504
  21190747.71341                  24872021.2814
         2.5004
   8961452.23944  10810874.33345  24195007.6484   24195016.9454
         7.0004          7.2504
   -827209.85341                  25126617.4144
         2.7504
   2082347.15541   1399813.93843  24668729.5474   24668741.0004
         3.5004          3.5004
 03 11  2  0 16 30.0000000  0  8G28G 7G 9G 4G 8G26G 5G29
   2481075.84046   1933304.78046  22423470.9694   22423475.6804
        14.5004         13.0004
  -6098484.47447  -4921037.46846  21032062.7814   21032067.5164
        21.7504         22.5004
 -11626194.26846  -7921840.97246  21657554.0944   21657558.8164
        18.2504         17.2504
  -9873090.07046  -7432152.04446  22230879.3364   22230886.1454
        15.2504         13.5004
                                  24898975.8914
         1.7504
   9072547.12244  10897441.63345  24216148.7194   24216158.8834
         7.0004          7.2504
    -11327.76151                  25113677.0314
         2.0004
   2196251.71842   1488570.64442  24690408.7894   24690418.0864
         4.5004          2.7504
 03 11  2  0 17  0.0000000  0  6G28G 7G 9G 4G26G29
   2564521.85746   1998327.62346  22439350.3914   22439354.8794
        14.2504         12.7504
  -6035246.12047  -4871760.81546  21044096.7274   21044101.2034
        21.5004         22.7504
 -11657845.86846  -7946504.49946  21651530.6804   21651534.6764
        18.0004         17.2504
  -9932605.22346  -7478527.31346  22219554.3984   22219560.2464
        15.2504         13.5004
   9183808.60443  10984138.72645  24237321.7034   24237334.1294
         6.7504          7.0004
   2310198.74942   1577360.10043  24712092.5004   24712105.7704
         4.5004          3.2504
 03 11  2  0 17 30.0000000  0  6G28G 7G 9G 4G26G29
   2648190.89846   2063524.25846  22455271.6564   22455275.7814
        14.2504         13.2504
  -5971706.01047  -4822249.02046  21056188.0004   21056192.5944
        21.5004         22.5004
 -11688981.79746  -7970766.17046  21645605.7664   21645610.3134
        17.7504         17.0004
  -9991722.19446  -7524592.30946  22208304.2584   22208310.2114
        14.7504         13.2504
   9295232.10843  11070962.04345  24258523.5554   24258533.5554
         6.7504          7.2504
   2424183.41842                  24733780.1334
         4.2504
 03 11  2  0 18  0.0000000  0  7G28G 7G 9G 4G26G 5G29
   1156665.65446    901296.78146  22171444.2664   22171448.5664
        14.5004         13.0004
  -7483283.69847  -6000101.73946  20768544.5474   20768549.5394
        21.7504         22.5004
 -13295020.96346  -9222225.20446  21339986.3134   21339990.8364
        18.2504         17.5004
 -11625859.76546  -8797946.06546  21897338.6804   21897344.9964
        15.2504         13.5004
   7831398.09743   9930312.01645  23979963.9384   23979975.2384
         6.2504          6.7504
  -1627512.85552                  24775088.0784
         4.0004
    962787.30542                  24455686.6094
         4.5004
 03 11  2  0 18 30.0000000  0  7G28G 7G 9G 4G26G 5G29
   1240779.66146    966840.15646  22187450.8984   22187455.2584
        14.5004         13.2504
  -7419145.71647  -5950124.07146  20780749.6484   20780754.2544
        21.5004         22.2504
 -13325120.08446  -9245678.98046  21334259.1174   21334263.9454
        18.7504         17.7504
 -11684172.11646  -8843384.11146  21886241.2894   21886247.1954
        15.2504         13.7504
   7943135.23043  10017379.70845  24001227.7734   24001238.7114
         6.5004          6.5004
  -1695453.73843                  24762159.0864
         5.2504
   1076838.55742  -1195014.39454  24477390.1804   24477404.9024
         4.5004          4.5004
 03 11  2  0 19  0.0000000  0  7G28G 7G 9G 4G26G 5G29
   1325118.73046   1032558.90146  22203499.3284   22203504.3094
        14.0004         12.7504
  -7354708.17047  -5899912.97946  20793011.4384   20793016.0314
        21.7504         22.7504
 -13354694.90546  -9268724.21946  21328630.9614   21328636.0234
        18.2504         18.0004
 -11742075.06046  -8888503.12146  21875223.0864   21875229.0634
        15.7504         13.5004
   8055027.39443  10104568.22745  24022521.6334   24022535.1374
         6.2504          6.7504
  -1763381.10243                  24749231.4844
         6.2504
   1190921.19842  -1106118.95444  24499099.9064   24499117.5234
         4.0004          4.7504
 03 11  2  0 19 30.0000000  0  7G28G 7G 9G 4G26G 5G29
   1409678.30446   1098449.47346  22219590.5704   22219595.4454
        14.0004         13.0004
  -7289977.10047  -5849473.16146  20805329.2424   20805333.8714
        21.7504         22.5004
 -13383747.67946  -9291362.65946  21323102.2274   21323107.3484
        18.2504         17.5004
 -11799570.33946  -8933304.47746  21864281.8444   21864287.8094
        14.7504         13.0004
   8167067.01943  10191871.70445  24043841.9534   24043851.6844
         6.5004          7.2504
  -1831298.80644                  24736308.1954
         7.0004
   1305028.29342  -1017204.63443  24520815.6564   24520827.9774
         4.2504          3.7504
 03 11  2  0 20  0.0000000  0  7G28G 7G 9G 4G26G 5G29
   1494462.04646   1164514.73546  22235724.6564   22235729.1454
        14.0004         13.2504
  -7224950.63747  -5798803.17146  20817703.5634   20817708.2384
        21.5004         22.2504
 -13412273.06146  -9313590.16346  21317673.6484   21317678.6294
        18.5004         17.7504
 -11856651.44646  -8977783.08646  21853419.6484   21853425.6604
        15.0004         13.0004
   8279254.32443  10279290.16845  24065190.7274   24065195.3794
         6.2504          5.5004
  -1899202.82044  -1275219.18055  24723386.2894   24723391.4224
         7.5004          6.2504
   1419159.45241   -928271.49243  24542533.9304   24542554.7974
         3.2504          3.5004
 03 11  2  0 20 30.0000000  0  7G28G 7G 9G 4G26G 5G29
   1579471.80146   1230756.09846  22251901.7974   22251906.3324
        14.0004         12.7504
  -7159628.06247  -5747902.44346  20830134.1024   20830138.5784
        21.5004         22.0004
 -13440266.95346  -9335403.50746  21312347.1414   21312351.4654
        18.7504         18.2504
 -11913313.49346  -9021935.15846  21842637.0234   21842642.1334
        15.2504         13.7504
   8391588.42243  10366823.00445  24086566.6884   24086573.8874
         5.7504          6.0004
  -1967090.43544  -1328118.37545  24710466.5474   24710471.9964
         7.2504          5.2504
   1533314.50041   -839319.86543  24564255.5704   24564266.5434
         3.7504          3.5004
 03 11  2  0 21  0.0000000  0  7G28G 7G 9G 4G26G 5G29
   1664702.46146   1297169.60246  22268120.3284   22268124.8284
        13.7504         12.5004
  -7094016.19347  -5696776.29546  20842619.3524   20842623.8054
        21.5004         22.0004
 -13467732.51146  -9356805.16746  21307120.3054   21307124.8524
        18.7504         18.2504
 -11969558.66846  -9065762.41346  21831933.8204   21831939.6334
        15.0004         13.2504
   8504061.08143  10454463.82545  24107968.5704   24107977.7274
         5.7504          7.0004
  -2034965.95243  -1381008.10845  24697550.6174   24697560.5004
         6.5004          6.2504
   1647485.36642   -750355.79044  24585982.2584   24585988.1994
         4.0004          4.2504
 03 11  2  0 21 30.0000000  0  7G28G 7G 9G 4G26G 5G29
   1750161.56846   1363761.12146  22284382.5634   22284386.6994
        14.0004         12.5004
  -7028108.56547  -5645419.68646  20855161.5004   20855166.1174
        21.2504         22.0004
 -13494660.00146  -9377787.54946  21301996.0004   21302000.6994
        18.7504         18.2504
 -12025376.39246  -9109256.58346  21821312.0164   21821317.7934
        15.2504         13.2504
   8616676.87543  10542216.20545  24129399.7664   24129410.2464
         6.2504          6.7504
  -2102820.73443  -1433881.75645  24684638.0864   24684649.0594
         5.2504          6.5004
   1761676.12142   -661376.25745  24607713.6644   24607733.4734
         4.2504          5.0004
 03 11  2  0 22  0.0000000  0  8G24G28G 7G 9G 4G26G 5G29
  -1607005.13852                  24383651.1954
         4.2504
   1835845.93046   1430528.16546  22300688.1334   22300692.6454
        14.0004         12.7504
  -6961910.21147  -5593836.53946  20867758.3134   20867763.0004
        21.2504         22.0004
 -13521050.97146  -9398351.88146  21296973.6884   21296978.3634
        19.2504         18.2504
 -12080767.21146  -9152418.08146  21810771.3054   21810776.7544
        15.2504         13.7504
   8729429.38443  10630075.06845  24150856.6644   24150868.6094
         6.5004          7.2504
  -2170657.93442  -1486741.66245  24671728.3754   24671738.2934
         4.2504          6.0004
   1875881.29241   -572385.55244  24629448.8754   24629469.7424
         3.7504          4.0004
 03 11  2  0 22 30.0000000  0  8G24G28G 7G 9G 4G26G 5G29
  -1693132.25443                  24367261.8134
         5.0004
   1921750.78646   1497467.01046  22317034.9534   22317039.5704
        14.0004         12.5004
  -6895427.24047  -5542031.60846  20880409.6884   20880414.3524
        21.2504         22.0004
 -13546907.78346  -9418499.95746  21292053.3674   21292057.7274
        19.0004         18.2504
 -12135732.96046  -9195248.39146  21800311.7194   21800316.7584
        16.2504         14.0004
   8842311.09643  10718034.70745  24172337.6954   24172355.0204
         6.2504          6.5004
  -2238481.51241  -1539590.96145  24658823.3834   24658832.2464
         3.7504          6.0004
  -1487860.55151                  24651178.1564
         2.7504
 03 11  2  0 23  0.0000000  0  8G24G28G 7G 9G 4G26G 5G29
  -1779218.72743                  24350879.5084
         5.5004
   2007884.14946   1564583.93146  22333425.9614   22333430.4144
        14.2504         13.0004
  -6828653.01447  -5489999.72846  20893116.0944   20893120.6414
        21.0004         22.0004
 -13572220.58446  -9438224.15646  21287236.6174   21287240.9184
        19.2504         18.2504
 -12190262.81346  -9237739.04546  21789934.7974   21789939.5084
        16.2504         14.0004
   8955326.72343  10806098.53845  24193843.6414   24193856.3364
         6.2504          6.2504
  -2306282.54541  -1592422.67845  24645920.0944   24645931.3594
         2.5004          5.2504
  -1373636.94941                  24672914.1724
         3.7504
 03 11  2  0 23 30.0000000  0  8G24G28G 7G 9G 4G26G 5G29
  -1865268.44043  -1283472.38255  24334504.8674   24334513.8014
         5.5004          6.2504
   2094239.66846   1631873.96646  22349858.5234   22349863.3754
        14.0004         12.5004
  -6761595.19747  -5437746.87146  20905876.8834   20905881.5354
        21.0004         21.5004
 -13596993.68546  -9457527.79946  21282522.4384   21282526.7624
        19.5004         18.5004
 -12244360.03846  -9279892.55646  21779640.2974   21779645.7814
        16.5004         14.5004
   9068467.18043  10894259.73745  24215372.7344   24215383.7894
         5.7504          6.2504
                                  24633018.9774
         1.5004
  -1259410.31841                  24694652.1954
         3.2504
 03 11  2  0 24  0.0000000  0  8G24G28G 7G 9G 4G26G 5G29
  -1951278.62343  -1350492.81945  24318137.8594   24318152.2544
         6.2504          6.5004
   2180817.26846   1699337.05245  22366333.6334   22366338.3324
        13.2504         11.7504
  -6694255.53547  -5385274.39646  20918691.3594   20918695.9304
        21.2504         21.7504
 -13621225.26546  -9476409.48746  21277911.0004   21277915.5944
        18.7504         18.5004
 -12298021.74446  -9321706.71946  21769428.9064   21769434.1564
        16.5004         14.5004
   9181729.29343  10982515.70345  24236926.7114   24236935.9844
         5.7504          6.7504
  -1586711.55451                  24620126.5864
         2.5004
  -1145184.15341  -1171232.59353  24716390.9614   24716407.1254
         3.7504          3.0004
 03 11  2  0 24 30.0000000  0  8G24G28G 7G 9G 4G26G 5G29
  -2037245.90943  -1417479.84845  24301778.4844   24301792.7624
         6.0004          6.2504
   2267617.59346   1766973.68346  22382851.3754   22382855.0314
        13.5004         12.5004
  -6626634.56147  -5332582.71146  20931558.8754   20931563.6334
        21.2504         21.5004
 -13644912.80946  -9494867.23446  21273403.5864   21273408.1914
        19.0004         18.2504
 -12351244.57946  -9363178.93046  21759300.8444   21759306.1414
        16.5004         14.7504
   9295110.65443  11070864.62945  24258502.1024   24258514.3984
         5.7504          6.7504
  -1654458.59141                  24607233.4844
         3.7504
  -1030960.57342                  24738127.1024
         4.0004
 03 11  2  0 25  0.0000000  0  8G24G28G 7G 9G 4G26G 5G29
  -2123168.60643  -1484432.07845  24285427.8364   24285437.2974
         5.0004          5.0004
   2354639.38646   1834782.88246  22399411.2194   22399414.5004
        13.2504         12.0004
  -6558735.05047  -5279673.99146  20944480.0234   20944484.7114
        21.2504         21.5004
 -13668055.63646  -9512900.53846  21268999.7734   21269004.2504
        19.2504         18.5004
 -12404026.91246  -9404307.87346  21749256.3594   21749261.4104
        16.0004         14.2504
   9408606.99143  11159303.08245  24280100.8364   24280115.0904
         5.5004          6.0004
  -1722186.79943  -1241670.20955  24594344.6644   24594353.9024
         5.0004          5.7504
   -916743.55341                  24759860.8674
         3.7504
 03 11  2  0 25 30.0000000  0  8G24G28G 7G 9G 4G26G 5G29
  -2209046.44442  -1551349.42244  24269084.8364   24269097.1094
         4.2504          4.2504
   2441880.37046   1902762.89745  22416012.2814   22416016.3244
        12.7504         11.7504
  -6490560.97947  -5226551.32346  20957453.1414   20957457.6644
        21.2504         21.7504
 -13690653.73946  -9530509.37846  21264699.3524   21264703.3954
        19.2504         18.2504
 -12456368.31546  -9445093.24446  21739295.7034   21739301.4454
        15.7504         14.5004
   9522213.00143  11247827.07645  24301720.2034   24301727.4024
         5.7504          6.7504
  -1789897.54943  -1294431.50045  24581460.3444   24581473.8484
         6.0004          5.5004
   -802538.06641                  24781592.2974
         3.5004
 03 11  2  0 26  0.0000000  0  8G24G28G 7G 9G 4G26G 5G29
  -2294870.83441  -1618224.92343  24252752.2114   24252772.0554
         3.2504          3.5004
   2529345.97046   1970917.93845  22432656.3054   22432660.8404
        12.7504         11.5004
  -6422107.86147  -5173211.21846  20970479.1724   20970483.9654
        21.2504         21.7504
 -13712699.81946  -9547688.06246  21260503.4924   21260508.0634
        18.7504         18.0004
 -12508260.12546  -9485528.27646  21729421.1484   21729426.7384
        16.7504         15.0004
   9635931.38643  11336438.52045  24323359.3204   24323369.8594
         5.5004          5.7504
  -1857585.16943  -1347174.92845  24568579.0394   24568586.2854
         6.5004          5.0004
   -688341.51041                  24803324.7894
         3.7504
 03 11  2  0 26 30.0000000  0  8G24G28G 7G 9G 4G26G 5G29
  -2380642.87841  -1685059.86943  24236430.1414   24236443.8674
         3.0004          3.0004
   2617032.47046   2039245.12045  22449342.2734   22449347.6054
        12.5004         11.5004
  -6353381.09847  -5119657.89246  20983557.7344   20983562.0354
        21.2504         21.7504
 -13734195.83946  -9564438.13946  21256413.9064   21256418.4654
        19.2504         18.5004
 -12559703.68946  -9525614.03246  21719630.3524   21719635.4734
        16.5004         15.5004
   9749755.21543  11425132.18545  24345018.9064   24345032.0594
         5.5004          5.0004
  -1925252.26743  -1399902.32143  24555702.8134   24555711.3364
         6.0004          3.5004
   -574160.56941                  24825051.5784
         3.2504
 03 11  2  0 27  0.0000000  0  8G24G28G 7G 9G 4G26G 5G29
  -2466362.55442  -1751853.88543  24220117.8594   24220125.7854
         4.0004          3.2504
   2704937.12546   2107742.25945  22466070.1564   22466074.6914
        12.2504         11.5004
  -6284384.85047  -5065894.57946  20996687.1644   20996691.6054
        21.2504         21.5004
 -13755142.62946  -9580760.24146  21252427.1804   21252431.5864
        19.7504         18.7504
 -12610698.72046  -9565350.31846  21709927.2974   21709933.2974
        16.2504         14.7504
   9863678.89043  11513903.63245  24366697.4454   24366711.6884
         5.7504          6.2504
  -1992900.69943  -1452615.23145  24542829.1334   24542838.2194
         5.0004          5.0004
   -460000.50241                  24846776.3134
         3.7504
 03 11  2  0 27 30.0000000  0  8G24G28G 7G 9G 4G26G 5G29
  -2552023.64843                  24203816.5474
         5.2504
   2793063.54046   2176412.22645  22482840.1564   22482844.8554
        12.2504         11.5004
  -6215116.90647  -5011919.55146  21009868.4304   21009872.7664
        21.2504         21.2504
 -13775534.67146  -9596650.07346  21248546.5554   21248550.6334
        19.2504         18.7504
 -12661238.85146  -9604732.07146  21700310.0084   21700314.9184
        16.7504         15.0004
   9977702.95743  11602753.38545  24388397.4774   24388410.7464
         5.7504          5.7504
  -2060526.53642                  24529959.7274
         4.5004
   -345860.64041                  24868495.6094
         3.0004
 03 11  2  0 28  0.0000000  0  7G24G28G 7G 9G 4G26G 5
  -2637624.34543                  24187526.0164
         6.2504
   2881410.59146   2245254.10845  22499652.3204   22499655.6254
        12.5004         11.2504
  -6145579.80847  -4957734.79246  21023100.7734   21023105.5084
        21.0004         21.2504
 -13795371.19046  -9612107.01846  21244771.8984   21244776.3874
        19.2504         18.5004
 -12711322.58946  -9643758.22046  21690779.2814   21690784.4144
        17.2504         15.2504
  -1533570.68553                  24410114.9384
         6.0004
  -2128129.74742                  24517095.7034
         4.0004
 03 11  2  0 28 30.0000000  0  8G24G28G 7G 9G 4G26G 5G29
  -2723164.05143  -1240925.32255  24171248.6334   24171263.2624
         6.7504          6.0004
   2969975.99245   2314266.12945  22516505.1954   22516509.0394
        11.7504         10.7504
  -6075777.14947  -4903343.10946  21036383.9694   21036388.5044
        21.0004         21.0004
 -13814652.81946  -9627131.60346  21241102.6804   21241107.0274
        19.7504         18.7504
 -12760949.33246  -9682428.27946  21681335.3984   21681340.4964
        17.0004         15.2504
  -1419359.23243                  24431847.5084
         5.2504
  -2195711.87842                  24504235.6024
         4.2504
  -1487959.51051                  24911921.9304
         3.5004
 03 11  2  0 29  0.0000000  0  8G24G28G 7G 9G 4G26G 5G29
  -2808639.32243  -1307528.94645  24154983.2504   24154995.5004
         6.5004          7.2504
   3058760.09045   2383448.58145  22533400.2194   22533403.7584
        11.5004         10.7504
  -6005709.91947  -4848745.25946  21049717.2664   21049722.0004
        21.0004         21.2504
 -13833377.20847  -9641721.96446  21237539.6334   21237543.7584
        20.0004         18.7504
 -12810115.68246  -9720739.58246  21671979.3444   21671984.4884
        16.5004         15.0004
  -1305059.04743                  24453599.7734
         5.7504
  -2263271.26842  -1271466.56254  24491377.5004   24491384.9924
         4.5004          4.7504
  -1373904.36341                  24933626.8204
         3.7504
 03 11  2  0 29 30.0000000  0  8G24G28G 7G 9G 4G26G 5G29
  -2894042.60243  -1374076.57745  24138731.4224   24138740.5434
         6.2504          7.0004
   3147767.78845   2452805.21745  22550337.6804   22550342.2274
        11.5004         11.2504
  -5935374.72947  -4793938.61546  21063101.4384   21063106.0554
        21.0004         21.2504
 -13851537.70046  -9655872.93846  21234083.6414   21234087.9654
        19.5004         18.7504
 -12858814.49346  -9758686.57646  21662711.8984   21662716.7974
        17.0004         15.2504
  -1190668.67943  -1153319.20555  24475365.1564   24475374.8164
         5.7504          7.0004
  -2330802.43043  -1324088.02045  24478527.7424   24478538.1054
         5.0004          5.5004
  -1259878.92141  -1206873.86253  24955326.1414   24955343.3364
         3.7504          3.7504
 03 11  2  0 30  0.0000000  0  8G24G28G 7G 9G 4G26G 5G29
  -2979375.63643  -1440569.29845  24122492.8524   24122504.4924
         5.5004          5.7504
   3236994.51346   2522332.55745  22567317.7194   22567321.4344
        12.0004         11.0004
  -5864777.55047  -4738927.82346  21076535.6564   21076540.2624
        21.0004         21.0004
 -13869136.91346  -9669586.54146  21230734.7504   21230739.2384
        19.5004         19.0004
 -12907047.15746  -9796270.34546  21653533.4144   21653537.9964
        17.0004         15.5004
  -1076195.18343  -1064119.26545  24497150.6724   24497159.6884
         5.7504          5.7504
  -2398309.05543  -1376690.35445  24465682.0234   24465691.8014
         5.7504          5.5004
  -1145889.91941  -1118051.77644  24977016.3444   24977031.1844
         3.2504          4.2504
 03 11  2  0 30 30.0000000  0  8G24G28G 7G 9G 4G26G 5G29
  -3064636.44242  -1507005.96145  24106267.2734   24106280.0044
         4.2504          5.7504
   3326439.45346   2592029.90345  22584338.0704   22584342.8284
        12.2504         11.2504
  -5793920.58147  -4683714.59746  21090019.2504   21090023.6094
        21.0004         20.7504
 -13886173.96746  -9682862.11446  21227492.0234   21227496.4884
        19.5004         18.7504
 -12954812.11646  -9833489.66846  21644444.1884   21644448.8404
        16.7504         15.5004
   -961642.47443   -974857.70345  24518950.0004   24518961.4064
         6.2504          6.2504
  -2465791.35043  -1429273.87545  24452840.0394   24452849.7934
         6.2504          5.7504
  -1031941.15641                  24998701.2814
         3.2504
 03 11  2  0 31  0.0000000  0  8G24G28G 7G 9G 4G26G 5G29
  -3149829.16542  -1573389.47045  24090054.5944   24090067.9694
         4.0004          5.0004
   3416095.57346   2661891.83145  22601399.6094   22601404.6134
        12.0004         10.7504
  -5722812.28447  -4628305.52046  21103550.6724   21103555.0314
        21.0004         20.7504
 -13902654.45346  -9695703.99746  21224356.3444   21224360.6914
        19.7504         19.0004
 -13002113.66746  -9870347.88346  21635442.5084   21635447.6174
        16.5004         15.7504
   -847020.75743   -885542.29345  24540759.7974   24540768.1684
         5.5004          6.0004
  -2533255.45443  -1481843.16345  24440001.6174   24440008.7344
         6.2504          5.2504
   -918042.69642                  25020375.4304
         4.0004
 03 11  2  0 31 30.0000000  0  8G24G28G 7G 9G 4G26G 5G29
  -3234946.43742  -1639714.05645  24073857.9304   24073870.2384
         4.5004          6.0004
   3505967.03845   2731921.53645  22618500.9924   22618506.0084
        11.7504         10.7504
  -5651449.61847  -4572698.23546  21117130.6094   21117135.3794
        21.0004         20.7504
 -13918572.07646  -9708107.28746  21221326.9384   21221331.1094
        19.5004         19.2504
 -13048944.65646  -9906839.43946  21626530.9924   21626535.6214
        17.0004         15.7504
   -732328.39043   -796171.84345  24562587.0474   24562597.0004
         5.7504          5.5004
  -2600695.77243  -1534393.86045  24427168.3834   24427173.4104
         6.2504          5.7504
   -804192.42841                  25042039.8054
         3.7504
 03 11  2  0 32  0.0000000  0  8G24G28G 7G 9G 4G26G 5G29
  -3319992.87943  -1705983.50545  24057674.0084   24057686.5864
         5.0004          6.2504
   3596046.74345   2802113.54045  22635642.3284   22635646.7344
        11.7504         11.0004
  -5579841.19447  -4516899.44546  21130757.2194   21130761.4144
        21.0004         21.0004
 -13933932.32246  -9720076.25746  21218404.0084   21218408.5434
        19.7504         19.0004
 -13095309.56746  -9942967.81646  21617707.7664   21617712.9344
        16.5004         15.2504
   -617575.70243   -706754.30045  24584421.6564   24584424.2584
         5.0004          5.0004
  -2668118.50643  -1586931.04445  24414336.4774   24414345.7384
         5.5004          5.0004
   -690400.59541                  25063695.3204
         3.0004
 03 11  2  0 32 30.0000000  0  8G24G28G 7G 9G 4G26G 5G29
  -3404968.09243  -1772197.43445  24041502.8364   24041513.3284
         5.5004          6.5004
   3686332.11145   2872465.75045  22652823.1024   22652827.0864
        11.7504         10.7504
  -5507990.83847  -4460912.14246  21144430.0234   21144434.4534
        21.0004         20.7504
 -13948735.98447  -9731611.53046  21215586.9454   21215591.4694
        20.0004         19.5004
 -13141208.35346  -9978732.96946  21608973.9534   21608979.3794
        17.0004         15.5004
   -502767.91743   -617293.93045  24606270.6564   24606285.1454
         5.0004          5.7504
  -2735525.72342  -1639455.84943  24401510.1564   24401515.4884
         4.5004          3.7504
                                  25085334.0554
         2.0004
 03 11  2  0 33  0.0000000  0  8G24G28G 7G 9G 4G26G 5G29
  -3489881.24443  -1838363.14945  24025344.4064   24025360.0784
         5.5004          5.5004
   3776811.21346   2942968.92245  22670041.0784   22670045.4264
        12.2504         11.2504
  -5435912.06247  -4404746.84646  21158145.9844   21158150.2274
        20.7504         20.7504
 -13962993.18647  -9742720.99846  21212873.8524   21212878.0824
        20.2504         19.2504
 -13186650.28846 -10014142.15646  21600325.9384   21600330.5434
        17.5004         15.7504
   -387919.89642   -527802.20545  24628125.5634   24628138.9024
         4.7504          5.0004
  -2802928.37242  -1691977.28245  24388683.1334   24388692.6994
         4.2504          5.7504
  -1465564.03241                  25106962.8284
         3.0004
 03 11  2  0 33 30.0000000  0  8G24G28G 7G 9G 4G26G 5G29
  -3574719.75543  -1904470.48845  24009200.2034   24009208.6214
         6.5004          5.2504
   3867493.53346   3013630.48645  22687297.4224   22687301.5354
        12.0004         11.2504
  -5363596.66947  -4348397.16946  21171907.0784   21171911.5664
        20.5004         20.7504
 -13976693.01247  -9753396.14846  21210267.1334   21210271.3524
        20.2504         19.5004
 -13231623.17846 -10049185.84346  21591767.8134   21591772.9344
        17.5004         15.7504
   -273025.13243   -438274.14544  24649990.7584   24650001.6844
         5.0004          4.5004
  -2870316.39242  -1744487.21144  24375859.7734   24375874.0394
         4.0004          4.7504
  -1351984.99243                  25128577.4844
         5.0004
 03 11  2  0 34  0.0000000  0  8G24G28G 7G 9G 4G26G 5G29
  -3659475.68043  -1970513.55945  23993071.0314   23993080.2934
         6.5004          5.0004
   3958384.20345   3084454.37345  22704593.4614   22704598.1844
        11.7504         11.2504
  -5291040.86347  -4291860.15246  21185713.9774   21185718.8754
        20.5004         20.2504
 -13989828.63347  -9763631.65546  21207767.0864   21207771.2934
        20.0004         19.2504
 -13276119.43046 -10083858.14446  21583300.6334   21583304.8284
        17.7504         15.7504
   -158081.58842   -348707.95045  24671862.6644   24671875.7814
         4.7504          5.7504
  -2937683.00542  -1796980.56245  24363040.0864   24363052.6524
         4.2504          5.7504
  -1238475.07643                  25150177.4454
         5.5004
 03 11  2  0 34 30.0000000  0  8G24G28G 7G 9G 4G26G 5G29
  -3744146.74643  -2036490.62045  23976958.3594   23976968.4184
         6.5004          6.0004
   4049482.83945   3155440.29745  22721928.9614   22721933.0634
        11.7504         11.5004
  -5218246.48647  -4235137.24946  21199566.3204   21199570.9384
        20.2504         20.5004
 -14002398.86347  -9773426.59846  21205375.2034   21205379.5514
        20.0004         19.5004
 -13320136.90746 -10118157.34546  21574924.0704   21574929.0164
        18.2504         16.0004
    -43092.35943   -259106.29244  24693745.5394   24693754.3204
         5.0004          4.7504
  -3005028.21942  -1849457.12545  24350225.2194   24350233.9064
         4.7504          5.2504
  -1125037.46742                  25171763.9844
         4.2504
 03 11  2  0 35  0.0000000  0  8G24G28G 7G 9G 4G26G 5G29
  -3828733.06743  -2102401.59745  23960861.5004   23960870.4804
         6.7504          6.0004
   4140785.68645   3226585.36845  22739303.3754   22739307.9804
        11.2504         10.7504
  -5145218.07547  -4178231.97246  21213463.0474   21213467.4884
        20.2504         20.7504
 -14014405.26447  -9782782.19746  21203090.6334   21203094.7234
        20.5004         19.5004
 -13363676.13646 -10152083.91946  21566639.5704   21566644.1644
        18.7504         16.2504
     71936.30143   -169473.72845  24715634.1024   24715647.9804
         5.0004          5.2504
  -3072354.28843  -1901918.84645  24337412.7664   24337419.7194
         5.0004          6.5004
  -1011677.67142                  25193335.9144
         4.7504
 03 11  2  0 35 30.0000000  0  8G24G28G 7G 9G 4G26G 5G29
  -3913240.65143  -2168251.23645  23944779.6094   23944786.5634
         6.2504          7.0004
   4232284.51245   3297883.15445  22756714.7734   22756718.9224
        11.5004         11.0004
  -5071965.72747  -4121152.20446  21227402.5084   21227407.1254
        20.2504         20.2504
 -14025854.94147  -9791703.98146  21200912.0634   21200916.2814
        20.5004         19.5004
 -13406743.04246 -10185642.40846  21558443.5944   21558448.7854
        18.2504         16.2504
    186992.91042    -79819.43245  24737526.8834   24737539.9064
         4.5004          5.5004
  -3139668.71943  -1954371.35545  24324604.1254   24324607.8164
         5.5004          6.0004
   -898406.64542  -1198189.71654  25214890.5474   25214901.5554
         4.5004          4.7504
 03 11  2  0 36  0.0000000  0  8G24G28G 7G 9G 4G26G 5G29
  -3997668.80943  -2234038.94945  23928713.1334   23928722.9104
         5.2504          6.5004
   4323976.82345   3369331.69745  22774163.2974   22774169.2624
        11.5004         10.5004
  -4998492.94447  -4063900.66446  21241383.8054   21241388.3754
        20.2504         20.2504
 -14036748.47247  -9800192.40546  21198838.6174   21198842.7194
        20.0004         19.7504
 -13449337.49146 -10218832.76846  21550337.8754   21550342.3754
        18.0004         16.2504
    302072.38243      9852.54845  24759428.1484   24759437.6334
         5.0004          6.0004
  -3206972.89843  -2006816.06745  24311796.6484   24311806.2504
         6.0004          6.0004
   -785229.87641                  25236428.8524
         3.5004
 03 11  2  0 36 30.0000000  0  7G24G28G 7G 9G 4G26G 5
  -4082016.31442  -2299763.85245  23912662.3284   23912675.1414
         4.7504          6.5004
   4415861.39345   3440930.03945  22791648.9144   22791653.6724
        11.5004         10.7504
  -4924802.59547  -4006479.58946  21255406.6884   21255411.3984
        20.2504         20.5004
 -14047085.66647  -9808247.31846  21196871.5944   21196875.4614
        20.2504         19.7504
 -13491458.38346 -10251654.11246  21542322.5704   21542327.6094
        18.5004         16.7504
    417170.30943     99539.08345  24781331.8984   24781342.0394
         5.0004          5.7504
  -3274267.15143  -2059252.95445  24298990.6024   24298996.4844
         6.0004          6.2504
 03 11  2  0 37  0.0000000  0  7G24G28G 7G 9G 4G26G 5
  -4166279.14042  -2365422.83245  23896627.6564   23896637.1644
         4.7504          7.0004
   4507939.09445   3512678.88045  22809170.1954   22809174.8834
        11.2504         10.5004
  -4850894.88147  -3948889.14446  21269470.9224   21269475.5864
        20.2504         20.2504
 -14056863.91347  -9815866.69846  21195010.7734   21195015.0394
        20.2504         19.7504
 -13533102.02246 -10284103.58346  21534398.0944   21534402.7584
        18.5004         17.2504
    532285.04542    189238.53945  24803235.3054   24803246.6294
         4.7504          5.5004
  -3341549.66643  -2111680.74445  24286187.3984   24286195.1024
         5.7504          6.2504
 03 11  2  0 37 30.0000000  0  7G24G28G 7G 9G 4G26G 5
  -4250455.37443  -2431014.33245  23880608.9384   23880616.7934
         6.0004          6.7504
   4600209.00145   3584577.50545  22826728.4614   22826732.8204
        11.2504         10.0004
  -4776772.24147  -3891131.22046  21283575.9144   21283580.5204
        20.2504         20.2504
 -14066082.90647  -9823050.29546  21193256.2894   21193260.4734
        20.2504         19.7504
 -13574267.11346 -10316180.15646  21526564.6564   21526569.4734
        18.7504         17.0004
    647412.60943    278948.18745  24825143.5004   24825158.5984
         5.0004          5.7504
  -3408820.62043  -2164099.46445  24273385.5554   24273394.0904
         5.5004          5.7504
 03 11  2  0 38  0.0000000  0  7G24G28G 7G 9G 4G26G 5
  -4334543.98544  -2496537.61345  23864608.0004   23864617.1914
         7.5004          7.2504
   4692668.80845   3656624.08845  22844323.1094   22844328.2894
        11.0004         10.0004
  -4702437.92747  -3833208.37146  21297721.2114   21297725.8164
        20.2504         20.0004
