     2.10           OBSERVATION DATA    G (GPS)             RINEX VERSION / TYPE
teqc  2007Feb5      UNAVCO Archive Ops  20070321 07:50:32UTCPGM / RUN BY / DATE
Solaris 5.10|UltraSparc IIIi|cc -xarch=v9 SC5.8|=+-|*Sparc  COMMENT
BIT 2 OF LLI FLAGS DATA COLLECTED UNDER A/S CONDITION       COMMENT
GARL                                                        MARKER NAME
49721S001                                                   MARKER NUMBER
Davis, Jim          Harvard-Smithsonian CfA                 OBSERVER / AGENCY
3609A14796          TRIMBLE 4000SSI     7.19B               REC # / TYPE / VERS
0220062100          TRM29659.00     SCIS                    ANT # / TYPE
 -2384509.0615 -4239524.8940  4114370.6286                  APPROX POSITION XYZ
        0.0884        0.0000        0.0000                  ANTENNA: DELTA H/E/N
     1     1                                                WAVELENGTH FACT L1/2
     7    L1    L2    C1    P2    P1    S1    S2            # / TYPES OF OBSERV
    30.0000                                                 INTERVAL
RINEX file created by UNAVCO GPS Archive.                   COMMENT
For more information contact archive@unavco.org             COMMENT
Monument ID: 11764                                          COMMENT
UNAVCO 4-char name:   GARL                                  COMMENT
4-char name from Log or data file: GARL                     COMMENT
Monument location: 40.416527 -119.355457 1640.2266          COMMENT
Visit ID: 59421                                             COMMENT
                                                            COMMENT
GARL-BRGN-NV1996                                            COMMENT
                                                            COMMENT
End of DB comments                                          COMMENT
 SNR is mapped to RINEX snr flag value [1-9]                COMMENT
  L1: 3 -> 1; 8 -> 5; 40 -> 9                               COMMENT
  L2: 1 -> 1; 5 -> 5; 60 -> 9                               COMMENT
  2003    10    30     0     0   30.0000000     GPS         TIME OF FIRST OBS
                                                            END OF HEADER
 03 10 30  0  0 30.0000000  0  8G28G 7G 9G 4G 8G26G29G11
  21598016.52056  16910753.11356  21741534.2974   21741536.6524
        18.7504         17.0004
   2964646.52757   2387521.50756  20600288.2664   20600293.5164
        21.5004         23.7504
  -5795681.62956  -3199715.93955  22297175.6954   22297185.5664
        13.0004         11.5004
  -3587950.97955  -2700120.76655  23117875.9614   23117900.7894
        10.5004          9.2504
  40477664.19755  32284770.88155  23562380.4224   23562403.8094
         8.2504          6.7504
  16074271.12255  12625657.94355  23231773.0864   23231799.4024
         9.2504          9.2504
  20490435.76853  16573441.95655  23641295.5554   23641329.8054
         6.5004          6.7504
  20395768.87351                  24839065.1024
         3.7504
 03 10 30  0  1  0.0000000  0  8G28G 7G 9G 4G 8G26G29G11
  21701549.28546  16991428.01646  21761236.0394   21761238.4884
        18.5004         16.7504
   3041101.05247   2447096.67946  20614837.0004   20614842.0864
        21.5004         23.7504
  -5820196.96546  -3218817.36146  22292509.1414   22292519.5984
        12.7504         12.7504
  -3632236.86145  -2734627.57845  23109446.4534   23109472.6054
         8.7504          8.5004
  40643862.90744  32414276.26645  23594006.3834   23594027.0514
         7.2504          6.2504
  16203906.28845  12726672.02745  23256442.3364   23256468.5354
         9.2504          9.5004
  20629995.96343  16682189.27245  23667852.6174   23667887.0234
         6.5004          7.0004
  20529345.72542                  24864482.9144
         4.0004
 03 10 30  0  1 30.0000000  0  8G28G 7G 9G 4G 8G26G29G11
  21805240.84646  17072226.68346  21780968.0474   21780970.5434
        18.5004         17.0004
   3117874.34847   2506920.27846  20629446.2424   20629451.0004
        21.5004         23.7504
  -5844396.11446  -3237672.39846  22287902.9694   22287913.0164
        12.7504         12.7504
  -3676364.43244  -2769011.01045  23101048.2274   23101074.8954
         7.7504          8.2504
  40810201.12745  32543890.31845  23625659.8134   23625682.0274
         8.0004          6.5004
  16333813.06945  12827897.74045  23281163.0554   23281190.8834
         9.2504          9.0004
  20769702.05043  16791050.34445  23694439.0864   23694472.9964
         6.2504          7.0004
  20663219.08742                  24889959.5634
         4.0004
 03 10 30  0  2  0.0000000  0  8G28G 7G 9G 4G 8G26G29G11
  21909082.39046  17153142.21846  21800728.1174   21800730.7074
        18.7504         16.7504
   3194956.43347   2566984.48746  20644114.2584   20644119.4614
        21.5004         23.5004
  -5868285.45546  -3256286.21146  22283356.3594   22283366.8404
        12.7504         12.7504
  -3720339.14545  -2803275.22445  23092679.0164   23092704.6764
         8.0004          7.5004
  40976668.13343  32673604.78845  23657338.0554   23657358.2734
         6.7504          5.7504
  16463979.85845  12929326.05545  23305933.8054   23305961.7384
         9.2504          9.5004
  20909542.18943  16900015.92345  23721051.3914   23721085.0664
         6.5004          6.2504
  20797379.59742                  24915489.5164
         4.0004
 03 10 30  0  2 30.0000000  0  8G28G 7G 9G 4G 8G26G29G11
  22013078.10346  17234178.03046  21820517.7504   21820520.5984
        18.2504         16.7504
   3272349.24247   2627290.85446  20658841.4064   20658846.1764
        21.5004         23.7504
  -5891858.44346  -3274653.58146  22278869.5634   22278879.2584
        13.5004         12.5004
  -3764153.77045  -2837414.60745  23084339.3834   23084365.4534
         8.7504          7.5004
  41143265.82142  32803420.88743  23689039.4534   23689052.6174
         4.5004          3.2504
  16594407.28445  13030957.49745  23330753.0554   23330781.3054
         9.0004          8.7504
  21049516.80843  17009086.22945  23747690.4144   23747724.7624
         6.7504          6.7504
  20931826.12642                  24941074.5164
         4.0004
 03 10 30  0  3  0.0000000  0  8G28G 7G 9G 4G 8G26G29G11
  22117228.11246  17315333.95746  21840336.4774   21840339.3134
        18.5004         16.7504
   3350052.62347   2687839.16146  20673627.6254   20673632.5234
        21.5004         23.7504
  -5915111.88046  -3292771.93846  22274444.0314   22274453.2344
        13.7504         13.2504
  -3807804.75045  -2871426.53645  23076032.0004   23076053.1374
         9.0004          7.5004
  41309992.62642  32933337.84444  23720767.0474   23720787.7854
         4.7504          4.5004
  16725093.41045  13132790.49845  23355622.3834   23355650.4924
         9.5004         10.0004
  21189623.96143  17118259.91445  23774351.6724   23774385.0314
         6.7504          6.7504
  21066562.30542                  24966713.3674
         4.0004
 03 10 30  0  3 30.0000000  0  8G28G 7G 9G 4G 8G26G29G11
  22221522.60346  17396602.52246  21860183.0314   21860185.9384
        18.2504         16.5004
   3428054.46447   2748619.98446  20688470.8524   20688475.4804
        21.5004         23.7504
  -5938053.67446  -3310647.62446  22270077.2274   22270085.5514
        13.2504         12.5004
  -3851299.42945  -2905316.56245  23067752.7114   23067776.6604
         8.2504          7.5004
  41476836.05843  33063345.51445  23752516.9454   23752539.6174
         6.2504          6.7504
  16856024.83845  13234814.65445  23380537.1254   23380567.3674
         9.2504          9.0004
  21329849.92343  17227526.13245  23801034.2894   23801068.4574
         5.7504          7.2504
  21201571.26842                  24992405.6254
         4.0004
 03 10 30  0  4  0.0000000  0  8G28G 7G 9G 4G 8G26G29G11
  22325972.19346  17477991.90546  21880059.5784   21880062.2734
        18.5004         16.2504
   3506364.73147   2809641.06946  20703372.8134   20703377.7464
        21.5004         23.7504
  -5960670.22846  -3328269.92946  22265772.6644   22265780.9304
        13.0004         12.7504
  -3894623.61045  -2939073.87945  23059507.9534   23059531.0004
         9.0004          8.2504
  41643805.22844  33193451.13045  23784290.4774   23784312.6564
         7.7504          8.2504
  16987209.42345  13337036.09645  23405502.5234   23405530.4224
         9.2504          8.7504
  21470202.78543  17336891.31345  23827744.1804   23827779.4304
         6.5004          6.2504
  21336864.00642                  25018150.3754
         4.2504
 03 10 30  0  4 30.0000000  0  8G28G 7G 9G 4G 8G26G29G11
  22430569.64746  17559496.41846  21899963.4064   21899966.0554
        18.0004         16.7504
   3584974.99147   2870896.02046  20718331.6804   20718336.6374
        21.5004         23.5004
  -5982966.49346  -3345642.79646  22261529.0084   22261537.8364
        13.0004         12.7504
  -3937781.17145  -2972701.31645  23051294.4304   23051316.1644
        10.0004          9.2504
  41810890.62445  33323647.31445  23816085.6644   23816108.1374
        10.0004         10.0004
  17118637.01745  13439446.86945  23430511.7504   23430540.9734
         9.0004          8.2504
  21610672.37643  17446347.46445  23854474.0314   23854504.8714
         6.2504          7.0004
  21472429.90742                  25043947.3284
         4.2504
 03 10 30  0  5  0.0000000  0  8G28G 7G 9G 4G 8G26G29G11
  22535316.15546  17641117.12046  21919896.1954   21919898.7624
        18.2504         16.5004
   3663884.66747   2932384.28646  20733347.6724   20733352.8874
        21.7504         23.5004
  -6004938.36446  -3362762.80646  22257347.6094   22257355.9344
        13.7504         14.0004
  -3980767.70145  -3006195.44745  23043112.5234   23043135.2424
        10.7504         10.0004
  41978091.30845  33453933.32945  23847902.6884   23847924.3754
        10.2504         10.0004
  17250305.64445  13542045.47745  23455567.0784   23455594.1914
         8.5004          9.0004
  21751256.48843  17555892.86545  23881227.4694   23881266.7274
         6.2504          6.2504
  21608266.68542     35302.75452  25069797.2974   25069797.3324
         4.2504          2.5004
 03 10 30  0  5 30.0000000  0  8G28G 7G 9G 4G 8G26G29G11
  22640212.81846  17722854.85746  21939857.2274   21939860.0514
        18.0004         16.0004
   3743093.25947   2994105.42746  20748420.2974   20748425.0784
        21.5004         23.7504
  -6026582.39746  -3379627.27346  22253228.3914   22253236.7974
        14.0004         13.5004
  -4023579.36445  -3039553.33545  23034964.6644   23034985.4494
        11.5004         10.5004
  42145406.27345  33584308.40545  23879742.9064   23879763.4804
         9.0004          8.5004
  17382213.16545  13644830.22245  23480668.9304   23480697.0744
         9.0004          8.7504
  21891952.82643  17665525.74445  23907999.7114   23908036.1334
         5.5004          6.7504
  21744375.13742    141361.32044  25095697.5474   25095703.6174
         4.2504          4.0004
 03 10 30  0  6  0.0000000  0  8G28G 7G 9G 4G 8G26G29G11
  21169843.20346  16577112.34546  21660055.3524   21660057.9884
        18.0004         16.0004
   2247182.57747   1828460.97246  20463757.7584   20463762.3524
        21.5004         24.0004
  -7623316.82346  -4623834.99346  21949379.0234   21949386.9144
        14.0004         13.2504
  -5641634.19745  -4300373.48145  22727057.6334   22727078.8164
        11.7504         10.5004
  40737419.26043  32487175.44645  23611811.0554   23611833.4924
         6.5004          7.0004
  15938941.37445  12520202.50445  23206023.0704   23206052.2584
         8.5004          8.7504
  20457343.54643  16547647.63145  23635005.6024   23635039.6764
         5.7504          6.0004
  20305337.53642   -979966.02843  24821856.7814   24821854.8364
         4.2504          3.0004
 03 10 30  0  6 30.0000000  0  8G28G 7G 9G 4G 8G26G29G11
  21275035.38446  16659080.32546  21680072.7664   21680075.1564
        18.2504         16.0004
   2326980.76247   1890641.61546  20478942.7974   20478947.4024
        21.5004         23.7504
  -7644302.20546  -4640186.25746  21945384.4064   21945391.9694
        13.2504         12.5004
  -5684090.97246  -4333454.92445  22718977.2424   22718996.6994
        12.7504         11.0004
  40904951.86943  32617720.07745  23643692.0864   23643715.7774
         5.5004          6.5004
  16071313.28545  12623349.07445  23231214.0394   23231240.6134
         9.0004          8.7504
  20598250.87243  16657444.90345  23661818.9844   23661856.2154
         6.2504          6.2504
  20441975.48642                  24847858.3674
         4.2504
 03 10 30  0  7  0.0000000  0  8G28G 7G 9G 4G 8G26G29G11
  21380380.02946  16741167.11346  21700118.7734   21700120.7664
        18.0004         16.5004
   2407076.40847   1953053.96546  20494184.2974   20494188.9384
        21.2504         23.7504
  -7664949.67646  -4656274.27646  21941455.0864   21941462.0514
        13.7504         12.5004
  -5726360.23745  -4366390.09145  22710932.0784   22710953.0274
        10.7504         10.0004
  41072595.09941  32748350.94445  23675591.9064   23675616.7814
         3.0004          5.0004
  16203917.69845  12726676.82645  23256447.5084   23256476.3094
         8.7504          8.7504
  20739263.84143  16767324.53145  23688652.5944   23688693.5044
         5.7504          6.5004
  20578879.05942                  24873910.7034
         4.2504
 03 10 30  0  7 30.0000000  0  8G28G 7G 9G 4G 8G26G29G11
  21485869.27246  16823366.57246  21720192.7894   21720195.6024
        18.0004         15.7504
   2487460.37147   2015691.08446  20509480.7894   20509485.1374
        21.5004         23.7504
  -7685264.48946  -4672102.99946  21937588.4614   21937595.7544
        13.7504         13.5004
  -5768446.61545  -4399182.62845  22702921.9774   22702941.8444
        10.5004         10.0004
  -1480358.08251                  23707513.8364
         3.5004
  16336743.79345  12830177.32345  23281723.3054   23281752.0234
         8.7504          8.5004
  20880371.90743  16877278.19445  23715504.1564   23715541.3404
         5.7504          6.5004
  20716038.98042                  24900011.3594
         4.2504
 03 10 30  0  8  0.0000000  0  8G28G 7G 9G 4G 8G26G29G11
  21591502.83046  16905678.49246  21740294.5864   21740296.8244
        17.7504         15.7504
   2568130.70847   2078551.23846  20524831.6254   20524836.3484
        21.5004         23.7504
  -7705244.66046  -4687670.99046  21933785.2664   21933792.3364
        13.5004         13.2504
  -5810347.83945  -4431830.92145  22694946.0004   22694963.7344
         9.5004          9.2504
  -1312516.17543                  23739453.8204
         5.7504
  16469788.09145  12933847.86545  23307040.9064   23307070.3524
         8.5004          8.5004
  21021571.02443  16987302.83445  23742375.1724   23742410.1764
         6.0004          6.7504
  20853452.60142                  24926159.1484
         4.2504
 03 10 30  0  8 30.0000000  0  8G28G 7G 9G 4G 8G26G29G11
  21697283.26146  16988104.81246  21760423.7274   21760426.3054
        17.5004         15.7504
   2649088.48247   2141635.43746  20540237.0864   20540241.4344
        21.5004         23.5004
  -7724885.68846  -4702974.92246  21930047.5394   21930054.3014
        14.0004         13.5004
  -5852058.38745  -4464330.74645  22687008.7034   22687027.6094
        10.0004          9.7504
  -1144575.94345                  23771411.9924
         8.2504
  16603050.01345  13037688.01645  23332399.9144   23332428.7384
         8.2504          8.2504
  21162861.09543  17097398.39445  23769262.8834   23769303.2194
         5.7504          5.7504
  20991118.90042                  24952358.1954
         4.2504
 03 10 30  0  9  0.0000000  0  8G28G 7G 9G 4G 8G26G29G11
  21803208.43246  17070643.92146  21780580.0394   21780582.4654
        17.7504         15.7504
   2730330.31747   2204940.89646  20555696.7814   20555700.9654
        21.5004         23.5004
  -7744186.68246  -4718013.97646  21926373.6644   21926380.4964
        14.0004         13.2504
  -5893577.08045  -4496681.20545  22679105.0084   22679124.3244
         9.0004          9.0004
   -976541.40844                  23803387.8984
         7.2504
  16736524.51845  13141693.79345  23357799.7344   23357828.3484
         8.2504          8.5004
  21304236.92843  17207560.75845  23796167.6094   23796204.5944
         6.2504          6.0004
  21129033.67942                  24978603.0634
         4.0004
 03 10 30  0  9 30.0000000  0  8G28G 7G 9G 4G 8G26G29G11
  21909275.73446  17153293.83746  21800764.4774   21800766.6214
        17.5004         15.5004
   2811852.18447   2268464.62346  20571210.0554   20571214.2384
        21.5004         23.7504
  -7763147.82046  -4732788.07446  21922765.2424   21922770.9264
        14.0004         12.7504
  -5934903.20245  -4528881.63545  22671240.3444   22671257.2344
         9.5004          8.5004
   -808417.50144  -1218868.78155  23835380.9454   23835403.1724
         7.2504          7.0004
  16870205.67045  13245860.57345  23383239.4454   23383270.1454
         8.5004          8.2504
  21445691.90643  17317784.82645  23823083.5554   23823122.0744
         5.5004          5.5004
  21267195.29642                  25004895.1414
         4.0004
 03 10 30  0 10  0.0000000  0  8G28G 7G 9G 4G 8G26G29G11
  22015486.63346  17236055.55246  21820975.2894   21820977.5394
        17.2504         15.5004
   2893654.58047   2332207.04246  20586776.0314   20586779.5474
        21.5004         23.2504
  -7781765.06646  -4747294.42346  21919221.8444   21919227.6214
        13.7504         13.0004
  -5976031.96445  -4560928.34945  22663412.8364   22663430.0204
        10.7504          9.0004
   -640204.47043  -1087793.91545  23867390.7664   23867412.9924
         6.7504          7.2504
  17004092.31945  13350187.50145  23408718.0784   23408746.6914
         8.7504          7.7504
  21587225.46243  17428070.07444  23850017.7664   23850054.5394
         5.0004          4.7504
  21405601.00841                  25031231.5234
         3.7504
 03 10 30  0 10 30.0000000  0  8G28G 7G 9G 4G 8G26G29G11
  22121839.04646  17318927.68946  21841213.8914   21841216.0004
        17.5004         15.5004
   2975733.25447   2396164.73146  20602394.8594   20602398.7274
        21.5004         23.5004
  -7800038.51946  -4761532.91946  21915744.5164   21915750.8914
        14.0004         13.2504
  -6016962.37245  -4592820.50045  22655621.6564   22655637.4574
        10.7504          9.2504
   -471907.09144   -956653.39445  23899416.8524   23899438.1174
         7.2504          6.7504
  17138178.73145  13454670.02645  23434233.9844   23434262.0594
         8.5004          7.5004
  21728832.02043  17538412.19945  23876964.8444   23876997.3834
         5.0004          6.5004
  21544244.33141                  25057614.0864
         3.7504
 03 10 30  0 11  0.0000000  0  8G28G 7G 9G 4G 8G26G29G11
  22228334.42646  17401911.25246  21861478.7194   21861480.6414
        17.2504         15.5004
   3058088.26547   2460337.64846  20618066.5634   20618070.5594
        21.7504         23.7504
  -7817963.93246  -4775500.17346  21912332.9774   21912337.8874
        14.7504         13.7504
  -6057689.79345  -4624554.35345  22647870.7584   22647886.4774
        11.0004          9.5004
   -303525.63943   -825447.24745  23931459.1484   23931478.7704
         5.0004          5.7504
  17272463.68045  13559307.26345  23459786.4064   23459816.0044
         8.5004          8.2504
  21870509.43242  17648809.50045  23903923.3834   23903962.3014
         4.5004          6.0004
  21683125.68041                  25084041.7974
         3.5004
 03 10 30  0 11 30.0000000  0  8G28G 7G 9G 4G 8G26G29G11
  22334973.06146  17485006.36846  21881771.4534   21881773.6684
        17.5004         15.7504
   3140718.66947   2524725.19346  20633790.4844   20633794.5744
        21.5004         23.7504
  -7835538.46746  -4789194.09946  21908988.1804   21908992.8554
        14.5004         13.5004
  -6098210.68945  -4656127.30245  22640158.7034   22640174.6914
        10.7504         10.0004
   -135061.63341   -694176.99544  23963516.4694   23963538.6254
         3.2504          4.2504
  17406944.49645  13664097.16545  23485378.8834   23485409.4884
         9.0004          8.0004
  22012255.91742  17759260.65045  23930898.4694   23930943.4104
         4.7504          5.0004
  21822244.26641                  25110514.7274
         3.2504
 03 10 30  0 12  0.0000000  0  8G28G 7G 9G 4G 8G26G29G11
  22441750.79346  17568209.78746  21902090.4384   21902092.6524
        17.0004         15.5004
   3223619.42147   2589323.37046  20649565.6724   20649569.7034
        21.5004         23.7504
  -7852763.58646  -4802615.70346  21905709.5944   21905714.8204
        14.2504         13.5004
  -6138525.80045  -4687539.90045  22632484.9774   22632501.8554
        10.5004         10.2504
     33478.27343   -562847.49345  23995589.1094   23995613.6914
         6.0004          7.2504
  17541613.89145  13769033.95145  23511005.7114   23511036.8674
         8.2504          7.5004
  22154064.06442  17869759.80545  23957884.2274   23957922.7234
         4.5004          5.7504
  21961590.95641                  25137032.3754
         3.2504
 03 10 30  0 12 30.0000000  0  8G28G 7G 9G 4G 8G26G29G11
  22548675.32346  17651527.59346  21922437.4304   21922439.3054
        16.7504         15.2504
   3306796.46347   2654136.98046  20665393.4844   20665397.2934
        21.5004         23.5004
  -7869629.43646  -4815757.45746  21902500.1644   21902505.5084
        14.7504         13.7504
  -6178624.47545  -4718783.80045  22624853.8754   22624869.1024
        11.2504         10.5004
    202099.73243   -431454.44345  24027677.3914   24027698.4224
         6.7504          6.5004
  17676476.58945  13874121.42745  23536669.1024   23536698.8164
         8.2504          7.0004
  22295937.94242  17980310.15944  23984881.8834   23984925.1484
         4.5004          4.5004
  22101172.59641                  25163592.3054
         3.0004
 03 10 30  0 13  0.0000000  0  8G28G 7G 9G 4G 8G26G29G11
  22655742.87346  17734956.86546  21942811.8054   21942814.5594
        16.7504         15.2504
   3390244.21347   2719161.37646  20681272.8524   20681276.6134
        21.5004         23.7504
  -7886137.51246  -4828620.53046  21899358.3984   21899363.0274
        15.5004         14.2504
  -6218507.38045  -4749859.61745  22617262.7974   22617278.3054
        11.0004          9.7504
    370796.66243   -300002.48743  24059778.6094   24059799.2424
         5.7504          3.7504
  17811525.69145  13979354.08345  23562367.9694   23562398.4804
         8.0004          7.5004
  22437871.39343  18090906.92645  24011893.3594   24011934.5394
         5.5004          6.0004
  22240982.93241                  25190198.3834
         3.0004
 03 10 30  0 13 30.0000000  0  8G28G 7G 9G 4G 8G26G29G11
  22762946.72946  17818492.43946  21963212.3524   21963214.7664
        16.7504         15.2504
   3473954.49047   2784390.31446  20697202.4774   20697206.3554
        21.5004         23.2504
  -7902291.87746  -4841208.05346  21896284.5004   21896289.4344
        15.2504         14.2504
  -6258178.16845  -4780770.17245  22609712.1484   22609726.9884
        11.0004         10.7504
    539560.11443                  24091893.6024
         5.0004
  17946751.16344  14084724.28345  23588100.2034   23588129.6024
         7.7504          8.2504
  22579854.23543  18201542.22344  24038911.4384   24038955.3594
         5.0004          4.7504
  22381012.97641                  25216845.4844
         3.0004
 03 10 30  0 14  0.0000000  0  8G28G 7G 9G 4G 8G26G29G11
  22870288.22846  17902135.31146  21983638.1564   21983640.5824
        16.5004         15.2504
   3557927.42447   2849823.94646  20713181.6024   20713185.3524
        21.5004         23.5004
  -7918088.69346  -4853516.98746  21893277.6254   21893281.8324
        14.7504         14.0004
  -6297632.34745  -4811511.87645  22602203.6414   22602217.5204
        11.7504         10.7504
    708389.48743                  24124021.6884
         6.2504
  18082151.36744  14190230.67645  23613865.9144   23613895.7934
         7.5004          7.2504
  22721884.06443  18312214.13345  24065940.8674   24065975.1914
         5.5004          5.5004
  22521259.79941                  25243533.2424
         2.7504
 03 10 30  0 14 30.0000000  0  8G28G 7G 9G 4G 8G26G29G11
  22977768.41446  17985886.13146  22004091.2274   22004093.6524
        16.2504         15.2504
   3642162.61447   2915461.87846  20729210.9694   20729214.8134
        21.5004         23.5004
  -7933524.81446  -4865545.10446  21890340.3674   21890345.8754
        15.0004         14.2504
  -6336865.62445  -4842081.50845  22594736.1564   22594749.9184
        11.7504         11.2504
    877283.76944  -1205667.15455  24156161.8134   24156184.5434
         7.0004          6.2504
  18217724.42944  14295871.74045  23639666.1724   23639694.0354
         7.7504          8.0004
  22863959.93043  18422921.89945  24092979.7734   24093021.0234
         5.2504          6.2504
  22661723.47641                  25270262.3984
         2.7504
 03 10 30  0 15  0.0000000  0  8G28G 7G 9G 4G 8G26G29G11
  23085389.86546  18069747.07846  22024570.7664   22024572.8754
        16.2504         15.2504
   3726661.06447   2981304.93046  20745290.5084   20745294.2814
        21.5004         23.5004
  -7948595.03946  -4877288.05746  21887472.5944   21887477.8204
        15.7504         15.0004
  -6375872.55045  -4872474.86345  22587312.5164   22587326.1724
        11.5004         10.7504
   1046243.12043  -1074010.94545  24188313.7664   24188336.6134
         5.5004          6.5004
  18353469.61945  14401646.91045  23665498.4694   23665529.3444
         8.0004          7.7504
  23006081.20043  18533665.01345  24120020.7034   24120061.0164
         5.0004          5.5004
                                  25297036.0474
         2.5004
 03 10 30  0 15 30.0000000  0  8G28G 7G 9G 4G 8G26G29G11
  23193143.98246  18153711.36346  22045076.0634   22045077.9494
        16.2504         14.5004
   3811412.98047   3047345.53946  20761418.3524   20761421.6684
        21.5004         23.2504
  -7963305.08946  -4888750.13646  21884673.0084   21884677.9654
        15.5004         15.0004
  -6414658.12545  -4902695.70845  22579930.6724   22579943.7074
        11.7504         11.5004
   1215257.33441   -942311.92744  24220475.2504   24220493.7234
         3.7504          4.5004
  18489375.50344  14507547.34345  23691358.7974   23691388.1604
         7.5004          7.0004
  23148235.46943  18644433.92745  24147074.1564   24147115.5354
         5.7504          5.0004
  -1551928.41351                  25323844.2974
         2.5004
 03 10 30  0 16  0.0000000  0  8G28G 7G 9G 4G 8G26G29G11
  23301037.16446  18237784.03646  22065607.2424   22065609.7734
        16.0004         14.7504
   3896423.34047   3113587.49146  20777594.9774   20777598.3284
        21.5004         23.2504
  -7977646.49846  -4899925.06346  21881944.3984   21881949.0394
        15.0004         14.0004
  -6453213.14245  -4932736.96045  22572592.3524   22572603.5354
        11.7504         11.0004
   1384330.43442   -810567.14144  24252649.2584   24252676.3014
         4.0004          4.0004
  18625445.40045  14613575.56145  23717254.1094   23717283.4264
         8.0004          7.5004
  23290427.12243  18755231.83145  24174132.7894   24174171.6254
         5.2504          6.2504
  -1495442.40751                  25350696.0474
         2.2504
 03 10 30  0 16 30.0000000  0  8G28G 7G 9G 4G 8G26G29G11
  23409074.84346  18321969.29646  22086165.7814   22086167.5394
        16.0004         15.0004
   3981695.78747   3180033.62346  20793821.7114   20793825.1564
        21.5004         23.2504
  -7991611.43546  -4910806.65446  21879286.1484   21879290.6954
        15.2504         13.7504
  -6491529.03645  -4962591.94645  22565299.3284   22565311.3324
        11.7504         11.0004
   1553465.66043                  24284836.5554
         5.0004
  18761681.52444  14719733.27245  23743178.0634   23743208.2344
         7.5004          6.5004
  23432657.89243  18866060.37645  24201199.0164   24201235.8244
         5.0004          5.7504
                                  25377587.0634
         2.5004
 03 10 30  0 17  0.0000000  0  8G28G 7G 9G 4G 8G26G29G11
  23517249.18446  18406261.04246  22106750.6024   22106752.7344
        15.7504         14.5004
   4067221.36647   3246677.07146  20810096.5314   20810099.9534
        21.5004         23.2504
  -8005205.54446  -4921399.35046  21876699.3054   21876704.0514
        16.0004         15.0004
  -6529610.32546  -4992264.17145  22558052.4534   22558064.3284
        12.0004         10.7504
   1722652.87043                  24317031.4774
         5.5004
  18898072.93645  14826012.03745  23769134.5784   23769164.9384
         8.0004          7.7504
  23574916.98342  18976910.86145  24228270.0004   24228306.6684
         4.7504          5.2504
                                  25404514.0394
         2.2504
 03 10 30  0 17 30.0000000  0  7G28G 7G 9G 4G 8G26G29
  23625560.60046  18490659.56246  22127361.8834   22127363.7114
        15.7504         14.7504
   4152998.72947   3313516.59246  20826419.3984   20826422.8794
        21.2504         23.2504
  -8018425.67646  -4931700.52546  21874183.6024   21874188.1134
        15.5004         15.2504
  -6567453.45846  -5021750.81645  22550849.2894   22550859.4414
        12.2504         11.2504
   1891890.83743                  24349236.4694
         5.2504
  19034617.15644  14932409.83345  23795117.0164   23795148.3134
         7.7504          7.2504
  23717201.84043  19087781.38145  24255346.4774   24255383.8954
         5.0004          5.0004
 03 10 30  0 18  0.0000000  0  7G28G 7G 9G 4G 8G26G29
  23734009.51846  18575165.19646  22147998.7344   22148000.8204
        15.7504         14.5004
   4239027.34847   3380551.98646  20842790.1644   20842793.6334
        21.2504         23.2504
  -8031269.09146  -4941708.13346  21871739.3054   21871743.9344
        15.0004         15.5004
  -6605054.89846  -5051049.17345  22543693.4614   22543703.8954
        12.7504         11.7504
   2061177.51743  -1144055.82155  24381451.1954   24381471.5314
         5.2504          5.7504
  19171311.30944  15038924.43745  23821127.8984   23821158.3754
         7.5004          7.2504
  23859509.92542  19198670.01945  24282427.4304   24282465.7734
         4.7504          5.2504
 03 10 30  0 18 30.0000000  0  7G28G 7G 9G 4G 8G26G29
  23842599.65446  18659780.87646  22168663.0474   22168665.1334
        15.7504         14.2504
   4325308.86247   3447784.36646  20859208.8754   20859212.5784
        21.2504         23.0004
  -8043729.57946  -4951417.22746  21869367.7584   21869372.2584
        15.0004         14.5004
  -6642407.90746  -5080153.98046  22536584.5164   22536594.9964
        13.0004         12.0004
   2230514.32543  -1012105.72245  24413676.0864   24413698.8164
         6.0004          6.0004
  19308156.18744  15145556.54745  23847170.1724   23847199.6764
         7.7504          7.5004
  24001841.55142  19309577.03145  24309512.6484   24309545.8094
         4.0004          5.5004
 03 10 30  0 19  0.0000000  0  7G28G 7G 9G 4G 8G26G29
  23951329.41146  18744505.29246  22189353.2894   22189355.4454
        15.5004         14.2504
   4411840.61447   3515211.77146  20875675.2664   20875678.8524
        21.2504         22.7504
  -8055806.82546  -4960827.88146  21867069.4534   21867073.7304
        15.7504         14.5004
  -6679510.97446  -5109064.13745  22529522.8594   22529532.8484
        12.7504         11.2504
   2399897.84343   -880119.05545  24445908.3674   24445930.5354
         6.5004          5.2504
  19445147.13544  15252302.47245  23873239.1954   23873268.9694
         7.2504          7.5004
  24144192.36143  19420499.02444  24336602.5234   24336645.2154
         5.0004          4.5004
 03 10 30  0 19 30.0000000  0  8G28G 7G 9G 4G 8G26G29G11
  24060199.95346  18829339.48546  22210070.8674   22210072.4614
        15.7504         14.2504
   4498622.00847   3582833.62246  20892189.0634   20892192.8594
        21.2504         22.7504
  -8067497.33746  -4969937.15646  21864845.0314   21864848.8054
        15.7504         15.2504
  -6716359.99745  -5137776.38545  22522508.9534   22522517.3954
        11.7504         11.0004
   2569326.67743   -748097.18945  24478150.4384   24478177.4804
         6.5004          5.0004
  19582281.91944  15359160.48345  23899334.2274   23899366.4264
         7.2504          7.7504
  24286560.71342  19531434.45844  24363693.0004   24363742.4694
         4.2504          4.7504
  -1466150.41051                  25539734.6414
         2.2504
 03 10 30  0 20  0.0000000  0  7G28G 7G 9G 4G 8G26G29
  24169203.53046  18914277.39746  22230813.3754   22230815.2974
        15.7504         14.2504
   4585643.84847   3650642.91046  20908749.0234   20908752.9264
        21.2504         22.7504
  -8078806.63446  -4978749.45346  21862692.6724   21862697.3364
        16.0004         15.7504
  -6752959.48146  -5166294.19845  22515543.9454   22515554.4614
        12.7504         11.2504
   2738791.17243   -616047.49445  24510398.4224   24510420.9774
         6.0004          5.2504
  19719549.70544  15466122.16345  23925457.4064   23925486.8054
         7.2504          7.2504
  24428935.23342  19642374.91144  24390787.9064   24390823.3674
         4.5004          4.5004
 03 10 30  0 20 30.0000000  0  7G28G 7G 9G 4G 8G26G29
  24278341.16846  18999319.84446  22251581.8594   22251583.8054
        15.7504         14.0004
   4672905.91247   3718639.36546  20925354.0634   20925357.4614
        21.0004         22.7504
  -8089731.11846  -4987261.89746  21860613.7504   21860618.7664
        15.5004         15.7504
  -6789305.34446  -5194614.44845  22508626.1884   22508635.0044
        12.0004         11.2504
   2908290.27842   -483970.84544  24542653.3054   24542679.8554
         4.7504          4.5004
  19856948.50743  15573185.89145  23951601.8054   23951631.9774
         6.5004          7.2504
  24571313.45242  19753318.26444  24417879.6724   24417920.7584
         4.0004          4.5004
 03 10 30  0 21  0.0000000  0  7G28G 7G 9G 4G 8G26G29
  22812203.26446  17856874.84146  21972584.7584   21972586.9844
        15.2504         14.0004
   3184996.06247   2559229.20046  20642214.4064   20642217.9804
        21.2504         23.0004
  -9675682.21146  -6223067.77246  21558816.8914   21558821.0044
        15.5004         15.5004
  -8400809.16346  -6450330.57345  22201966.6644   22201975.7734
        12.7504         11.7504
   1502413.89442  -1579459.45744  24275125.1954   24275155.1454
         4.2504          4.2504
  18419066.43544  14452758.04145  23677982.5634   23678013.1214
         7.2504          6.7504
  23138285.02843  18636671.81445  24145188.2814   24145229.6134
         5.0004          5.0004
 03 10 30  0 21 30.0000000  0  8G28G 7G 9G 4G 8G26G 5G29
  22921613.74246  17942129.82146  21993405.1954   21993407.2934
        15.7504         14.0004
   3272738.43647   2627599.96846  20658911.2194   20658914.7584
        21.2504         22.7504
  -9685825.70546  -6230971.81746  21556886.4534   21556890.9184
        16.0004         15.0004
  -8436633.88546  -6478244.84146  22195148.6024   22195157.9224
        13.0004         12.0004
   1671980.17542  -1447330.55444  24307392.5634   24307415.2814
         4.0004          4.5004
  18556722.76044  14560022.38645  23704178.9224   23704209.2114
         7.0004          7.0004
  -3157288.31251                  25105166.3674
         3.0004
  23280668.21542  18747619.07444  24172279.4454   24172321.9494
         4.2504          4.2504
 03 10 30  0 22  0.0000000  0  8G28G 7G 9G 4G 8G26G 5G29
  23031156.32146  18027487.72046  22014250.0314   22014252.4224
        15.5004         13.2504
   3360714.51947   2696152.76046  20675652.4064   20675655.8754
        21.2504         22.7504
  -9695578.99646  -6238571.70546  21555030.4694   21555034.9224
        16.2504         15.5004
  -8472197.53746  -6505955.74346  22188380.6884   22188389.1644
        13.2504         12.0004
   1841572.98642  -1315180.88943  24339664.9924   24339680.5354
         4.0004          3.5004
  18694499.09343  14667380.31445  23730395.4924   23730427.1764
         6.7504          6.5004
  -3172806.01851                  25097792.3524
         2.5004
  23423044.62743  18858560.84144  24199377.7344   24199422.5704
         5.5004          4.7504
 03 10 30  0 22 30.0000000  0  8G28G 7G 9G 4G 8G26G 5G29
  23140833.91446  18112950.81446  22035120.9454   22035123.5234
        15.5004         13.5004
   3448925.95247   2764889.01246  20692438.4224   20692441.9494
        21.0004         22.7504
  -9704937.08846  -6245863.53846  21553250.0784   21553255.0124
        16.7504         16.0004
  -8507494.29046  -6533458.78946  22181662.8524   22181670.5664
        13.0004         12.2504
   2011192.68442  -1183010.46344  24371944.6804   24371976.7854
         4.0004          4.7504
  18832394.95443  14774831.34845  23756636.6094   23756668.8094
         6.5004          6.5004
                                  25090399.3524
         2.5004
  23565414.70342  18969497.74144  24226465.1334   24226504.4734
         4.0004          4.7504
 03 10 30  0 23  0.0000000  0  8G28G 7G 9G 4G 8G26G 5G29
  23250653.35946  18198524.41646  22056018.8674   22056021.0474
        15.0004         13.5004
   3537378.35947   2833813.10246  20709270.2504   20709273.6254
        21.2504         22.7504
  -9713890.72146  -6252840.24946  21551545.9534   21551549.9264
        16.2504         16.0004
  -8542513.56646  -6560745.57746  22174998.5554   22175006.6214
        13.0004         12.0004
   2180844.32742  -1050815.03045  24404227.5314   24404248.9734
         4.5004          5.5004
  18970414.56743  14882378.81945  23782901.8594   23782932.2424
         6.7504          7.2504
                                  25082993.8984
         2.7504
  23707782.34942  19080432.61944  24253561.0634   24253606.5204
         4.5004          4.5004
 03 10 30  0 23 30.0000000  0  8G28G 7G 9G 4G 8G26G 5G29
  23360613.60346  18284207.72046  22076944.1414   22076945.6524
        15.2504         13.5004
   3626068.46647   2902922.37146  20726147.2194   20726150.4414
        21.0004         22.5004
  -9722439.29046  -6259501.35446  21549918.7274   21549923.1214
        16.5004         15.7504
  -8577254.29646  -6587815.38046  22168386.7814   22168394.6254
        13.0004         12.2504
   2350524.22143   -918597.51645  24436518.4924   24436541.2584
         5.0004          6.0004
  19108553.31843  14990019.05645  23809189.4064   23809222.0274
         6.7504          6.7504
  -3188537.01442                  25075573.7344
         4.0004
  23850142.56843  19191361.92945  24280652.6564   24280695.7464
         5.2504          6.5004
 03 10 30  0 24  0.0000000  0  8G28G 7G 9G 4G 8G26G 5G29
  23470715.59246  18370001.45346  22097895.2734   22097897.6994
        15.0004         13.5004
   3714995.86647   2972216.46046  20743069.7114   20743073.2034
        21.2504         22.5004
  -9730579.46946  -6265844.27346  21548370.0394   21548374.1994
        16.7504         16.0004
  -8611712.41246  -6614665.07046  22161829.2274   22161837.2344
        13.5004         12.2504
   2520231.35143   -786358.79345  24468811.2344   24468838.5124
         5.5004          6.2504
  19246809.09344  15097750.55645  23835498.2344   23835527.2464
         7.0004          6.7504
  -3227612.70142                  25068138.1334
         4.5004
  23992493.67041  19302283.91943  24307739.8204   24307789.0554
         3.7504          3.7504
 03 10 30  0 24 30.0000000  0  8G28G 7G 9G 4G 8G26G 5G29
  23580962.64946  18455908.31446  22118874.6334   22118876.5434
        14.7504         13.7504
   3804162.73447   3041697.26746  20760037.3834   20760040.7344
        21.0004         22.5004
  -9738305.48646  -6271864.33446  21546899.6254   21546903.5984
        16.7504         16.0004
  -8645881.20746  -6641289.32546  22155325.9774   22155333.1174
        13.5004         12.0004
   2689966.78143   -654097.93645  24501111.7814   24501143.7704
         6.0004          6.2504
  19385182.26643  15205573.48745  23861829.8134   23861859.7034
         6.5004          6.7504
  -3266764.20443                  25060688.3054
         5.0004
  24134836.22842  19413199.33645  24334829.3204   24334872.1644
         4.5004          5.0004
 03 10 30  0 25  0.0000000  0  8G28G 7G 9G 4G 8G26G 5G29
  23691359.73846  18541932.04746  22139882.6334   22139884.8134
        14.5004         13.2504
   3893572.46847   3111367.23746  20777051.5864   20777054.9844
        21.0004         22.7504
  -9745610.16246  -6277556.19446  21545509.4144   21545513.2584
        17.0004         16.0004
  -8679752.59446  -6667681.89546  22148879.6334   22148887.6884
        12.7504         12.2504
   2859733.69343   -521812.67845  24533418.0634   24533446.5824
         5.7504          6.2504
  19523674.71544  15313489.37845  23888184.8754   23888216.0904
         7.2504          6.7504
  -3305985.42643                  25053226.7344
         5.2504
  24277172.48541  19524109.68944  24361912.1954   24361960.9264
         3.7504          4.5004
 03 10 30  0 25 30.0000000  0  8G28G 7G 9G 4G 8G26G 5G29
  23801902.39546  18628069.20546  22160917.9224   22160920.1954
        14.5004         13.2504
   3983218.93847   3181221.64246  20794110.8594   20794114.4344
        21.0004         22.2504
  -9752495.57846  -6282921.24946  21544199.1884   21544203.1374
        17.2504         16.2504
  -8713328.21846  -6693844.01146  22142490.3204   22142497.1294
        13.5004         12.5004
   3029525.13343   -389508.35345  24565728.2584   24565754.3874
         5.5004          5.2504
  19662278.71643  15421492.17645  23914559.6954   23914590.6884
         6.5004          7.0004
  -3345280.41943  -2469496.63255  25045747.7584   25045765.8794
         5.7504          6.0004
  24419494.34742  19635009.06944  24388999.8914   24389040.3324
         4.5004          4.0004
 03 10 30  0 26  0.0000000  0  8G28G 7G 9G 4G 8G26G 5G29
  23912595.51546  18714323.62846  22181982.2344   22181984.2974
        14.5004         12.7504
   4073105.74747   3251263.36046  20811215.5474   20811219.0164
        21.0004         22.7504
  -9758955.02146  -6287954.51646  21542970.0234   21542974.0904
        17.0004         16.5004
  -8746600.09046  -6719769.49246  22136158.4694   22136165.4804
        14.0004         12.5004
   3199343.84243   -257182.72145  24598043.9694   24598074.9264
         5.0004          5.0004
  19800996.35743  15529583.51145  23940958.0474   23940989.6724
         6.7504          5.7504
  -3384643.74043  -2500169.06745  25038257.5634   25038275.6024
         5.5004          6.2504
  24561803.89941                  24416075.8444
         3.0004
 03 10 30  0 26 30.0000000  0  8G28G 7G 9G 4G 8G26G 5G29
  24023441.74046  18800697.31346  22203075.5474   22203078.3484
        14.2504         13.2504
   4163234.11247   3321493.27746  20828366.5474   20828370.2034
        21.0004         22.2504
  -9764982.98646  -6292651.52446  21541822.6804   21541826.4184
        17.2504         16.2504
  -8779562.32746  -6745453.83346  22129885.5084   22129892.4024
        13.7504         12.2504
   3369190.69242   -124835.21844  24630366.3674   24630392.4384
         4.5004          4.2504
  19939827.21143  15637763.11245  23967377.6174   23967408.6214
         6.5004          6.7504
  -3424072.30943  -2530892.46645  25030753.2194   25030771.4694
         5.0004          5.2504
  24704101.19542                  24443162.3984
         4.5004
 03 10 30  0 27  0.0000000  0  8G28G 7G 9G 4G 8G26G 5G29
  24134439.43946  18887189.05746  22224197.3284   22224199.6254
        14.0004         13.0004
   4253600.73647   3391908.85646  20845562.6174   20845565.8874
        21.0004         22.7504
  -9770579.40046  -6297012.24346  21540757.5864   21540760.9144
        17.5004         16.2504
  -8812214.09646  -6770896.30446  22123671.1954   22123678.1024
        13.2504         12.0004
   3539061.36842      7530.79944  24662691.9064   24662723.7544
         4.0004          4.2504
  20078766.19743  15746026.86545  23993815.4304   23993848.6254
         6.5004          7.0004
  -3463566.93342  -2561667.32445  25023238.8204   25023256.7894
         4.5004          5.5004
  24846381.28642                  24470234.5474
         4.7504
 03 10 30  0 27 30.0000000  0  8G28G 7G 9G 4G 8G26G 5G29
  24245592.77146  18973802.11646  22245349.5314   22245351.3364
        14.0004         12.7504
   4344208.54147   3462512.37346  20862804.3754   20862807.9844
        21.2504         22.7504
  -9775737.67946  -6301031.64546  21539776.1564   21539780.1884
        17.0004         16.2504
  -8844547.68246  -6796090.88646  22117518.7504   22117525.6214
        14.0004         12.5004
   3708958.27241                  24695023.1724
         3.2504
  20217814.82343  15854376.03645  24020274.6564   24020306.2234
         6.7504          6.5004
  -3503122.66342  -2592489.97844  25015709.9224   25015732.3014
         4.0004          4.2504
  24988645.30242  -2377608.78954  24497307.2894   24497350.8834
         4.0004          4.2504
 03 10 30  0 28  0.0000000  0  8G28G 7G 9G 4G 8G26G 5G29
  24356895.52246  19060531.50446  22266529.7194   22266531.5234
        14.2504         12.2504
   4435049.73447   3533297.75546  20880091.0084   20880094.5704
        21.0004         22.5004
  -9780461.88846  -6304712.78646  21538876.6884   21538880.7774
        17.0004         16.2504
  -8876566.52146  -6821040.25946  22111424.6094   22111431.3714
        13.5004         13.0004
   3878872.89541                  24727356.3524
         2.5004
  20356963.65344  15962803.33445  24046757.1484   24046789.0204
         7.0004          7.5004
  -3542745.41141  -2623364.74244  25008171.8134   25008188.3164
         3.2504          4.2504
  25130884.17342  -2266774.13645  24524375.2424   24524420.8284
         4.0004          5.0004
 03 10 30  0 28 30.0000000  0  8G28G 7G 9G 4G 8G26G 5G29
  24468355.12746  19147383.16446  22287739.7114   22287741.1764
        14.0004         12.7504
   4526130.16347   3604269.52946  20897423.4144   20897426.6844
        21.0004         22.0004
  -9784742.53546  -6308048.17646  21538062.1884   21538065.5634
        17.5004         16.7504
  -8908260.32346  -6845736.41846  22105393.7814   22105400.6524
        14.2504         13.0004
                                  24759694.2194
         2.0004
  20496216.94543  16071312.00545  24073252.3594   24073281.1484
         6.2504          5.5004
  -3582427.33041                  25000621.5784
         2.7504
  25273102.47741  -2155955.73344  24551437.1254   24551482.3244
         3.7504          4.7504
 03 10 30  0 29  0.0000000  0  7G28G 7G 9G 4G26G 5G29
  24579960.63646  19234348.53146  22308977.5554   22308979.7464
        13.7504         13.0004
   4617437.49347   3675418.14646  20914798.1254   20914801.4414
        21.0004         22.2504
  -9788588.58646  -6311045.04146  21537330.3364   21537334.1564
        17.7504         17.0004
  -8939636.90146  -6870185.44846  22099423.1414   22099429.2704
        15.0004         13.0004
  20635560.75143  16179891.23245  24099771.1954   24099804.4614
         6.7504          7.0004
                                  24993056.0944
         2.0004
  25415285.79742  -2045164.76743  24578495.9454   24578552.1414
         4.0004          3.2504
 03 10 30  0 29 30.0000000  0  6G28G 7G 9G 4G26G29
  24691715.16246  19321430.00146  22330243.5084   22330245.2074
        13.5004         13.0004
   4708973.54647   3746744.92446  20932216.9774   20932220.2464
        21.0004         22.2504
  -9791994.10346  -6313698.41046  21536682.1954   21536685.2544
        17.5004         16.5004
  -8970689.89746  -6894382.40946  22093513.3524   22093519.3054
        14.5004         12.7504
  20774995.17443  16288541.04045  24126305.8914   24126337.4104
         6.5004          6.0004
  25557435.36542                  24605548.8444
         4.5004
 03 10 30  0 30  0.0000000  0  6G28G 7G 9G 4G26G29
  24803619.08446  19408627.87246  22351538.0164   22351539.3754
        13.7504         13.0004
   4800737.38847   3818249.27846  20949678.9614   20949682.2194
        21.0004         22.0004
  -9794957.30646  -6316007.33546  21536118.1564   21536121.6724
        17.2504         16.5004
  -9001416.06946  -6918324.73346  22087665.9844   22087672.1484
        14.0004         12.5004
  20914517.65943  16397259.47845  24152855.5554   24152885.7854
         6.2504          6.5004
  25699548.11242                  24632591.5164
         4.0004
 03 10 30  0 30 30.0000000  0  7G28G 7G 9G 4G26G 5G29
  24915677.19746  19495945.89346  22372862.1174   22372864.4264
        14.2504         12.7504
   4892731.77547   3889933.26746  20967185.0314   20967188.0434
        21.0004         21.7504
  -9797470.79046  -6317965.71546  21535639.7114   21535643.4844
        17.7504         17.0004
  -9031807.87246  -6942006.55246  22081883.1724   22081888.8444
        15.2504         12.7504
  21054129.64243  16506047.65345  24179424.0704   24179454.3834
         6.2504          6.0004
                                  24970290.0394
         3.5004
  25841625.77942  -2410923.98454  24659629.8054   24659673.4104
         4.2504          4.0004
 03 10 30  0 31  0.0000000  0  7G28G 7G 9G 4G26G 5G29
  25027887.88546  19583382.82946  22394214.9694   22394217.1844
        13.5004         12.7504
   4984953.92947   3961794.76646  20984734.3594   20984737.4654
        21.0004         22.0004
  -9799534.46346  -6319573.60146  21535247.0634   21535250.7424
        18.2504         17.5004
  -9061863.73246  -6965426.61046  22076163.4224   22076169.6094
        15.0004         13.0004
  21193826.56243  16614902.04045  24206006.1804   24206038.0864
         5.5004          5.5004
  -3189505.94543                  24962678.3834
         5.0004
  25983663.83541                  24686656.7424
         3.7504
 03 10 30  0 31 30.0000000  0  7G28G 7G 9G 4G26G 5G29
  25140244.91746  19670933.76346  22415595.8134   22415598.1804
        13.5004         12.7504
   5077396.17547   4033827.71846  21002325.3834   21002328.5824
        21.0004         22.0004
  -9801152.46546  -6320834.33846  21534938.9144   21534942.4884
        17.7504         17.5004
  -9091587.01146  -6988587.55646  22070507.0554   22070513.0084
        14.5004         13.0004
  21333599.33543  16723815.47145  24232604.1644   24232640.6684
         5.5004          5.5004
  -3229570.68743                  24955056.2424
         6.2504
  26125653.38042                  24713679.9844
         4.2504
 03 10 30  0 32  0.0000000  0  7G28G 7G 9G 4G26G 5G29
  25252751.60546  19758601.28446  22437005.2974   22437007.2424
        13.5004         12.5004
   5170060.32747   4106033.58446  21019958.9224   21019962.1334
        21.0004         21.7504
  -9802319.31746  -6321743.57946  21534716.5864   21534720.5944
        17.5004         17.2504
  -9120971.53146  -7011484.51246  22064915.0634   22064920.8634
        14.0004         12.7504
  21473448.02243  16832788.10945  24259217.1564   24259251.7034
         5.7504          5.2504
  -3269696.46543                  24947418.9844
         6.7504
  26267594.68242                  24740693.4304
         4.2504
 03 10 30  0 32 30.0000000  0  7G28G 7G 9G 4G26G 5G29
  25365405.89946  19846383.85446  22458443.1254   22458444.6484
        13.5004         12.7504
   5262942.77847   4178409.54346  21037633.4694   21037636.5274
        21.0004         21.7504
  -9803034.78546  -6322301.06246  21534580.4384   21534584.6334
        18.0004         17.2504
  -9150016.45146  -7034116.87446  22059388.6094   22059393.9184
        14.7504         13.2504
  21613367.49743  16941815.82945  24285844.8834   24285879.2664
         5.7504          6.2504
  -3309884.89944  -2459377.17655  24939772.7664   24939789.5744
         7.5004          6.2504
  26409483.01341                  24767687.4304
         3.0004
 03 10 30  0 33  0.0000000  0  7G28G 7G 9G 4G26G 5G29
  25478212.69946  19934285.25546  22479909.5164   22479910.9924
        13.5004         12.7504
   5356046.96947   4250958.22846  21055350.6024   21055354.0704
        20.7504         21.5004
  -9803291.93446  -6322501.30346  21534531.5314   21534535.3054
        18.0004         17.2504
  -9178713.76946  -7056478.40946  22053927.4844   22053933.4964
        15.0004         12.5004
  21753359.69943  17050900.44345  24312483.7274   24312514.2854
         6.0004          5.7504
  -3350130.53444  -2490738.09745  24932114.6334   24932134.9454
         7.2504          5.7504
  26551319.73941                  24794684.9924
         3.7504
 03 10 30  0 33 30.0000000  0  8G24G28G 7G 9G 4G26G 5G29
  -3160606.48851                  24621166.6724
         3.2504
  25591164.97746  20022300.00746  22501403.0004   22501404.4654
        13.5004         12.5004
   5449364.74547   4323673.42446  21073108.3594   21073111.5704
        20.5004         21.5004
  -9803095.76546  -6322348.39046  21534568.7734   21534572.0204
        18.2504         17.5004
  -9207067.49446  -7078572.18746  22048531.4924   22048537.2344
        14.2504         13.0004
  21893414.75843  17160033.86145  24339136.3594   24339166.2624
         6.2504          6.2504
  -3390439.40943  -2522148.22345  24924444.3134   24924467.0904
         6.5004          6.2504
  26693095.31941                  24821665.4144
         3.7504
 03 10 30  0 34  0.0000000  0  8G24G28G 7G 9G 4G26G 5G29
  -3219237.43442                  24610007.3984
         4.0004
  25704261.45446  20110427.12546  22522924.9534   22522926.8754
        13.5004         12.7504
   5542893.10347   4396552.71646  21090906.4454   21090909.6804
        20.5004         21.2504
  -9802445.72046  -6321841.88746  21534692.6724   21534696.1054
        18.2504         17.5004
  -9235076.18446  -7100397.09246  22043201.5944   22043207.0314
        14.5004         13.5004
  22033528.18343  17269212.86945  24365796.7344   24365831.3754
         5.7504          6.2504
  -3430812.44143  -2553608.37645  24916763.0394   24916784.3054
         5.5004          6.7504
  26834805.63542                  24848636.2664
         4.2504
 03 10 30  0 34 30.0000000  0  8G24G28G 7G 9G 4G26G 5G29
  -3277910.01743                  24598839.9304
         5.0004
  25817507.26146  20198670.60446  22544474.6724   22544477.3554
        13.5004         12.7504
   5636635.92547   4469599.14346  21108744.5864   21108747.9264
        20.5004         21.5004
  -9801334.31446  -6320975.89746  21534904.3984   21534908.2194
        18.5004         17.7504
  -9262731.68946  -7121946.78446  22037939.3364   22037944.4454
        15.0004         13.5004
  22173702.00243  17378438.91145  24392471.2274   24392505.6094
         5.5004          6.2504
  -3471243.78942  -2585113.96345  24909068.7194   24909086.1724
         4.2504          5.7504
  -3098914.81651  -2436812.21654  24875585.9844   24875634.4574
         3.0004          4.2504
 03 10 30  0 35  0.0000000  0  8G24G28G 7G 9G 4G26G 5G29
  -3336631.24743                  24587663.6024
         5.2504
  25930892.55046  20287022.79246  22566051.3914   22566053.4064
        13.2504         12.7504
   5730581.68147   4542803.62446  21126622.0864   21126625.3324
        20.2504         21.2504
  -9799769.48046  -6319756.52646  21535202.0004   21535205.4224
        18.5004         17.7504
  -9290040.79546  -7143226.58746  22032742.7194   22032748.1684
        15.7504         13.5004
  22313923.44943  17487702.07445  24419155.1954   24419188.9414
         5.5004          5.2504
  -3511742.29941  -2616671.90645  24901362.6484   24901386.4224
         3.7504          5.7504
  -2957343.18142  -2326498.06743  24902529.5784   24902578.3914
         4.5004          3.2504
 03 10 30  0 35 30.0000000  0  8G24G28G 7G 9G 4G26G 5G29
  -3395389.75943  -2458251.82555  24576479.6254   24576530.0204
         5.5004          5.7504
  26044426.30746  20375490.66546  22587655.9224   22587657.8324
        13.2504         12.2504
   5824738.09447   4616172.30046  21144539.5944   21144542.7234
        20.2504         21.2504
  -9797740.26546  -6318175.26446  21535588.0864   21535591.1914
        18.5004         17.7504
  -9316992.04646  -7164227.48346  22027613.6564   22027619.0704
        15.5004         13.5004
  22454198.30643  17597006.73445  24445851.6804   24445885.2974
         5.7504          5.0004
  -3552298.22141  -2648274.72544  24893644.9064   24893665.8674
         2.7504          4.7504
  -2815841.12241  -2216237.94944  24929454.6724   24929508.6414
         3.7504          4.0004
 03 10 30  0 36  0.0000000  0  8G24G28G 7G 9G 4G26G 5G29
  -5029607.54743  -3731665.02745  24265496.3914   24265544.3324
         6.2504          6.5004
  24582689.48046  19236475.02846  22309496.8444   22309498.5784
        13.2504         12.0004
   4343683.79447   3462103.99346  20862704.4144   20862707.5664
        20.2504         21.5004
 -11370667.36746  -7543832.61146  21236269.9614   21236273.5354
        18.5004         17.7504
 -10919006.16946  -8412550.07346  21722760.7034   21722766.6454
        15.2504         14.0004
  21019105.52843  16478752.26045  24172762.0234   24172797.9414
         5.5004          6.0004
                                  24586122.0554
         1.2504
  -4249829.46441  -3333632.61144  24656578.7344   24656626.8204
         3.7504          4.5004
 03 10 30  0 36 30.0000000  0  7G24G28G 7G 9G 4G26G29
  -5088436.19443  -3777502.30645  24254298.5864   24254346.6954
         5.7504          5.7504
  24696515.60846  19325170.84646  22331156.9774   22331158.8164
        13.2504         12.2504
   4438252.48347   3535793.89946  20880699.7974   20880703.2074
        20.2504         21.2504
 -11367707.58346  -7541526.02846  21236833.1094   21236836.3554
        18.2504         17.7504
 -10945237.09046  -8432989.54346  21717769.3364   21717774.8444
        15.7504         14.5004
  21159473.94943  16588129.88445  24199472.7274   24199507.4024
         5.7504          5.7504
  -4108479.61541                  24683475.4534
         3.2504
 03 10 30  0 37  0.0000000  0  7G24G28G 7G 9G 4G26G29
  -5147302.65143  -3823369.05744  24243094.5394   24243138.7774
         5.0004          4.7504
  24810480.84146  19413974.90546  22352843.8364   22352846.0164
        12.7504         12.0004
   4533018.27947   3609637.42946  20898733.2504   20898736.2734
        20.2504         21.5004
 -11364287.06846  -7538860.56446  21237483.5784   21237486.8714
        18.2504         18.0004
 -10971110.47046  -8453150.51146  21712844.9064   21712851.1414
        15.7504         13.5004
  21299877.72143  16697534.97045  24226189.3674   24226221.9534
         5.5004          5.7504
  -3967217.21941                  24710358.1564
         3.2504
 03 10 30  0 37 30.0000000  0  8G24G28G 7G 9G 4G26G 5G29
  -5206198.74042  -3869258.96643  24231884.4454   24231943.8634
         4.2504          3.7504
  24924590.61846  19502891.62546  22374558.6024   22374560.1134
        12.5004         12.0004
   4627985.03347   3683637.54946  20916805.0234   20916808.5514
        20.2504         21.0004
 -11360398.38146  -7535830.35346  21238223.7894   21238227.3984
        18.5004         18.0004
 -10996618.37346  -8473026.55646  21707990.7424   21707996.9414
        15.2504         13.7504
  21440319.07843  16806969.36945  24252916.6484   24252942.3094
         5.0004          5.0004
  -4749384.07753                  24562870.7734
         5.0004
  -3826039.35641                  24737221.9614
         3.0004
 03 10 30  0 38  0.0000000  0  8G24G28G 7G 9G 4G26G 5G29
  -5265124.89141  -3915172.31442  24220668.9384   24220712.9184
         3.2504          2.7504
  25038841.81846  19591918.54545  22396299.5634   22396302.0594
        12.5004         11.2504
   4723148.22647   3757790.73746  20934913.6334   20934917.1134
        20.5004         21.0004
 -11356042.75846  -7532436.26046  21239052.2344   21239055.4574
        18.2504         18.0004
