     2.10           OBSERVATION DATA    G (GPS)             RINEX VERSION / TYPE
teqc  2007Feb5      UNAVCO Archive Ops  20070321 07:52:09UTCPGM / RUN BY / DATE
Solaris 5.10|UltraSparc IIIi|cc -xarch=v9 SC5.8|=+-|*Sparc  COMMENT
BIT 2 OF LLI FLAGS DATA COLLECTED UNDER A/S CONDITION       COMMENT
GARL                                                        MARKER NAME
49721S001                                                   MARKER NUMBER
Davis, Jim          Harvard-Smithsonian CfA                 OBSERVER / AGENCY
3609A14796          TRIMBLE 4000SSI     7.19B               REC # / TYPE / VERS
0220062100          TRM29659.00     SCIS                    ANT # / TYPE
 -2384509.0615 -4239524.8940  4114370.6286                  APPROX POSITION XYZ
        0.0884        0.0000        0.0000                  ANTENNA: DELTA H/E/N
     1     1                                                WAVELENGTH FACT L1/2
     7    L1    L2    C1    P2    P1    S1    S2            # / TYPES OF OBSERV
    30.0000                                                 INTERVAL
RINEX file created by UNAVCO GPS Archive.                   COMMENT
For more information contact archive@unavco.org             COMMENT
Monument ID: 11764                                          COMMENT
UNAVCO 4-char name:   GARL                                  COMMENT
4-char name from Log or data file: GARL                     COMMENT
Monument location: 40.416527 -119.355457 1640.2266          COMMENT
Visit ID: 59421                                             COMMENT
                                                            COMMENT
GARL-BRGN-NV1996                                            COMMENT
                                                            COMMENT
End of DB comments                                          COMMENT
 SNR is mapped to RINEX snr flag value [1-9]                COMMENT
  L1: 3 -> 1; 8 -> 5; 40 -> 9                               COMMENT
  L2: 1 -> 1; 5 -> 5; 60 -> 9                               COMMENT
  2003    11     1     0     0   30.0000000     GPS         TIME OF FIRST OBS
                                                            END OF HEADER
 03 11  1  0  0 30.0000000  0  8G28G 9G 4G11G 8G 7G26G29
   1392577.58356   1071253.74256  21845309.8834   21845313.9614
        17.7504         15.5004
  -9449799.54456  -7247967.53756  22002411.2194   22002417.6644
        13.7504         13.5004
  -7679573.25355  -5714032.44455  22764983.2034   22764991.2234
         9.2504          9.7504
     77174.15152                  25038738.7664
         4.0004
  11640830.01455  11161092.09255  23858739.7344   23858748.1174
         8.2504          6.5004
  -9950876.96657  -7601632.73056  20623674.4774   20623679.5394
        21.5004         23.7504
   3814644.69555   3603368.30255  23421212.5164   23421221.4964
         8.5004          7.7504
   5250477.77153  11434028.61855  23856343.5554   23856352.6174
         5.7504          6.0004
 03 11  1  0  1  0.0000000  0  8G28G 9G 4G11G 8G 7G26G29
   1461418.23646   1124895.79746  21858409.8594   21858414.3834
        17.5004         16.0004
  -9506004.75946  -7291763.70146  21991715.8834   21991721.9184
        14.0004         13.2504
  -7758194.52545  -5775295.56245  22750022.0394   22750028.1564
         9.5004          9.2504
    178064.04342                  25057937.7274
         4.0004
  11771773.70744  11263125.94045  23883657.7664   23883667.6954
         7.0004          7.0004
  -9906642.70247  -7567164.46546  20632091.8204   20632096.7664
        21.5004         24.0004
   3911150.70845   3678567.66045  23439577.5474   23439586.4694
         8.0004          8.5004
   5354756.18643  11515284.42645  23876187.1564   23876193.6954
         6.0004          6.2504
 03 11  1  0  1 30.0000000  0  8G28G 9G 4G11G 8G 7G26G29
   1530403.77346   1178650.72246  21871537.0864   21871541.1994
        17.2504         15.5004
  -9561865.93446  -7335291.77746  21981085.3834   21981090.8204
        13.5004         13.5004
  -7836619.67445  -5836405.91445  22735097.7504   22735103.8914
         9.5004          9.0004
    279200.18642                  25077183.7664
         4.0004
  11902809.29644  11365231.33745  23908593.1644   23908600.3284
         7.2504          6.7504
  -9862126.14247  -7532476.22646  20640563.4064   20640568.3984
        21.5004         23.7504
   4007864.55744   3753928.96545  23457980.1564   23457988.3164
         7.7504          7.7504
   5459115.55343  11596603.37245  23896045.0164   23896054.7814
         5.5004          6.2504
 03 11  1  0  2  0.0000000  0  8G28G 9G 4G11G 8G 7G26G29
   1599536.18146   1232520.10446  21884693.2194   21884697.3794
        17.5004         15.7504
  -9617378.60446  -7378548.29446  21970521.8444   21970527.7974
        13.5004         13.2504
  -7914843.77645  -5897359.59745  22720212.1564   22720220.1644
        10.5004          9.7504
    380582.09441                  25096475.3204
         3.7504
  12033936.46043  11467408.18045  23933545.9224   23933556.0044
         6.7504          7.0004
  -9817326.70047  -7497567.55846  20649088.0704   20649092.9574
        21.5004         24.0004
   4104785.32445   3829451.53945  23476424.6334   23476433.4024
         8.2504          8.7504
   5563555.50743  11677985.02044  23915921.9144   23915925.6524
         5.7504          4.5004
 03 11  1  0  2 30.0000000  0  8G28G 9G 4G11G 8G 7G26G29
   1668818.56246   1286506.34546  21897876.8054   21897881.0944
        17.5004         15.5004
  -9672537.10346  -7421528.87346  21960025.4844   21960032.0004
        14.2504         14.2504
  -7992860.22745  -5958151.52345  22705366.4774   22705373.8164
        10.7504          9.7504
    482211.26141                  25115814.4844
         3.7504
  12165156.23344  11569657.10145  23958516.4064   23958524.7074
         7.0004          7.2504
  -9772242.77647  -7462437.22146  20657667.5474   20657672.3874
        21.5004         24.0004
   4201912.96245   3905135.30545  23494907.2504   23494916.2194
         8.2504          8.7504
   5668076.06143  11759429.40345  23935810.5864   23935821.5824
         5.7504          5.7504
 03 11  1  0  3  0.0000000  0  8G28G 9G 4G11G 8G 7G26G29
   1738245.53446   1340605.25346  21911088.3524   21911092.4654
        17.2504         15.5004
  -9727344.34746  -7464235.73346  21949596.0004   21949602.1884
        14.5004         14.2504
  -8070671.49545  -6018783.54945  22690558.9384   22690565.6764
        10.7504         10.0004
    584078.63841                  25135196.5864
         3.2504
  12296460.98142  11671972.30145  23983502.5634   23983514.9534
         4.2504          6.2504
  -9726881.09947  -7427090.45346  20666299.3364   20666304.2934
        21.5004         24.0004
   4299239.16245   3980973.74245  23513429.3674   23513436.9534
         8.7504          8.2504
   5772668.60343  11840929.98145  23955716.0164   23955725.1604
         5.7504          5.7504
 03 11  1  0  3 30.0000000  0  8G28G 9G 4G11G 8G 7G26G29
   1807823.10346   1394821.50646  21924328.4774   21924333.7034
        17.2504         15.5004
  -9781792.07246  -7506662.41746  21939234.7664   21939241.2344
        14.0004         13.2504
  -8148268.33045  -6079248.47245  22675793.0004   22675800.4574
        11.2504         10.5004
    686188.32941                  25154627.9064
         3.2504
  12427854.87442  11774356.87045  24008507.5944   24008519.4574
         4.0004          5.7504
  -9681237.26647  -7391523.83246  20674985.3914   20674990.2424
        21.5004         23.7504
   4396766.72245   4056969.16245  23531987.2194   23531993.6054
         8.2504          7.5004
   5877335.89443  11922488.79945  23975634.5864   23975645.8754
         6.2504          6.2504
 03 11  1  0  4  0.0000000  0  8G28G 9G 4G11G 8G 7G26G29
   1877549.52546   1449153.75146  21937596.6644   21937600.6604
        17.0004         15.5004
  -9835879.37546  -7548808.30146  21928941.9224   21928948.0164
        14.2504         14.2504
  -8225649.15045  -6139545.04045  22661067.6804   22661074.9614
        11.0004         10.5004
    788536.52341                  25174105.0554
         3.2504
  12559333.83243  11876807.75345  24033526.5004   24033536.1724
         6.5004          7.5004
  -9635314.14147  -7355739.57346  20683724.2424   20683729.2344
        21.7504         23.7504
   4494490.93445   4133117.78645  23550583.6644   23550590.7934
         8.0004          7.5004
   5982073.30143  12004102.22645  23995566.2894   23995573.9344
         5.7504          6.2504
 03 11  1  0  4 30.0000000  0  8G28G 9G 4G11G 8G 7G26G29
   1947427.14246   1503603.80446  21950894.3134   21950898.8134
        16.7504         15.0004
  -9889601.35246  -7590669.46446  21918719.4924   21918725.2704
        15.2504         13.7504
  -8302808.30145  -6199668.91045  22646384.1414   22646390.2704
        10.2504         10.5004
     58155.38951                  25193628.0634
         3.2504
  12690898.27143  11979325.22645  24058561.7664   24058573.2544
         6.5004          6.7504
  -9589110.83347  -7319736.99746  20692516.3834   20692521.1764
        21.5004         24.0004
   4592411.22144   4209419.19445  23569217.6024   23569226.8054
         7.7504          8.2504
   6086880.21843  12085769.81445  24015510.0004   24015518.6994
         5.0004          6.0004
 03 11  1  0  5  0.0000000  0  8G28G 9G 4G11G 8G 7G26G29
   2017453.36546   1558169.65046  21964219.7344   21964224.0704
        16.7504         15.2504
  -9942958.31646  -7632246.24546  21908565.8204   21908571.4694
        15.7504         14.7504
  -8379745.63845  -6259619.92145  22631744.3594   22631752.9184
        11.2504         10.7504
    160974.81341                  25213193.1564
         3.0004
  12822543.41243  12081905.68144  24083614.6334   24083631.2664
         5.7504          4.7504
  -9542631.52247  -7283519.35346  20701361.1174   20701366.0864
        21.5004         23.7504
   4690521.81145   4285868.90345  23587886.8834   23587896.2504
         8.0004          8.5004
   6191751.12843  12167487.25245  24035463.9454   24035468.6684
         5.0004          6.0004
 03 11  1  0  5 30.0000000  0  8G28G 9G 4G11G 8G 7G26G29
   2087627.25046   1612850.55646  21977573.5474   21977577.8594
        16.7504         15.0004
  -9995948.93046  -7673537.57046  21898481.5864   21898487.3754
        15.0004         14.2504
  -8456458.69045  -6319396.14445  22617146.0554   22617151.5164
        11.5004         10.7504
     17187.38051                  25232802.8524
         3.0004
  12954266.04643  12184546.52545  24108679.4304   24108689.8874
         5.0004          5.7504
  -9495878.60047  -7247088.50846  20710258.0084   20710263.0944
        21.5004         23.7504
   4788818.53045   4362463.65945  23606592.2974   23606599.9654
         8.0004          8.2504
   6296681.46443  12249251.05945  24055433.9694   24055443.6884
         5.2504          6.2504
 03 11  1  0  6  0.0000000  0  8G28G 9G 4G11G 8G 7G26G29
   2157954.30946   1667650.81246  21990956.6024   21990960.7504
        16.5004         15.0004
 -10048565.11546  -7714537.15046  21888469.4694   21888476.0904
        15.0004         14.2504
  -8532939.04345  -6378991.12945  22602592.3984   22602599.9964
        11.7504         11.7504
     58551.31651                  25252457.3284
         2.7504
  13086069.53143  12287250.28745  24133762.0164   24133773.1414
         6.5004          7.5004
  -9448848.16147  -7210441.41846  20719207.4844   20719212.3834
        21.5004         23.7504
   4887303.81444   4439205.33145  23625332.8984   23625341.0474
         7.7504          8.2504
   6401673.62842  12331062.96845  24075410.7194   24075419.5124
         4.5004          5.2504
 03 11  1  0  6 30.0000000  0  8G28G 9G 4G11G 8G 7G26G29
   2228434.20946   1722570.17646  22004368.1024   22004372.9304
        16.2504         14.5004
 -10100804.63046  -7755243.18246  21878528.2114   21878534.5744
        15.5004         15.2504
  -8609183.54945  -6438402.28645  22588083.0164   22588089.6254
        11.5004         11.2504
     58681.97951                  25272153.8284
         2.7504
  13217951.58843  12390015.30345  24158857.7424   24158865.1644
         6.7504          7.0004
  -9401541.64647  -7173579.20446  20728209.5554   20728214.4534
        21.5004         23.5004
   4985974.32444   4516091.33045  23644110.3444   23644119.1484
         7.7504          8.7504
   6506724.73942  12412920.81845  24095402.1094   24095413.5744
         4.7504          6.0004
 03 11  1  0  7  0.0000000  0  8G28G 9G 4G11G 8G 7G26G29
   2299066.45746   1777608.24646  22017809.1804   22017814.0784
        16.2504         14.7504
 -10152665.65846  -7795654.29346  21868659.4844   21868666.0354
        15.7504         15.2504
  -8685189.76945  -6497627.77645  22573619.2114   22573626.1294
        11.7504         10.5004
     38060.20651                  25291894.7584
         2.5004
  13349909.42143  12492839.42045  24183968.9144   24183979.0314
         5.0004          5.5004
  -9353961.22147  -7136503.55446  20737263.9304   20737268.8284
        21.5004         23.7504
   5084826.45344   4593118.86445  23662920.3134   23662927.6414
         7.2504          8.5004
   6611831.01643  12494821.61845  24115404.1884   24115413.6374
         5.7504          6.0004
 03 11  1  0  7 30.0000000  0  8G28G 9G 4G11G 8G 7G26G29
   2369845.27546   1832760.53546  22031278.2114   22031283.1804
        16.2504         15.0004
 -10204151.89046  -7835773.32746  21858861.9144   21858867.3874
        15.0004         14.2504
  -8760960.22945  -6556669.54745  22559200.6484   22559207.5084
        11.7504         10.7504
                                  25311678.3284
         2.2504
  13481935.24941  12595716.54744  24209092.4774   24209097.1174
         3.2504          4.0004
  -9306113.92947  -7099219.94746  20746368.8204   20746373.9304
        21.5004         23.5004
   5183851.33945   4670281.00045  23681765.2584   23681774.0394
         8.0004          8.0004
   6716983.67142  12576758.65145  24135411.9844   24135424.6804
         4.7504          5.7504
 03 11  1  0  8  0.0000000  0  8G28G 9G 4G11G 8G 7G26G29
   2440779.72946   1888034.09146  22044776.2344   22044780.5944
        16.0004         14.7504
 -10255251.64346  -7875591.24846  21849137.7664   21849143.4844
        15.0004         14.2504
  -8836482.82645  -6615518.17545  22544829.2974   22544835.5314
        11.7504         10.2504
     38223.86551                  25331504.0474
         2.2504
  13614035.81542  12698651.57844  24234230.2344   24234243.5514
         4.2504          4.5004
  -9257992.38247  -7061722.64646  20755525.8204   20755530.9654
        21.5004         23.5004
   5283055.07644   4747582.51645  23700642.0314   23700650.8714
         7.5004          8.5004
   6822188.55343  12658736.34945  24155430.9454   24155441.4144
         5.0004          6.2504
 03 11  1  0  8 30.0000000  0  8G28G 9G 4G11G 8G 7G26G29
   2511864.56246   1943424.83646  22058303.1024   22058307.8244
        16.0004         14.7504
 -10305967.41646  -7915109.96946  21839487.2664   21839492.8554
        15.7504         14.7504
  -8911759.63546  -6674175.29645  22530504.3984   22530509.6954
        12.0004         10.7504
    142630.43341                  25351369.1254
         2.2504
  13746203.94443  12801639.56345  24259381.2034   24259392.0704
         5.2504          6.0004
  -9209603.22347  -7024016.81446  20764734.1254   20764739.0594
        21.5004         23.5004
   5382429.38244   4825016.92745  23719553.2814   23719563.1294
         7.5004          7.5004
   6927437.75543  12740748.55745  24175462.4224   24175474.5664
         5.5004          6.0004
 03 11  1  0  9  0.0000000  0  8G28G 9G 4G11G 8G 7G26G29
   2583104.06346   1998936.07646  22071859.6174   22071864.2704
        16.0004         14.5004
 -10356292.97046  -7954324.61446  21829910.5394   21829916.1884
        15.7504         15.5004
  -8986783.30045  -6732635.16945  22516227.1884   22516233.7384
        11.2504         10.5004
                                  25371279.6644
         2.0004
  13878441.62443  12904681.62945  24284545.3284   24284555.6334
         5.2504          6.5004
  -9160943.42947  -6986100.10146  20773993.8914   20773998.8714
        21.5004         23.5004
   5481975.15644   4902584.89645  23738496.9064   23738506.1334
         7.7504          7.7504
   7032732.25442  12822796.02945  24195498.5084   24195503.8164
         4.5004          5.0004
 03 11  1  0  9 30.0000000  0  8G28G 9G 4G11G 8G 7G26G29
   2654499.25546   2054568.64346  22085445.7664   22085450.3594
        15.7504         14.2504
 -10406224.85646  -7993232.53246  21820408.5314   21820414.7894
        15.2504         15.5004
  -9061549.55446  -6790894.46445  22501999.8204   22502007.2074
        12.2504         11.5004
     17485.89651                  25391231.3054
         2.2504
  14010747.86143  13007777.08945  24309723.1174   24309738.0274
         5.0004          6.5004
  -9112013.75947  -6947973.09746  20783304.8054   20783309.6804
        21.2504         23.2504
   5581690.47444   4980285.04445  23757471.7034   23757479.8874
         7.5004          7.0004
   7138069.31142  12904876.70145  24215543.2114   24215552.6954
         4.2504          5.7504
 03 11  1  0 10  0.0000000  0  8G28G 9G 4G11G 8G 7G26G29
   2726048.46946   2110321.24046  22099061.0864   22099065.9494
        16.0004         14.7504
 -10455762.09846  -8031832.86346  21810982.0394   21810987.2304
        15.0004         14.7504
  -9136056.75746  -6848951.90945  22487821.8594   22487828.1994
        12.5004         11.0004
                                  25411222.9774
         2.2504
  14143118.97543  13110923.15545  24334911.7194   24334922.7624
         5.5004          6.2504
  -9062816.95747  -6909637.93746  20792666.5554   20792671.5474
        21.2504         23.5004
   5681570.78944   5058113.76645  23776477.9844   23776486.6724
         7.2504          7.2504
   7243445.55442  12986987.90545  24235595.2194   24235604.9734
         4.0004          5.2504
 03 11  1  0 10 30.0000000  0  8G28G 9G 4G11G 8G 7G26G29
   2797745.88546   2166189.31646  22112705.1484   22112709.8484
        15.7504         14.2504
 -10504908.41246  -8070128.64046  21801629.3914   21801634.6994
        15.2504         14.7504
  -9210307.91546  -6906809.80745  22473692.3984   22473698.8554
        13.0004         11.2504
     17554.61651                  25431254.0704
         2.2504
  14275546.87643  13214113.43245  24360112.8834   24360122.8954
         6.0004          6.0004
  -9013360.63747  -6871100.55846  20802077.7194   20802082.8164
        21.2504         23.2504
   5781606.85244   5136063.78545  23795514.4534   23795523.0944
         7.5004          7.2504
   7348851.60642  13069122.26545  24255656.1254   24255668.5744
         4.7504          5.0004
 03 11  1  0 11  0.0000000  0  7G28G 9G 4G 8G 7G26G29
   2869598.98546   2222178.69646  22126378.0004   22126382.5354
        15.5004         14.2504
 -10553653.83846  -8108112.02846  21792353.7194   21792358.9344
        15.7504         15.0004
  -9284292.16646  -6964459.76145  22459613.2974   22459619.6024
        12.5004         11.2504
  14408036.87543  13317352.24344  24385325.2664   24385327.1764
         6.7504          4.0004
  -8963638.56147  -6832356.09246  20811539.5084   20811544.4184
        21.2504         23.2504
   5881803.50044   5214138.97345  23814581.3674   23814589.6334
         7.5004          7.7504
     38662.46651                  24275717.8914
         3.7504
 03 11  1  0 11 30.0000000  0  7G28G 9G 4G 8G 7G26G29
   2941609.22546   2278290.54046  22140081.3754   22140086.4964
        15.7504         14.5004
 -10601994.68446  -8145780.14946  21783154.5004   21783160.1134
        15.7504         15.5004
  -9358005.21346  -7021898.38145  22445586.3674   22445592.5664
        12.5004         10.5004
  14540588.20343  13420638.68744  24410548.5634   24410554.9024
         6.5004          4.2504
  -8913650.90247  -6793404.68246  20821052.1254   20821057.2584
        21.2504         23.2504
   5982158.78544   5292337.81145  23833678.4614   23833688.7774
         7.2504          8.0004
    144134.96742                  24295789.0634
         4.5004
 03 11  1  0 12  0.0000000  0  7G28G 9G 4G 8G 7G26G29
   3013773.69246   2334522.56346  22153814.3984   22153819.2274
        15.5004         14.2504
 -10649931.76246  -8183133.68546  21774031.9144   21774037.9844
        15.7504         16.0004
  -9431447.06346  -7079125.65545  22431610.4924   22431617.3014
        12.2504         11.5004
  14673195.60343  13523969.07243  24435783.5004   24435796.0434
         5.7504          3.5004
  -8863402.20847  -6754249.86646  20830614.1414   20830619.2734
        21.2504         23.2504
   6082666.43444   5370655.30745  23852803.5474   23852813.9924
         7.2504          7.5004
    249634.01442                  24315867.3134
         4.5004
 03 11  1  0 12 30.0000000  0  8G28G 9G 4G 8G 7G26G 5G29
   3086091.93146   2390874.39946  22167575.7114   22167580.4224
        15.7504         14.0004
 -10697462.83146  -8220170.78146  21764987.3134   21764993.0314
        15.7504         15.5004
  -9504614.53346  -7136139.18045  22417686.8754   22417694.6254
        12.2504         11.5004
  14805857.00742  13627341.18844  24461029.0944   24461039.0474
         4.7504          4.5004
  -8812894.04947  -6714892.87146  20840225.5704   20840230.6334
        21.2504         23.2504
   6183323.38443   5449089.19845  23871958.6644   23871966.6844
         6.7504          7.7504
    -25122.77251                  25320412.8444
         3.7504
    355156.08942                  24335948.2974
         4.7504
 03 11  1  0 13  0.0000000  0  8G28G 9G 4G 8G 7G26G 5G29
   3158560.45746   2447343.35146  22181365.2344   22181370.0274
        15.2504         13.7504
 -10744589.29346  -8256892.64946  21756019.3134   21756025.1024
        15.7504         15.5004
  -9577508.45346  -7192939.51645  22403816.0944   22403822.2934
        13.0004         11.5004
  14938566.42742  13730750.82843  24486282.0474   24486295.2464
         4.5004          3.7504
  -8762131.52747  -6675337.67146  20849885.3674   20849890.2894
        21.2504         23.5004
   6284122.73143   5527634.00645  23891139.3674   23891147.1764
         6.5004          7.5004
   -100547.86641                  25306061.2974
         3.2504
    460694.90441     10962.86054  24356027.4614   24356036.3834
         3.7504          4.0004
 03 11  1  0 13 30.0000000  0  8G28G 9G 4G 8G 7G26G 5G29
   3231183.50046   2503932.71746  22195185.6804   22195189.9104
        15.7504         14.2504
 -10791304.54146  -8293294.10346  21747129.6884   21747135.8754
        16.0004         15.2504
  -9650121.30746  -7249520.81246  22389998.1174   22390004.3404
        13.0004         12.2504
  15071326.00642  13834199.50443  24511545.7664   24511559.3754
         4.0004          3.2504
  -8711112.07247  -6635582.26746  20859593.9534   20859599.0394
        21.2504         23.0004
   6385065.68844   5606290.71645  23910350.9224   23910357.8164
         7.2504          7.2504
                                  25291694.8914
         2.7504
    566250.93643     93214.06145  24376119.1414   24376125.4924
         5.5004          5.2504
 03 11  1  0 14  0.0000000  0  8G28G 9G 4G 8G 7G26G 5G29
   3303952.44746   2560635.76446  22209033.2504   22209037.7274
        15.7504         14.0004
 -10837614.78946  -8329379.91246  21738317.1334   21738322.2424
        16.5004         16.0004
  -9722458.89646  -7305887.66046  22376232.1174   22376237.0514
        13.0004         12.0004
  15204124.96842  13937678.94444  24536817.3984   24536831.7704
         4.0004          4.2504
  -8659845.53447  -6595634.32246  20869349.7034   20869354.7074
        21.2504         23.0004
   6486140.61043   5685050.22645  23929581.8834   23929589.9024
         6.2504          6.5004
                                  25277311.1644
         2.5004
    671813.56742    175470.53844  24396204.6724   24396215.5744
         4.2504          4.5004
 03 11  1  0 14 30.0000000  0  8G28G 9G 4G 8G 7G26G 5G29
   3376871.74446   2617455.96446  22222908.9384   22222913.3324
        15.2504         13.7504
 -10883513.34946  -8365144.96946  21729583.2194   21729588.5864
        16.5004         16.0004
  -9794513.26646  -7362033.84145  22362520.7584   22362527.4384
        13.0004         11.7504
  15336965.75342  14041191.04345  24562095.6954   24562107.4884
         4.2504          5.0004
  -8608328.89447  -6555491.49746  20879152.9454   20879158.0664
        21.2504         22.7504
   6587348.90544   5763913.73145  23948843.5164   23948852.5434
         7.5004          7.0004
    -27741.09651                  25262918.6724
         3.0004
    777383.88642    257732.97344  24416295.7274   24416303.2194
         4.7504          4.7504
 03 11  1  0 15  0.0000000  0  8G28G 9G 4G 8G 7G26G 5G29
   3449942.55446   2674394.22546  22236814.0634   22236819.4184
        15.2504         13.7504
 -10928996.97046  -8400586.70246  21720927.6724   21720933.2034
        16.2504         16.0004
  -9866280.29146  -7417956.07746  22348864.1024   22348870.4184
        13.2504         12.2504
  15469847.25842  14144734.69545  24587382.9774   24587390.5864
         4.7504          6.2504
  -8556562.55647  -6515154.10246  20889003.9774   20889008.8524
        21.2504         22.7504
   6688688.52843   5842879.57445  23968127.9144   23968138.3954
         6.5004          7.2504
    -58051.97752                  25248510.7814
         4.0004
    882959.57242    339999.53645  24436383.0554   24436393.5944
         4.2504          6.0004
 03 11  1  0 15 30.0000000  0  8G28G 9G 4G 8G 7G26G 5G29
   3523162.12846   2731448.43046  22250746.9534   22250751.9924
        15.2504         13.5004
 -10974065.99646  -8435705.35446  21712351.3834   21712356.9964
        16.7504         15.7504
  -9937759.83046  -7473654.29046  22335261.4304   22335268.1564
        13.2504         12.7504
  15602764.58143  14248306.36345  24612676.5314   24612686.6254
         5.5004          6.0004
  -8504550.91347  -6474625.55346  20898901.1484   20898906.2234
        21.0004         22.5004
   6790153.75344   5921943.21945  23987435.9064   23987443.0944
         7.5004          6.2504
   -133837.28142                  25234090.8834
         4.5004
    988535.47842    422266.33545  24456476.2424   24456484.5664
         4.7504          5.7504
 03 11  1  0 16  0.0000000  0  8G28G 9G 4G 8G 7G26G 5G29
   3596533.63946   2788621.00446  22264709.3134   22264713.9414
        15.2504         13.5004
 -11018715.07546  -8470496.79546  21703855.2034   21703860.5474
        17.0004         16.0004
 -10008945.79046  -7529123.77646  22321715.1334   22321722.3324
        13.5004         12.2504
  15735718.66543  14351906.60045  24637976.8284   24637990.1214
         5.7504          6.2504
  -8452292.03947  -6433904.35546  20908845.9924   20908851.0314
        21.2504         23.0004
   6891744.56743   6001104.79245  24006766.9844   24006773.9384
         6.5004          7.5004
   -209691.52742    -11824.21755  25219654.8054   25219663.7274
         4.7504          5.0004
   1094111.50943    504533.16045  24476566.9144   24476577.7344
         5.0004          5.7504
 03 11  1  0 16 30.0000000  0  8G28G 9G 4G 8G 7G26G 5G29
   3670063.46846   2845916.94346  22278701.6024   22278706.6294
        14.7504         13.5004
 -11062935.46546  -8504954.19346  21695439.8594   21695445.1804
        17.0004         16.5004
 -10079828.43946  -7584356.91046  22308226.9384   22308234.4534
        13.2504         12.5004
  15868713.64843  14455538.79845  24663285.3914   24663295.9304
         6.0004          6.2504
  -8399781.15847  -6392986.79446  20918838.1484   20918843.2234
        21.0004         22.7504
   6993464.22344   6080366.73045  24026126.7504   24026133.1484
         7.7504          7.2504
   -285607.58143    -70979.57445  25205208.4924   25205219.5234
         5.5004          5.7504
   1199691.17241    586802.87045  24496656.6884   24496669.7464
         3.7504          5.0004
 03 11  1  0 17  0.0000000  0  8G28G 9G 4G 8G 7G26G 5G29
   3743752.70446   2903337.09446  22292724.2584   22292728.5234
        14.7504         13.5004
 -11106723.68546  -8539074.82846  21687107.4224   21687112.9064
        17.0004         16.7504
 -10150403.63246  -7639350.45446  22294796.9534   22294803.5044
        13.5004         12.2504
  16001748.91243  14559202.29445  24688601.6564   24688616.1684
         5.7504          5.2504
  -8347018.54047  -6351873.07446  20928878.6724   20928883.7464
        21.2504         22.7504
   7095310.79643   6159727.60245  24045504.8984   24045516.1884
         6.5004          7.5004
   -361583.78443   -130181.77345  25190750.8594   25190762.0904
         5.7504          5.5004
   1305272.54342    669073.76844  24516749.3204   24516756.5434
         4.5004          4.0004
 03 11  1  0 17 30.0000000  0  8G28G 9G 4G 8G 7G26G 5G29
   3817604.09146   2960883.59746  22306777.7894   22306782.5824
        14.5004         13.2504
 -11150074.81946  -8572854.87446  21678858.0784   21678863.0824
        17.5004         16.2504
 -10220665.62346  -7694099.95146  22281425.9924   22281432.1334
        13.5004         12.5004
  16134824.86343  14662897.58145  24713925.5004   24713938.0204
         5.5004          5.0004
  -8294002.81047  -6310562.12346  20938967.3134   20938972.3754
        21.2504         22.7504
   7197284.29944   6239187.30045  24064912.3364   24064921.8444
         7.5004          7.5004
   -437616.18643   -189427.78045  25176284.0394   25176296.9574
         5.5004          6.0004
   1410855.49541    751346.13143  24536839.5164   24536854.0164
         3.2504          3.2504
 03 11  1  0 18  0.0000000  0  8G28G 9G 4G 8G 7G26G 5G29
   3891611.35246   3018551.56746  22320861.1094   22320865.9144
        14.5004         13.2504
 -11192993.17046  -8606297.69546  21670690.7974   21670696.2344
        17.2504         16.7504
 -10290617.77646  -7748607.98746  22268114.6644   22268119.8324
        14.2504         12.7504
  16267933.08843  14766617.94945  24739254.1094   24739268.8674
         5.0004          5.0004
  -8240742.01647  -6269060.21346  20949102.4924   20949107.6024
        21.2504         22.7504
   7299374.93743   6318738.29945  24084337.4924   24084347.1054
         6.5004          7.2504
   -513711.04743   -248722.45245  25161802.9384   25161814.3674
         5.2504          6.0004
   1516430.58741                  24556932.0004
         3.5004
 03 11  1  0 18 30.0000000  0  8G28G 9G 4G 8G 7G26G 5G29
   3965775.11446   3076341.49546  22334973.9144   22334978.5904
        14.2504         13.2504
 -11235475.63746  -8639400.86146  21662606.3284   21662611.8834
        17.5004         16.7504
 -10360256.40746  -7802871.74546  22254862.9144   22254868.5274
        14.0004         12.7504
  16401072.01942  14870362.29245  24764590.3524   24764601.3954
         4.5004          5.2504
  -8187236.91347  -6227367.92946  20959284.2664   20959289.3404
        21.2504         22.7504
   7401580.20443   6398378.64845  24103787.1724   24103796.0594
         6.5004          7.2504
   -589867.31542   -308065.00444  25147310.8914   25147324.2194
         4.7504          4.7504
   1621995.49842                  24577018.1804
         4.0004
 03 11  1  0 19  0.0000000  0  8G28G 9G 4G 8G 7G26G 5G29
   4040097.22246   3134254.78846  22349116.7974   22349121.6844
        14.2504         13.0004
 -11277518.42846  -8672161.42046  21654605.9924   21654610.8204
        17.5004         16.5004
 -10429576.68846  -7856887.48346  22241671.2664   22241677.0554
        14.0004         12.2504
  16534241.32141  14974130.21843  24789932.2034   24789945.0044
         3.7504          3.5004
  -8133487.10947  -6185484.96646  20969512.2814   20969517.1914
        21.2504         22.7504
   7503899.05344   6478107.47345  24123257.8524   24123267.5004
         7.0004          7.2504
   -666082.36342   -367453.30745  25132806.4694   25132814.3834
         4.0004          5.0004
   1727549.10042                  24597107.1254
         4.2504
 03 11  1  0 19 30.0000000  0  8G28G 9G 4G 8G 7G26G 5G29
   4114583.17446   3192295.78246  22363290.8594   22363295.6524
        14.2504         13.0004
 -11319113.82346  -8704573.37746  21646690.4384   21646696.2274
        17.0004         16.2504
 -10498569.97546  -7910648.33746  22228541.7274   22228547.9734
        13.2504         12.5004
  16667444.53241                  24815280.5084
         3.0004
  -8079488.38347  -6143408.04246  20979787.8834   20979793.0394
        21.2504         22.5004
   7606334.04744   6557926.86945  24142749.9534   24142759.2624
         7.0004          6.5004
   -742349.66941                  25118294.1804
         3.2504
   1833093.94042     60307.25354  24617190.2034   24617203.4264
         4.0004          4.7504
 03 11  1  0 20  0.0000000  0  8G28G 9G 4G 8G 7G26G 5G29
   4189231.66346   3250463.40446  22377496.3364   22377501.3754
        14.2504         13.0004
 -11360260.91646  -8736635.99346  21638860.5474   21638865.9384
        17.5004         16.5004
 -10567234.50646  -7964153.06546  22215475.7584   22215482.0164
        14.0004         13.2504
  16800678.16041                  24840634.1094
         2.5004
  -8025243.69947  -6101139.45746  20990110.5944   20990115.7854
        21.2504         22.5004
   7708880.64643   6637833.16645  24162265.9064   24162273.4344
         6.7504          7.5004
   -818670.28441                  25103769.1484
         2.7504
   1938625.66841    142539.61244  24637271.9924   24637275.1094
         3.7504          4.5004
 03 11  1  0 20 30.0000000  0  8G28G 9G 4G 8G 7G26G 5G29
   4264040.19746   3308755.74146  22391732.3444   22391737.8054
        14.2504         12.7504
 -11400959.89346  -8768349.41946  21631115.9144   21631121.4344
        17.7504         17.2504
 -10635569.96546  -8017401.37246  22202472.0864   22202478.9694
        14.7504         13.2504
                                  24865992.1334
         2.0004
  -7970757.02447  -6058682.31146  21000478.9694   21000483.9844
        21.2504         22.5004
   7811533.44043   6717822.21245  24181798.1804   24181807.9104
         6.5004          7.2504
                                  25089235.9454
         2.2504
   2044138.95241                  24657353.2034
         3.7504
 03 11  1  0 21  0.0000000  0  8G28G 9G 4G 8G 7G26G 5G29
   4339013.25446   3367176.29146  22405998.6804   22406004.4454
        13.7504         12.7504
 -11441204.26446  -8799708.62546  21623457.5554   21623462.6054
        17.7504         17.0004
 -10703568.90146  -8070387.42446  22189532.1334   22189538.0984
        15.0004         13.0004
                                  24891356.4064
         1.2504
  -7916025.39647  -6016034.29646  21010894.0554   21010899.2814
        21.0004         22.2504
   7914293.37044   6797894.76145  24201354.2814   24201366.4734
         7.0004          7.5004
                                  25074691.6334
         1.2504
   2149635.82642                  24677428.7114
         4.2504
 03 11  1  0 21 30.0000000  0  6G28G 9G 4G 7G26G29
   4414145.52346   3425720.88146  22420295.9224   22420300.5984
        14.0004         13.2504
 -11480997.21746  -8830716.05846  21615885.0234   21615890.4494
        17.5004         16.7504
 -10771233.52946  -8123112.98446  22176656.1254   22176661.6684
        14.7504         13.2504
  -7861055.46947  -5973200.58846  21021354.5634   21021359.5904
        21.0004         22.2504
   8017152.53843   6878044.59145  24220927.3054   24220935.6994
         6.5004          6.2504
   2255107.44642      5475.22754  24697497.7274   24697509.8714
         4.2504          4.0004
 03 11  1  0 22  0.0000000  0  6G28G 9G 4G 7G26G29
   4489444.49046   3484395.36846  22434624.7664   22434629.9104
        14.2504         12.7504
 -11520329.00346  -8861364.14646  21608400.5394   21608405.6484
        17.7504         17.2504
 -10838553.24946  -8175569.80046  22163845.3364   22163850.7624
        14.7504         12.7504
  -7805841.09947  -5930176.41446  21031861.5314   21031866.3954
        21.2504         22.0004
   8120115.36743   6958275.25145  24240519.8204   24240529.9494
         6.2504          7.2504
   2360558.15742     87644.52645  24717565.1484   24717571.6884
         4.2504          5.5004
 03 11  1  0 22 30.0000000  0  7G28G 9G 4G 7G26G 5G29
   4564907.64846   3543197.79946  22448985.4064   22448990.0474
        14.2504         13.0004
 -11559200.34546  -8891653.44046  21601003.5864   21601008.8594
        18.2504         17.2504
 -10905527.89546  -8227757.71146  22151100.5164   22151105.3094
        15.0004         13.7504
  -7750386.50347  -5886965.04446  21042413.7814   21042419.0204
        21.0004         22.0004
   8223176.02343   7038582.11445  24260131.7504   24260142.6994
         6.0004          7.2504
    -71469.25652                  25031004.8284
         4.5004
   2465982.94042    169793.50944  24737627.7274   24737641.3594
         4.2504          4.0004
 03 11  1  0 23  0.0000000  0  7G28G 9G 4G 7G26G 5G29
   4640538.20446   3602130.66046  22463377.1484   22463382.0704
        13.7504         13.2504
 -11597605.52046  -8921579.49346  21593695.2344   21593700.3674
        18.2504         18.0004
 -10972151.27246  -8279671.90546  22138422.3134   22138428.0434
        15.5004         13.5004
  -7694689.88847  -5843565.08946  21053012.6414   21053017.6334
        21.2504         22.2504
   8326334.82543   7118965.44045  24279761.2194   24279767.2664
         5.5004          6.7504
   -148088.53743                  25016425.1804
         5.7504
   2571382.13642    251922.43545  24757684.5554   24757693.1844
         4.5004          5.0004
 03 11  1  0 23 30.0000000  0  7G28G 9G 4G 7G26G 5G29
   4716333.41946   3661191.82546  22477800.9694   22477805.8444
        14.0004         12.5004
 -11635545.39546  -8951142.96146  21586475.0784   21586480.5044
        17.7504         17.5004
 -11038423.17046  -8331312.23946  22125810.8054   22125816.6644
        14.5004         13.5004
  -7638755.39747  -5799979.77246  21063656.5704   21063661.4924
        21.2504         22.2504
   8429585.97043   7199420.73145  24299409.9534   24299420.8324
         5.7504          7.2504
   -224754.19343                  25001835.2424
         6.5004
   2676749.93041    334027.15644  24777731.7734   24777750.8094
         3.7504          4.0004
 03 11  1  0 24  0.0000000  0  7G28G 9G 4G 7G26G 5G29
   4792292.40946   3720380.60446  22492255.3134   22492259.3444
        13.7504         13.0004
 -11673018.67446  -8980342.85246  21579344.5084   21579350.1334
        18.0004         17.2504
 -11104341.28846  -8382676.86946  22113267.3444   22113272.5354
        14.7504         13.0004
  -7582585.48747  -5756211.02046  21074345.3204   21074350.3364
        21.2504         22.0004
   8532925.42443   7279944.85345  24319075.3204   24319081.5434
         5.5004          6.5004
   -301466.56244                  24987238.7734
         7.2504
   2782082.72541    416104.50143  24797778.8984   24797782.3794
         3.7504          3.0004
 03 11  1  0 24 30.0000000  0  7G28G 9G 4G 7G26G 5G29
   4868420.64246   3779701.27646  22506741.5084   22506746.2424
        13.5004         13.0004
 -11710017.85546  -9009173.31646  21572303.7664   21572308.9454
        18.2504         17.7504
 -11169897.57346  -8433759.58746  22100792.0784   22100797.9494
        14.7504         13.0004
  -7526175.97247  -5712255.55446  21085079.8984   21085084.8554
        21.2504         22.0004
   8636355.77243   7360539.71645  24338757.9224   24338766.7624
         5.7504          6.5004
   -378219.12344    -55819.69655  24972632.1254   24972639.4304
         7.2504          6.7504
   2887382.82841    498156.31044  24817817.7584   24817829.1054
         3.5004          4.0004
 03 11  1  0 25  0.0000000  0  7G28G 9G 4G 7G26G 5G29
   4944712.40946   3839149.35846  22521259.8834   22521265.0984
        13.5004         12.7504
 -11746546.37446  -9037637.02946  21565352.4614   21565357.3484
        18.5004         17.7504
 -11235094.51546  -8484562.28146  22088385.2894   22088390.5514
        15.0004         13.5004
  -7469534.15847  -5668119.07746  21095858.6564   21095863.4614
        21.0004         22.0004
   8739868.13443   7441198.62445  24358456.8984   24358465.3754
         6.2504          6.0004
   -455017.42243   -115662.25045  24958017.4144   24958030.4614
         6.5004          7.2504
   2992641.53541    580175.70445  24837845.2344   24837860.6604
         3.2504          5.0004
 03 11  1  0 25 30.0000000  0  8G28G 9G 4G24G 7G26G 5G29
   5021164.30646   3898722.21946  22535808.0314   22535812.8364
        13.5004         12.5004
 -11782605.83146  -9065735.23746  21558490.6174   21558495.9024
        18.2504         17.7504
 -11299933.03546  -8535085.69246  22076046.6884   22076052.2774
        14.5004         13.5004
                                  24652767.9304
         3.0004
  -7412664.81247  -5623805.29746  21106680.6254   21106685.7934
        21.0004         21.7504
   8843456.05543   7521916.33945  24378167.7974   24378176.8014
         6.0004          6.5004
   -531863.96243   -175542.38645  24943393.5314   24943404.3524
         5.5004          6.2504
   3097852.86341    662158.37444  24857867.8134   24857876.6994
         3.7504          4.2504
 03 11  1  0 26  0.0000000  0  8G28G 9G 4G24G 7G26G 5G29
   5097783.91146   3958425.75646  22550388.2814   22550393.6374
        13.5004         12.2504
 -11818186.55546  -9093460.40746  21551719.8674   21551725.0474
        18.7504         18.0004
 -11364402.14246  -8585321.23846  22063778.8834   22063784.4264
        14.7504         13.7504
    -92014.86742                  24634654.3204
         4.2504
  -7355561.74047  -5579309.39846  21117546.7114   21117551.9844
        20.7504         21.5004
   8947124.24143   7602696.55845  24397893.8054   24397903.8874
         5.5004          6.5004
   -608750.23142   -235453.47245  24928761.3524   24928772.5824
         4.5004          6.5004
   3203021.86742                  24877882.6954
         4.0004
 03 11  1  0 26 30.0000000  0  8G28G 9G 4G24G 7G26G 5G29
   5174571.96246   4018260.56446  22565000.5634   22565005.4734
        13.5004         12.5004
 -11853285.91046  -9120810.48546  21545040.7974   21545045.7074
        18.5004         18.0004
 -11428498.31346  -8635266.19846  22051581.9614   22051587.1994
        16.0004         14.0004
   -187227.40143                  24616535.6954
         5.0004
  -7298225.57847  -5534631.86846  21128457.1644   21128462.2504
        20.7504         21.5004
   9050870.52343   7683537.69545  24417636.6414   24417648.5044
         5.5004          5.5004
   -685674.76341   -295394.36445  24914123.6334   24914134.4884
         3.7504          6.7504
     80586.77452                  24897889.6564
         4.0004
 03 11  1  0 27  0.0000000  0  8G28G 9G 4G24G 7G26G 5G29
   5251522.54546   4078222.01746  22579644.1954   22579649.6454
        14.0004         12.2504
 -11887908.03746  -9147788.69446  21538452.1564   21538456.9734
        18.7504         18.0004
 -11492224.78746  -8684923.07846  22039455.5634   22039460.3794
        16.2504         14.2504
   -282465.71943                  24598411.6334
         5.2504
  -7240664.16247  -5489778.81246  21139410.9384   21139416.1174
        20.5004         21.5004
   9154685.50743   7764432.33645  24437393.0554   24437402.5394
         5.7504          5.7504
   -762643.18641   -355369.56645  24899476.2424   24899489.2664
         2.7504          6.0004
    185656.71441                  24917876.0004
         2.7504
 03 11  1  0 27 30.0000000  0  8G28G 9G 4G24G 7G26G 5G29
   3753220.07946   2910713.57146  22294526.3984   22294531.0984
        13.5004         12.2504
 -13497469.76246 -10401992.56946  21232162.8984   21232167.9024
        19.0004         18.5004
 -13130998.72446  -9961889.67646  21727606.6254   21727612.3204
        15.7504         14.2504
  -1953147.99643                  24280492.8134
         5.5004
  -8758294.59047  -6672347.97446  20850615.4694   20850620.6374
        20.5004         21.5004
   7683151.88743   6617782.62845  24157371.0314   24157382.2734
         5.7504          6.2504
                                  24585027.3054
         2.0004
  -1284744.08741                  24638071.9384
         3.2504
 03 11  1  0 28  0.0000000  0  8G28G 9G 4G24G 7G26G 5G29
   3830498.86346   2970930.77246  22309232.1414   22309237.0514
        13.0004         12.5004
 -13531127.47146 -10428219.28946  21225757.5234   21225762.9384
        18.5004         18.2504
 -13193973.62546 -10010960.92646  21715622.5634   21715628.5864
        15.7504         14.5004
  -2048425.87543  -1291941.74755  24262360.6174   24262373.8634
         6.2504          5.7504
  -8700283.00647  -6627144.13446  20861654.7974   20861659.8834
        20.7504         21.5004
   7787099.10143   6698780.21245  24177151.3674   24177161.2384
         5.7504          5.2504
                                  24570364.6564
         2.0004
  -1179786.46741                  24658045.4384
         3.5004
 03 11  1  0 28 30.0000000  0  8G28G 9G 4G24G 7G26G 5G29
   3907940.75246   3031275.08646  22323968.8674   22323974.5634
        13.2504         12.2504
 -13564301.14846 -10454068.84346  21219444.6804   21219449.5554
        18.5004         18.0004
 -13256569.65346 -10059736.92146  21703711.0474   21703716.8244
        16.0004         14.5004
  -2143720.66043  -1366197.05945  24244227.5164   24244240.1054
         5.7504          6.2504
  -8642049.53547  -6581767.39946  20872736.1024   20872741.2704
        20.5004         21.5004
   7891106.63543   6779824.89845  24196944.6564   24196954.4344
         6.0004          6.0004
  -1649940.62141                  24555697.3834
         3.2504
  -1074890.27241                  24678004.1644
         2.7504
 03 11  1  0 29  0.0000000  0  8G28G 9G 4G24G 7G26G 5G29
   3985543.99846   3091745.13245  22338736.1804   22338740.6564
        13.0004         11.5004
 -13596990.78146 -10479541.21246  21213224.1724   21213229.5274
        18.7504         18.2504
 -13318785.83946 -10108216.96346  21691871.5004   21691876.7854
        16.0004         14.2504
  -2239031.13743  -1440464.60445  24226088.4384   24226103.8754
         5.0004          5.5004
  -8583597.67347  -6536220.48746  20883859.2114   20883864.1334
        20.7504         21.5004
   7995169.82943   6860912.91745  24216746.7504   24216750.0434
         5.5004          5.5004
  -1727073.64342                  24541019.2114
         4.5004
   -970060.45641                  24697953.1024
         3.2504
 03 11  1  0 29 30.0000000  0  8G28G 9G 4G24G 7G26G 5G29
   4063312.92946   3152344.27845  22353535.1254   22353539.8484
        12.5004         11.5004
 -13629189.90246 -10504631.37446  21207097.1024   21207102.5044
        18.7504         18.2504
 -13380614.61446 -10156395.14246  21680105.3284   21680111.3054
        15.2504         14.0004
  -2334349.97842  -1514738.75345  24207950.0704   24207968.0984
         4.0004          5.2504
  -8524924.03547  -6490500.75146  20895024.4454   20895029.4384
        21.0004         21.5004
   8099290.21643   6942045.58545  24236558.5864   24236574.8674
         5.0004          6.0004
  -1804242.86743                  24526334.7894
         5.5004
   -865295.30641                  24717890.1884
         2.7504
 03 11  1  0 30  0.0000000  0  8G28G 9G 4G24G 7G26G 5G29
   4141245.38746   3213070.83345  22368365.1484   22368369.7074
        12.5004         11.2504
 -13660898.89746 -10529339.62046  21201062.6484   21201067.7464
        18.2504         18.2504
 -13442055.55346 -10204271.08746  21668413.6334   21668418.6724
        16.2504         14.7504
  -2429676.70941  -1589018.98944  24189809.4694   24189821.2734
         3.2504          4.2504
  -8466032.34947  -6444611.12246  20906231.2344   20906236.2974
        21.0004         21.5004
   8203462.61843   7023218.68745  24256381.3674   24256394.7664
         5.0004          5.2504
  -1881449.90543                  24511643.0554
         6.2504
   -760599.69841  -1189537.86153  24737812.8834   24737828.1214
         2.7504          3.0004
 03 11  1  0 30 30.0000000  0  8G28G 9G 4G24G 7G26G 5G29
   4219343.75546   3273926.69245  22383226.0394   22383231.6054
        12.2504         11.7504
 -13692113.41146 -10553662.54446  21195122.5394   21195127.3914
        18.7504         18.2504
 -13503103.03046 -10251840.46146  21656797.0164   21656802.3244
        16.5004         15.0004
  -2525006.05441  -1663301.39843  24171670.8984   24171680.3834
         3.0004          3.0004
  -8406921.76647  -6398550.92146  20917479.6024   20917484.6414
        21.0004         21.5004
   8307686.40843   7104431.75945  24276215.0314   24276222.5234
         5.0004          5.2504
  -1958691.88043  -1263715.03154  24496943.7734   24496951.5004
         6.0004          4.2504
   -655973.88841  -1108011.58044  24757724.2664   24757736.2344
         3.5004          4.2504
 03 11  1  0 31  0.0000000  0  8G28G 9G 4G24G 7G26G 5G29
   4297600.62046   3334906.07045  22398118.4614   22398123.2774
        12.0004         11.0004
 -13722838.92746 -10577604.43546  21189276.5314   21189281.5594
        19.2504         18.5004
 -13563762.25946 -10299107.29046  21645252.7974   21645258.0594
        16.2504         15.2504
  -2620342.74041  -1737589.22143  24153526.6644   24153538.4694
         3.7504          3.2504
  -8347600.81847  -6352326.79346  20928767.7664   20928772.9224
        20.7504         21.2504
   8411951.18143   7185676.90545  24296056.5314   24296063.6374
         5.5004          5.5004
  -2035975.42343  -1323936.02844  24482236.7114   24482246.3594
         5.5004          4.2504
   -551428.19241                  24777619.9844
         3.2504
 03 11  1  0 31 30.0000000  0  8G28G 9G 4G24G 7G26G 5G29
   4376019.93146   3396011.98845  22413041.4384   22413046.0434
        12.2504         11.2504
 -13753069.35746 -10601160.55546  21183523.2734   21183527.9264
        19.0004         18.7504
 -13624025.94946 -10346065.91346  21633786.3674   21633791.4534
        16.7504         15.0004
  -2715679.79943  -1811877.67245  24135384.4924   24135392.6294
         5.2504          5.2504
  -8288067.28147  -6305937.01846  20940096.9384   20940101.8834
        20.7504         21.7504
   8516257.93143   7266954.78145  24315906.6174   24315913.6174
         5.7504          6.5004
  -2113295.39342  -1384185.09144  24467521.5004   24467525.0164
         4.5004          4.5004
   -446961.95141                  24797498.1954
         3.0004
 03 11  1  0 32  0.0000000  0  7G28G 9G 4G24G 7G26G 5
   4454607.16146   3457248.77845  22427996.1804   22428000.8444
        12.2504         11.2504
 -13782797.45546 -10624325.23246  21177865.9924   21177871.1954
        18.7504         18.5004
 -13683886.12946 -10392710.12146  21622394.7734   21622399.6604
        16.7504         15.2504
  -2811008.96343  -1886159.81845  24117244.5944   24117257.5704
         6.0004          6.0004
  -8228316.97747  -6259378.33946  20951467.0864   20951472.0664
        20.7504         21.0004
                                  24335763.4304
         6.0004
  -2190645.74042  -1444457.98144  24452803.9774   24452811.6684
         4.0004          4.5004
 03 11  1  0 32 30.0000000  0  8G28G 9G 4G24G 7G26G 5G29
   4533355.76845   3518611.31645  22442981.2814   22442986.4494
        11.5004         10.7504
 -13812028.14646 -10647102.32846  21172303.4924   21172308.2974
        19.2504         18.5004
 -13743346.66646 -10439042.91046  21611079.2664   21611084.1524
        16.5004         14.7504
  -2906334.17743  -1960438.94745  24099104.3594   24099119.2934
         6.5004          6.0004
  -8168357.81847  -6212656.90746  20962876.6804   20962881.5664
        20.5004         21.0004
  -1474516.71743                  24355628.0164
         5.7504
  -2268031.96442  -1504758.84145  24438075.8524   24438082.2974
         4.0004          5.0004
  -1537188.89051                  24837210.7974
         2.7504
 03 11  1  0 33  0.0000000  0  8G28G 9G 4G24G 7G26G 5G29
   4612270.18145   3580103.07445  22457998.3134   22458003.7274
        11.7504         10.5004
 -13840754.93146 -10669486.76146  21166837.0704   21166842.0044
        19.7504         18.7504
 -13802400.23246 -10485058.58346  21599841.7114   21599846.7274
        16.2504         15.5004
  -3001647.91343  -2034709.16545  24080966.7664   24080978.2544
         6.2504          6.0004
  -8108186.79747  -6165770.39746  20974327.1174   20974332.1334
        20.5004         20.7504
  -1370094.10943                  24375499.2814
         5.7504
  -2345449.10442  -1565083.73645  24423346.0164   24423356.2274
         4.2504          6.2504
  -1432968.29441                  24857045.1414
         3.7504
 03 11  1  0 33 30.0000000  0  8G28G 9G 4G24G 7G26G 5G29
   4691347.11645   3641721.46045  22473045.8444   22473050.4384
        11.2504         10.7504
 -13868979.45646 -10691479.82146  21161466.0554   21161471.0354
        19.2504         18.5004
 -13861047.53946 -10530757.69146  21588682.0634   21588686.8094
        17.0004         15.2504
  -3096950.97143  -2108971.02045  24062830.4304   24062842.2344
         6.2504          6.5004
  -8047808.69447  -6118722.52546  20985816.3054   20985821.4024
        20.5004         20.7504
  -1265641.40343  -1195044.53055  24395377.2894   24395385.5084
         6.0004          6.7504
  -2422899.24842  -1625434.40145  24408605.9844   24408617.2734
         4.7504          5.2504
  -1328837.42641                  24876859.3284
         3.2504
 03 11  1  0 34  0.0000000  0  8G28G 9G 4G24G 7G26G 5G29
   4770581.39445   3703462.42245  22488124.2344   22488130.1174
        11.7504         10.7504
 -13896704.94146 -10713084.01946  21156189.7344   21156194.8914
        19.2504         18.5004
 -13919290.64846 -10576141.85646  21577598.6174   21577603.3984
        17.0004         15.2504
  -3192245.25943  -2183226.03645  24044695.3204   24044707.8754
         5.0004          5.0004
  -7987229.83247  -6071518.22146  20997344.0864   20997349.0204
        20.5004         20.7504
  -1161166.52943  -1113635.72945  24415257.8284   24415268.4384
         5.5004          6.5004
  -2500386.79943  -1685814.02645  24393861.3674   24393872.7624
         5.5004          5.5004
  -1224804.41341                  24896657.5314
         3.2504
 03 11  1  0 34 30.0000000  0  8G28G 9G 4G24G 7G26G 5G29
   4849979.48145   3765331.08645  22503233.1564   22503238.2544
        11.7504         11.0004
 -13923923.27746 -10734293.04546  21151009.9304   21151015.1334
        19.0004         18.5004
 -13977120.62446 -10621204.07246  21566593.7274   21566598.7664
        16.7504         15.5004
  -3287521.43942  -2257466.93945  24026566.4064   24026576.8754
         4.2504          5.7504
  -7926445.41347  -6024153.74346  21008911.0864   21008916.0314
        20.5004         20.7504
  -1056666.06243  -1032206.89545  24435143.5704   24435155.5394
         5.5004          5.7504
  -2577904.77443  -1746217.61245  24379110.2114   24379122.1804
         6.0004          6.5004
  -1120865.84241                  24916436.5394
         3.2504
 03 11  1  0 35  0.0000000  0  8G28G 9G 4G24G 7G26G 5G29
   4929538.56345   3827325.15945  22518372.5634   22518377.9414
        11.5004         10.5004
 -13950635.43346 -10755107.64946  21145927.0554   21145932.1764
        19.2504         18.5004
 -14034537.53946 -10665944.43346  21555667.3754   21555672.6954
        16.5004         15.5004
  -3382779.62942  -2331693.72445  24008437.4534   24008444.4534
         4.0004          5.0004
  -7865459.38747  -5976632.17246  21020516.3524   21020521.4734
        20.5004         20.7504
   -952145.70643   -950762.69844  24455031.1724   24455044.5704
         5.0004          4.7504
  -2655454.70243  -1806646.07345  24364353.2814   24364358.8834
         6.2504          5.7504
  -1017026.73941                  24936197.2344
         3.7504
 03 11  1  0 35 30.0000000  0  8G28G 9G 4G24G 7G26G 5G29
   5009260.52045   3889446.18045  22533543.3284   22533548.7774
        11.5004         10.5004
 -13976837.82046 -10775525.02446  21140941.0634   21140945.7974
        19.5004         19.0004
 -14091536.64046 -10710359.23146  21544821.2584   21544826.4144
        17.5004         15.5004
  -3478015.28242  -2405903.04345  23990316.6804   23990328.2034
         4.5004          6.0004
  -7804271.44847  -5928953.26346  21032160.2814   21032165.2504
        20.5004         20.5004
   -847606.40843   -869303.64445  24474924.7274   24474935.4304
         5.0004          6.5004
  -2733033.67743  -1867097.10445  24349589.7194   24349594.3014
         6.2504          5.2504
   -913288.00541                  24955937.6094
         3.2504
 03 11  1  0 36  0.0000000  0  8G28G 9G 4G24G 7G26G 5G29
   5089141.13445   3951690.81145  22548744.1644   22548749.3204
        11.5004         11.2504
 -14002532.96046 -10795547.14646  21136051.2114   21136056.3794
        19.2504         19.0004
 -14148119.72446 -10754449.86546  21534053.0944   21534058.5204
        16.2504         15.0004
  -3573229.26543  -2480095.45145  23972196.5864   23972208.8244
         5.0004          6.2504
  -7742887.14047  -5881121.33646  21043841.1024   21043846.2814
        20.7504         20.5004
   -743055.42943   -787835.56545  24494822.1564   24494831.3364
         5.5004          6.5004
  -2810645.33943  -1927573.66044  24334820.0234   24334827.9384
         5.7504          4.7504
   -809656.85141                  24975656.2424
         2.2504
 03 11  1  0 36 30.0000000  0  8G28G 9G 4G24G 7G26G 5G29
   5169179.83945   4014058.62845  22563974.7344   22563980.3484
        11.2504         10.7504
 -14027719.56146 -10815173.00946  21131258.1484   21131262.6954
        19.5004         19.2504
 -14204284.37246 -10798214.43446  21523365.5944   21523370.6564
        16.2504         15.5004
  -3668419.55343  -2554269.30745  23954083.2894   23954091.2384
         5.5004          5.5004
  -7681308.14847  -5833137.70346  21055559.4454   21055564.4384
        20.5004         20.7504
   -638496.24942   -706360.95845  24514717.8914   24514725.4884
         4.7504          5.0004
  -2888289.35142  -1988075.40845  24320045.1804   24320050.6994
         4.7504          5.2504
   -706136.12941                  24995355.7424
         2.2504
 03 11  1  0 37  0.0000000  0  8G28G 9G 4G24G 7G26G 5G29
   5249372.52846   4076546.43845  22579235.5634   22579239.9574
        12.0004         11.5004
 -14052399.97646 -10834404.44146  21126561.8984   21126566.8444
        19.7504         19.2504
 -14260032.16946 -10841654.18646  21512756.9694   21512762.2664
        17.0004         15.5004
  -3763587.50043  -2628425.85245  23935971.7664   23935984.2384
         5.5004          6.0004
  -7619540.05447  -5785006.71346  21067313.3204   21067318.2894
        20.2504         20.7504
   -533935.70842   -624885.35745  24534614.6024   24534625.8204
         4.0004          5.5004
  -2965968.73242  -2048604.65544  24305264.3134   24305274.5474
         4.2504          4.5004
  -1496158.71251                  25015034.9844
         3.7504
 03 11  1  0 37 30.0000000  0  8G28G 9G 4G24G 7G26G 5G29
   5329722.08245   4139156.48245  22594524.5164   22594529.3674
        11.5004         11.0004
 -14076569.75347 -10853237.98646  21121962.4454   21121967.1804
        20.0004         19.0004
 -14315357.54646 -10884764.78146  21502229.1484   21502234.4344
        17.5004         15.7504
  -3858727.31243  -2702560.45545  23917868.2344   23917877.7664
         6.7504          5.2504
  -7557581.38047  -5736727.23046  21079103.5314   21079108.6414
        20.2504         20.5004
   -429373.99942   -543408.90643  24554513.7274   24554516.6454
         4.7504          3.5004
  -3043679.41242  -2109158.32044  24290476.3204   24290485.7704
         4.0004          4.5004
  -1392872.38342                  25034690.6414
         4.5004
