     2.10           OBSERVATION DATA    G (GPS)             RINEX VERSION / TYPE
teqc  2007Feb5      UNAVCO Archive Ops  20070321 07:51:20UTCPGM / RUN BY / DATE
Solaris 5.10|UltraSparc IIIi|cc -xarch=v9 SC5.8|=+-|*Sparc  COMMENT
BIT 2 OF LLI FLAGS DATA COLLECTED UNDER A/S CONDITION       COMMENT
GARL                                                        MARKER NAME
49721S001                                                   MARKER NUMBER
Davis, Jim          Harvard-Smithsonian CfA                 OBSERVER / AGENCY
3609A14796          TRIMBLE 4000SSI     7.19B               REC # / TYPE / VERS
0220062100          TRM29659.00     SCIS                    ANT # / TYPE
 -2384509.0615 -4239524.8940  4114370.6286                  APPROX POSITION XYZ
        0.0884        0.0000        0.0000                  ANTENNA: DELTA H/E/N
     1     1                                                WAVELENGTH FACT L1/2
     7    L1    L2    C1    P2    P1    S1    S2            # / TYPES OF OBSERV
    30.0000                                                 INTERVAL
RINEX file created by UNAVCO GPS Archive.                   COMMENT
For more information contact archive@unavco.org             COMMENT
Monument ID: 11764                                          COMMENT
UNAVCO 4-char name:   GARL                                  COMMENT
4-char name from Log or data file: GARL                     COMMENT
Monument location: 40.416527 -119.355457 1640.2266          COMMENT
Visit ID: 59421                                             COMMENT
                                                            COMMENT
GARL-BRGN-NV1996                                            COMMENT
                                                            COMMENT
End of DB comments                                          COMMENT
 SNR is mapped to RINEX snr flag value [1-9]                COMMENT
  L1: 3 -> 1; 8 -> 5; 40 -> 9                               COMMENT
  L2: 1 -> 1; 5 -> 5; 60 -> 9                               COMMENT
  2003    10    31     0     0   30.0000000     GPS         TIME OF FIRST OBS
                                                            END OF HEADER
 03 10 31  0  0 30.0000000  0  8G 9G11G 8G28G 7G 4G26G29
  -8785663.19256  -5517352.25856  22262872.4534   22262891.4064
        13.0004         13.0004
     86944.70952                  25052346.2584
         4.2504
  18436939.49055  17030862.82055  23825132.3594   23825170.8324
        10.0004          9.7504
   4721624.03356   4193674.68556  21907721.9224   21907732.0864
        18.0004         16.5004
  -6113705.33657  -5017271.64656  20725255.9304   20725270.6294
        21.5004         24.2504
  -5744712.93855  -4248178.33555  23055615.1804   23055645.9384
         9.5004          9.2504
   6775001.80755   6182822.69855  23440054.6804   23440067.5274
         9.0004          8.7504
   8690081.45453  12596177.39655  23863258.3444   23863283.1604
         5.7504          6.5004
 03 10 31  0  1  0.0000000  0  8G 9G11G 8G28G 7G 4G26G29
  -8829757.52346  -5551711.06246  22254481.0634   22254500.8954
        14.0004         13.7504
    200605.96842                  25073973.8674
         4.2504
  18581930.48545  17143842.53545  23852723.5704   23852761.5984
        10.0004         10.2504
   4804165.23546   4257992.97946  21923428.4224   21923439.0554
        18.0004         16.5004
  -6056964.01647  -4973057.16546  20736052.8834   20736066.9264
        21.2504         24.2504
  -5809919.06245  -4298986.83745  23043206.2114   23043236.3834
        10.7504          9.5004
   6884526.79245   6268166.65245  23460897.2664   23460908.6844
         9.0004          8.0004
   8808454.16643  12688415.09445  23885785.4304   23885806.0864
         6.0004          5.7504
 03 10 31  0  1 30.0000000  0  8G 9G11G 8G28G 7G 4G26G29
  -8873514.94246  -5585807.27446  22246154.0784   22246173.7344
        13.5004         13.7504
    314545.02042                  25095655.3984
         4.2504
  18727043.63645  17256917.44045  23880337.2504   23880376.7074
         8.7504          8.7504
   4886864.87046   4322434.77846  21939165.0784   21939174.9844
        18.0004         16.5004
  -5999915.73647  -4928603.60146  20746908.4844   20746923.0904
        21.2504         24.2504
  -5874941.79645  -4349652.49945  23030831.5164   23030862.0634
        11.5004          9.7504
   6994298.03345   6353702.49445  23481784.4304   23481796.7034
         8.2504          8.5004
   8926946.82943  12780746.31845  23908334.7114   23908360.6764
         6.0004          6.0004
 03 10 31  0  2  0.0000000  0  8G 9G11G 8G28G 7G 4G26G29
  -8916939.03846  -5619643.69746  22237890.4454   22237909.2344
        13.2504         12.7504
    428754.39942                  25117388.0864
         4.2504
  18872270.79643  17370081.13745  23907974.0634   23908010.8834
         6.2504          7.2504
   4969716.63546   4386995.16646  21954930.9614   21954941.2424
        17.7504         16.5004
  -5942567.76347  -4883916.46946  20757821.0634   20757835.5274
        21.2504         24.5004
  -5939783.93145  -4400177.47645  23018491.5704   23018521.2734
        11.7504         10.5004
   7104306.81045   6439423.44845  23502719.9694   23502731.2584
         9.0004          7.7504
   9045550.38343  12873163.86345  23930905.9694   23930929.0744
         6.2504          5.2504
 03 10 31  0  2 30.0000000  0  8G 9G11G 8G28G 7G 4G26G29
 -10535441.35346  -6880813.81846  21929899.1414   21929917.5784
        13.2504         12.7504
  -1032177.54942                  24839382.1254
         4.0004
  17442202.26643  16255741.72845  23635841.0864   23635880.2854
         5.0004          5.7504
   3477310.69946   3224081.85846  21670935.5944   21670945.2894
        17.7504         16.2504
  -7460332.26247  -6066589.73946  20469000.0004   20469014.1844
        21.2504         24.5004
  -7579856.64646  -5678154.93945  22706395.7504   22706423.4964
        12.5004         10.7504
   5639141.05145   5297735.68945  23223906.6804   23223917.5004
         8.2504          8.7504
   7588853.28443  11738074.48045  23653705.3134   23653727.0944
         6.2504          6.5004
 03 10 31  0  3  0.0000000  0  8G 9G11G 8G28G 7G 4G26G29
 -10578182.07346  -6914117.67746  21921765.3054   21921783.4024
        13.5004         13.0004
   -917426.26542                  24861218.0394
         4.2504
  17587660.70341  16369085.50044  23663517.2194   23663549.1724
         2.7504          4.2504
   3560475.95446   3288886.37346  21686761.1094   21686770.9104
        17.5004         15.7504
  -7402379.99647  -6021431.77546  20480027.5864   20480041.8874
        21.2504         24.2504
  -7644318.54745  -5728383.71245  22694127.3754   22694155.7074
        10.5004          9.7504
   5749624.76445   5383826.75345  23244933.4384   23244946.4144
         9.2504          8.5004
   7707678.93043  11830665.15345  23676317.1024   23676341.2624
         6.0004          6.2504
 03 10 31  0  3 30.0000000  0  8G 9G11G 8G28G 7G 4G26G29
 -10620582.81446  -6947156.53546  21913696.3914   21913714.6884
        13.7504         13.5004
   -802413.15342  -1182768.29853  24883104.9534   24883107.2974
         4.2504          3.2504
  -1522039.70851                  23691221.0554
         3.7504
   3643792.64246   3353808.83546  21702615.3134   21702624.8914
        17.7504         16.0004
  -7344133.10347  -5976044.27046  20491111.3914   20491125.7384
        21.2504         24.5004
  -7708590.91245  -5778464.83745  22681895.8284   22681924.1954
        10.0004          9.5004
   5860336.07645   5470095.18145  23265999.9224   23266013.1564
         8.2504          8.7504
   7826605.36643  11923334.38645  23698949.4064   23698974.0004
         6.2504          7.2504
 03 10 31  0  4  0.0000000  0  8G 9G11G 8G28G 7G 4G26G29
 -10662639.56346  -6979927.42046  21905692.4774   21905710.2344
        13.2504         12.7504
   -687137.43542                  24905042.0004
         4.2504
  -1376367.60143                  23718942.1174
         6.0004
   3727262.39846   3418850.50446  21718498.7344   21718508.3134
        17.5004         16.0004
  -7285590.99847  -5930426.68946  20502251.2814   20502265.3134
        21.2504         24.5004
  -7772668.80445  -5828394.38245  22669701.1484   22669729.5984
         9.5004          9.5004
   5971273.66745   5556539.92845  23287112.5944   23287124.7154
         8.7504          8.7504
   7945631.57043  12016081.29545  23721599.5394   23721624.7544
         6.2504          6.5004
 03 10 31  0  4 30.0000000  0  8G 9G11G 8G28G 7G 4G26G29
 -10704350.58446  -7012428.90746  21897754.6414   21897773.7234
        13.5004         13.5004
   -571603.20342                  24927027.3204
         4.0004
  -1230592.15445                  23746682.6954
         8.2504
   3810883.98846   3484010.39446  21734411.2734   21734420.5474
        17.5004         16.2504
  -7226756.38847  -5884581.19346  20513446.8674   20513460.6884
        21.2504         24.2504
  -7836550.22045  -5878170.91245  22657543.8204   22657572.5394
         9.5004         10.2504
   6082433.52245   5643157.93145  23308265.3054   23308278.0594
         8.5004          9.0004
   8064753.29643  12108902.56745  23744269.6644   23744295.9574
         6.2504          6.5004
 03 10 31  0  5  0.0000000  0  8G 9G11G 8G28G 7G 4G26G29
 -10745708.21546  -7044654.93646  21889884.1724   21889902.4344
        13.7504         13.5004
   -455807.98542                  24949062.4224
         4.0004
  -1084709.81844                  23774442.4064
         7.0004
   3894663.11146   3549293.02146  21750353.9694   21750363.3484
        17.5004         16.0004
  -7167625.21147  -5838504.59746  20524699.1174   20524712.8914
        21.2504         24.2504
  -7900226.42545  -5927787.56245  22645426.1254   22645455.8984
         9.2504          9.2504
   6193817.65445   5729950.63645  23329460.5864   23329472.5784
         8.2504          8.5004
   8183972.27043  12201799.61145  23766956.7194   23766981.0084
         6.7504          6.2504
 03 10 31  0  5 30.0000000  0  8G 9G11G 8G28G 7G 4G26G29
 -10786712.49146  -7076605.70346  21882080.9774   21882098.3714
        13.5004         12.7504
   -339755.53441                  24971146.7894
         3.7504
   -938725.58244  -1189677.32555  23802222.5554   23802264.4384
         7.0004          7.2504
   3978597.13646   3614696.41146  21766325.4614   21766335.0744
        17.5004         15.7504
  -7108201.59047  -5792200.17346  20536006.7894   20536020.5044
        21.2504         24.5004
  -7963696.97345  -5977243.95145  22633346.5474   22633373.0514
         9.2504          8.7504
   6305420.53945   5816913.80945  23350698.3594   23350710.3874
         8.5004          8.0004
   8303283.51843  12294768.58945  23789660.4144   23789683.6134
         6.0004          6.7504
 03 10 31  0  6  0.0000000  0  8G 9G11G 8G28G 7G 4G26G29
 -10827364.33746  -7108281.91346  21874344.4614   21874362.2304
        13.2504         13.0004
   -223451.13041                  24993277.3984
         3.7504
   -792644.60343  -1075848.20945  23830021.1804   23830061.1644
         6.7504          7.2504
   4062682.70346   3680217.90146  21782326.6094   21782336.0594
        17.0004         15.5004
  -7048490.05147  -5745671.34946  20547369.4304   20547382.9574
        21.5004         24.2504
  -8026962.00045  -6026540.30245  22621307.8054   22621335.9844
        10.7504          9.5004
   6417235.85045   5904042.51445  23371975.4454   23371987.1094
         8.2504          8.7504
   8422680.38743  12387804.24045  23812381.2814   23812406.0044
         6.0004          5.2504
 03 10 31  0  6 30.0000000  0  8G 9G11G 8G28G 7G 4G26G29
 -10867658.67846  -7139679.54346  21866676.6254   21866694.5004
        14.2504         13.2504
   -106896.15141                  25015458.8204
         3.7504
   -646466.60343   -961943.55345  23857837.7894   23857879.2854
         6.7504          7.5004
   4146922.36146   3745859.44846  21798356.6094   21798365.8134
        17.7504         15.5004
  -6988489.58247  -5698917.39646  20558786.5474   20558799.9694
        21.5004         24.2504
  -8090015.67345  -6075671.98545  22609307.2194   22609336.0554
        10.5004          9.2504
   6529263.11745   5991336.31545  23393293.5554   23393303.5084
         8.7504          8.7504
   8542162.03043  12480905.82745  23835122.1024   23835143.4614
         6.5004          6.5004
 03 10 31  0  7  0.0000000  0  8G 9G11G 8G28G 7G 4G26G29
 -10907597.65446  -7170800.35246  21859076.0394   21859093.6454
        14.7504         13.7504
      9903.05241                  25037682.3134
         3.5004
   -500198.34742   -847968.51145  23885672.5634   23885714.7034
         4.7504          5.7504
   4231311.21746   3811617.18146  21814414.9224   21814424.7344
        17.0004         15.5004
  -6928206.24547  -5651943.00446  20570258.0234   20570271.4454
        21.2504         24.2504
  -8152859.62845  -6124640.31945  22597347.7734   22597375.0514
        10.7504         10.0004
   6641494.34045   6078789.06145  23414651.5474   23414663.6334
         8.7504          8.0004
   8661721.19243  12574067.88945  23857873.5864   23857903.2304
         6.2504          5.0004
 03 10 31  0  7 30.0000000  0  8G 9G11G 8G28G 7G 4G26G29
 -10947173.50646  -7201638.23646  21851544.6484   21851562.8754
        14.0004         13.5004
    126949.86941                  25059957.1174
         3.5004
   -353836.28941   -733920.45244  23913523.7114   23913563.9534
         3.5004          4.7504
   4315855.32946   3877496.05746  21830502.8204   21830511.9184
        17.0004         15.2504
  -6867635.93047  -5604745.02046  20581783.6954   20581797.2464
        21.2504         24.2504
  -8215484.99745  -6173438.25845  22585430.4844   22585458.1374
        11.0004         10.5004
   6753932.26245   6166402.85945  23436046.1954   23436057.8244
         8.0004          8.0004
   8781360.10643  12667291.97245  23880640.7734   23880668.9654
         6.0004          5.5004
 03 10 31  0  8  0.0000000  0  8G 9G11G 8G28G 7G 4G26G29
 -10986401.91746  -7232205.33146  21844078.9694   21844097.0204
        14.0004         13.5004
    244222.94441                  25082271.3914
         3.2504
   -207401.10543   -619815.37545  23941390.5944   23941431.6564
         6.2504          7.2504
   4400535.57746   3943480.73546  21846617.0634   21846626.1374
        17.0004         15.5004
  -6806798.46747  -5557338.82446  20593360.2424   20593373.6054
        21.5004         24.0004
  -8277907.07645  -6222077.84645  22573550.8834   22573579.3914
        10.7504          9.7504
   6866555.42145   6254160.98445  23457478.5164   23457491.0824
         8.2504          8.7504
   8901057.16543  12760561.34245  23903418.1254   23903441.1484
         5.0004          6.5004
 03 10 31  0  8 30.0000000  0  8G 9G11G 8G28G 7G 4G26G29
 -11025278.38146  -7262498.25146  21836681.0944   21836697.9144
        15.0004         14.2504
    361721.74541                  25104630.5394
         3.0004
    -60892.93843   -505653.39745  23969270.0704   23969308.7774
         6.5004          6.2504
   4485354.63946   4009573.65046  21862757.3524   21862766.8484
        16.7504         15.2504
  -6745693.28747  -5509724.05246  20604988.0234   20605001.3524
        21.5004         24.2504
  -8340120.68145  -6270555.02545  22561710.7734   22561737.2304
        10.5004         10.5004
   6979362.78645   6342062.70345  23478944.0944   23478957.2934
         8.0004          8.0004
   9020811.79542  12853875.62944  23926205.5084   23926234.7774
         4.5004          4.5004
 03 10 31  0  9  0.0000000  0  8G 9G11G 8G28G 7G 4G26G29
 -11063794.45146  -7292510.43446  21829351.3134   21829368.0044
        15.5004         14.7504
    479449.96141                  25127035.5004
         3.0004
     85692.32043   -391431.41745  23997163.8204   23997202.3634
         5.7504          5.0004
   4570318.40946   4075779.30446  21878925.2344   21878934.3204
        16.5004         15.2504
  -6684315.56547  -5461896.88546  20616667.5084   20616680.7424
        21.5004         24.0004
  -8402116.70045  -6318862.69545  22549913.3054   22549938.5084
        11.2504         10.5004
   7092357.46444   6430110.32245  23500447.2734   23500459.8164
         7.7504          8.2504
   9140626.75142  12947236.73845  23949004.6174   23949032.5744
         4.5004          6.0004
 03 10 31  0  9 30.0000000  0  8G 9G11G 8G28G 7G 4G26G29
 -11101947.75046  -7322239.92246  21822091.0474   21822107.5164
        15.0004         14.2504
    597406.42641                  25149479.9924
         3.0004
    232352.28042   -277150.89843  24025073.2274   24025110.6684
         4.7504          3.2504
   4655426.91446   4142097.84946  21895120.7734   21895130.5274
        16.5004         15.5004
  -6622667.20947  -5413858.87446  20628398.7034   20628411.6804
        21.2504         24.2504
  -8463891.96645  -6366998.34745  22538157.0634   22538182.5474
        11.2504         11.2504
   7205535.90244   6518301.11745  23521984.4064   23521996.5394
         7.7504          7.7504
   9260498.72442  13040642.39845  23971819.2194   23971849.3674
         4.5004          5.2504
 03 10 31  0 10  0.0000000  0  8G 9G11G 8G28G 7G 4G26G29
 -11139738.60946  -7351687.00046  21814898.9844   21814915.4184
        14.5004         13.7504
    715585.45841                  25171967.5554
         2.7504
    379082.28843   -162816.18445  24052994.0314   24053034.0864
         6.2504          6.5004
   4740677.17246   4208526.73246  21911343.1564   21911352.5704
        16.2504         15.5004
  -6560752.03647  -5365612.96746  20640180.2894   20640193.2894
        21.2504         24.2504
  -8525445.65945  -6414961.34145  22526442.8364   22526468.2034
        11.7504         11.5004
   7318892.58744   6606630.84845  23543555.2814   23543567.7074
         7.7504          8.0004
   9380421.92843  13134087.92045  23994638.6564   23994665.2194
         5.0004          5.0004
 03 10 31  0 10 30.0000000  0  8G 9G11G 8G28G 7G 4G26G29
 -11177156.04346  -7380843.07146  21807778.7974   21807795.3594
        15.2504         14.7504
                                  25194501.2274
         2.5004
    525888.54444    -48422.00045  24080931.5864   24080969.6954
         7.0004          7.2504
   4826078.07646   4275073.23246  21927594.2584   21927603.2154
        16.2504         15.0004
  -6498563.28947  -5317153.91546  20652014.3754   20652027.2814
        21.5004         24.0004
  -8586766.74445  -6462743.14945  22514773.1254   22514798.8794
        11.2504         11.2504
   7432432.91344   6695103.65045  23565160.7734   23565173.1414
         7.7504          8.2504
   9500402.15743  13227577.82445  24017474.8594   24017503.8484
         5.5004          6.0004
 03 10 31  0 11  0.0000000  0  8G 9G11G 8G28G 7G 4G26G29
 -11214209.08846  -7409715.22046  21800727.5554   21800744.4104
        15.7504         15.0004
  -1484461.22151                  25217072.8524
         2.5004
    672757.82243     66021.40945  24108880.1644   24108918.2734
         5.5004          5.2504
   4911618.09746   4341728.07646  21943871.9774   21943881.2624
        16.0004         15.0004
  -6436113.48747  -5268491.40846  20663897.8834   20663910.7544
        21.2504         24.0004
  -8647862.93745  -6510349.67845  22503146.8284   22503171.8444
        11.7504         11.0004
   7546142.44845   6783708.29745  23586801.2894   23586814.7234
         8.0004          8.5004
   9620424.94943  13321100.94245  24040313.8524   24040341.1294
         5.2504          6.0004
 03 10 31  0 11 30.0000000  0  8G 9G11G 8G28G 7G 4G26G29
 -11250894.58346  -7438300.97746  21793746.4064   21793762.8054
        15.2504         14.7504
  -1555604.68251                  25239686.7664
         2.5004
    819688.48541    180512.63644  24136841.6564   24136876.4734
         3.5004          4.0004
   4997297.79246   4408491.69946  21960175.8674   21960184.6374
        16.0004         15.0004
  -6373403.59547  -5219626.23546  20675831.0784   20675843.5514
        21.2504         24.0004
  -8708730.52045  -6557778.07845  22491563.6804   22491588.7664
        11.7504         11.0004
   7660018.81344   6872442.95345  23608468.7274   23608485.6994
         7.5004          8.0004
   9740487.22943  13414654.71745  24063158.9224   24063183.4224
         5.0004          5.7504
 03 10 31  0 12  0.0000000  0  8G 9G11G 8G28G 7G 4G26G29
 -11287218.79546  -7466605.29946  21786833.6334   21786849.5274
        14.7504         14.2504
  -1531753.70951                  25262338.1094
         2.2504
    966669.81342                  24164809.8914
         4.0004
   5083108.66046   4475357.49746  21976505.0554   21976514.1524
        15.7504         14.7504
  -6310443.30147  -5170565.91546  20687811.5084   20687824.0864
        21.5004         24.0004
  -8769374.91745  -6605032.57645  22480022.5164   22480047.5434
        11.5004         11.2504
   7774050.31344   6961298.43345  23630170.0864   23630182.2304
         7.5004          8.5004
   9860578.21443  13508230.82545  24086014.0004   24086040.5044
         5.5004          6.2504
 03 10 31  0 12 30.0000000  0  8G 9G11G 8G28G 7G 4G26G29
 -11323174.02946  -7494622.16646  21779991.5704   21780007.5124
        15.2504         14.7504
                                  25285030.5704
         2.5004
   1113705.02643                  24192790.4304
         5.0004
   5169056.00346   4542329.67946  21992859.9224   21992868.9614
        15.7504         14.2504
  -6247229.05647  -5121307.66446  20699840.3444   20699852.7344
        21.2504         23.7504
  -8829787.92245  -6652106.80545  22468525.6414   22468551.1024
        11.7504         11.0004
   7888239.13744   7050276.47345  23651900.6804   23651914.7344
         7.7504          7.2504
   9980699.77443  13601830.71745  24108873.8834   24108904.9694
         5.0004          5.7504
 03 10 31  0 13  0.0000000  0  8G 9G11G 8G28G 7G 4G26G29
 -11358757.09446  -7522348.99446  21773220.1884   21773236.0234
        15.7504         15.5004
                                  25307757.0634
         2.0004
   1260792.81643  -1212320.31155  24220779.9534   24220817.6524
         5.5004          5.0004
   5255140.34746   4609408.58146  22009241.5164   22009250.2504
        16.0004         14.7504
  -6183761.74747  -5071852.27446  20711917.8914   20711930.1884
        21.2504         23.7504
  -8889965.50145  -6698997.55945  22457072.9844   22457097.8594
        11.2504         10.5004
   8002582.86144   7139375.18245  23673658.9844   23673671.0474
         7.5004          7.5004
  10100849.60342  13695452.62344  24131737.6334   24131768.9534
         4.5004          4.7504
 03 10 31  0 13 30.0000000  0  8G 9G11G 8G28G 7G 4G26G29
 -11393965.57546  -7549783.96046  21766520.0004   21766536.7274
        15.2504         15.7504
                                  25330526.2034
         2.2504
   1407930.78843  -1097667.62745  24248779.7584   24248820.3164
         5.0004          6.0004
   5341361.95646   4676594.43946  22025648.4454   22025657.4264
        15.7504         14.7504
  -6120042.62847  -5022200.75346  20724042.6564   20724055.0594
        21.0004         23.5004
  -8949904.36346  -6745702.31845  22445666.9224   22445691.5984
        12.0004         11.2504
   8117078.58044   7228592.43045  23695447.5474   23695460.6764
         7.7504          7.0004
  10221024.64142  13789094.32243  24154605.8134   24154631.9884
         4.5004          3.7504
 03 10 31  0 14  0.0000000  0  8G 9G11G 8G28G 7G 4G26G29
 -11428805.12146  -7576931.34446  21759890.1644   21759906.9614
        14.7504         15.0004
                                  25353331.0084
         2.0004
   1555108.90043   -982983.60645  24276786.3444   24276826.5274
         5.2504          5.7504
   5427712.71546   4743880.95146  22042080.3524   22042089.1684
        15.7504         14.5004
  -6056081.17547  -4972360.31046  20736214.0314   20736226.3874
        21.2504         24.0004
  -9009609.78846  -6792225.14345  22434305.0784   22434329.3794
        12.5004         11.7504
   8231715.05544   7317919.37845  23717261.0474   23717273.2274
         7.5004          7.5004
  10341213.94742  13882747.08545  24177480.0634   24177514.5394
         4.7504          5.5004
 03 10 31  0 14 30.0000000  0  8G 9G11G 8G28G 7G 4G26G29
 -11463267.62846  -7603784.86846  21753331.5084   21753347.5434
        15.0004         14.5004
                                  25376171.1094
         1.7504
   1702330.42343   -868265.77345  24304802.5474   24304845.4964
         6.0004          5.7504
   5514198.20946   4811272.43546  22058537.8984   22058547.1724
        15.7504         14.7504
  -5991873.32447  -4922327.82646  20748432.1804   20748444.6524
        21.0004         24.0004
  -9069072.94646  -6838559.25045  22422988.6954   22423012.7624
        13.0004         11.7504
   8346494.85844   7407357.96745  23739102.6174   23739119.5204
         7.2504          6.7504
  10461420.00942  13976412.86044  24200357.3914   24200389.2854
         4.2504          4.5004
 03 10 31  0 15  0.0000000  0  7G 9G 8G28G 7G 4G26G29
 -11497354.51646  -7630345.73146  21746845.0784   21746861.1254
        15.5004         14.5004
   1849589.79043   -753518.24445  24332825.2734   24332861.9654
         6.7504          5.5004
   5600815.01746   4878766.37446  22075020.1724   22075028.2504
        15.7504         14.2504
  -5927424.09147  -4872107.24846  20760696.1644   20760708.2734
        21.0004         23.5004
  -9128293.93646  -6884704.57245  22411718.4304   22411742.4264
        12.7504         11.7504
   8461411.12544   7496902.97045  23760972.6024   23760985.2034
         7.5004          7.2504
                                  24223231.8914
         4.0004
 03 10 31  0 15 30.0000000  0  7G 9G 8G28G 7G 4G26G29
 -11531055.70146  -7656605.92146  21740431.4144   21740447.6604
        15.7504         15.5004
   1996892.46443   -638737.16945  24360855.4614   24360888.7154
         6.5004          5.0004
   5687570.46846   4946368.31546  22091528.9224   22091536.9654
        15.5004         14.2504
  -5862727.36647  -4821693.86946  20773007.3444   20773019.4534
        21.0004         23.7504
  -9187262.50546  -6930653.19345  22400496.4454   22400521.1334
        12.2504         11.2504
   8576468.71444   7586558.05445  23782867.4534   23782880.3954
         7.5004          7.2504
  -1459200.99342                  24246113.7504
         4.5004
 03 10 31  0 16  0.0000000  0  7G 9G 8G28G 7G 4G26G29
 -11564377.29846  -7682570.36446  21734090.2114   21734106.3984
        15.7504         15.7504
   2144228.15143   -523930.20144  24388893.2274   24388932.3444
         5.7504          4.0004
   5774456.49246   5014071.98146  22108062.5234   22108070.7194
        15.7504         14.2504
  -5797792.91047  -4771095.25146  20785363.4454   20785375.4964
        21.2504         23.2504
  -9245983.62446  -6976409.05746  22389322.0784   22389345.8874
        12.7504         12.2504
   8691655.96043   7676314.13745  23804784.8914   23804798.5594
         6.7504          7.0004
  -1338966.65642                  24268994.8204
         4.5004
 03 10 31  0 16 30.0000000  0  7G 9G 8G28G 7G 4G26G29
 -11597315.62446  -7708236.19046  21727822.1094   21727838.7544
        15.7504         16.0004
   2291596.05742   -409098.14545  24416936.4144   24416971.7464
         4.7504          5.0004
   5861474.41546   5081878.45646  22124621.2344   22124629.7114
        15.2504         14.0004
  -5732620.52347  -4720311.18646  20797765.2504   20797777.3594
        21.0004         23.5004
  -9304452.82345  -7021968.57045  22378193.5234   22378217.3674
        11.7504         11.5004
   8806971.31844   7766170.05445  23826730.6254   23826742.9454
         7.2504          7.5004
  -1218730.63542  -1190127.33955  24291874.8364   24291910.1454
         4.2504          5.5004
 03 10 31  0 17  0.0000000  0  8G 9G 8G28G 7G 4G26G 5G29
 -11629866.02646  -7733599.71246  21721627.3284   21721642.9654
        15.7504         15.5004
   2438996.21342   -294240.93844  24444986.2424   24445023.5904
         4.2504          4.7504
   5948626.38046   5149789.38246  22141205.6024   22141213.6094
        15.2504         14.0004
  -5667209.69647  -4669341.30046  20810212.2974   20810224.1844
        21.0004         23.5004
  -9362664.87746  -7067327.81246  22367116.8914   22367139.9024
        13.0004         12.2504
   8922413.93843   7856125.17045  23848699.0704   23848712.0354
         6.7504          7.2504
  -1585545.10051                  25273406.8284
         3.2504
  -1098493.89842  -1096437.73545  24314755.8054   24314789.2814
         4.7504          6.2504
 03 10 31  0 17 30.0000000  0  8G 9G 8G28G 7G 4G26G 5G29
 -11662029.60046  -7758661.77046  21715506.5004   21715522.3714
        15.7504         15.5004
   2586422.98542   -179363.18443  24473040.2344   24473078.0394
         4.0004          3.5004
   6035908.49246   5217801.47946  22157814.8754   22157822.9184
        15.2504         14.2504
  -5601565.78647  -4618189.92946  20822703.7584   20822715.2704
        21.0004         23.2504
  -9420619.84846  -7112486.63446  22356087.5234   22356110.3484
        13.0004         12.2504
   9037977.16743   7946174.27845  23870687.7344   23870697.3714
         6.7504          7.2504
  -1646357.82441                  25261837.7504
         2.7504
   -978262.35442  -1002752.00045  24337635.6024   24337670.6994
         4.5004          5.7504
 03 10 31  0 18  0.0000000  0  8G 9G 8G28G 7G 4G26G 5G29
 -11693801.47146  -7783418.52746  21709460.1884   21709475.8134
        16.0004         16.0004
   2733876.89542    -64463.99444  24501100.7344   24501139.1484
         4.0004          4.2504
   6123323.96846   5285917.52646  22174449.6334   22174457.2774
        15.7504         13.7504
  -5535687.14947  -4566855.66146  20835239.5394   20835251.2384
        21.0004         23.2504
  -9478312.41246  -7157441.02746  22345108.6644   22345131.2194
        13.2504         12.2504
   9153660.57743   8036317.03145  23892702.0864   23892717.3594
         6.2504          6.7504
                                  25250243.2034
         2.7504
   -858036.74343   -909070.99045  24360517.6334   24360549.6334
         5.5004          5.2504
 03 10 31  0 18 30.0000000  0  8G 9G 8G28G 7G 4G26G 5G29
 -11725179.97946  -7807868.81546  21703488.7274   21703503.9774
        16.5004         16.5004
   2881355.63042     50454.46545  24529164.1724   24529205.2584
         4.0004          5.5004
   6210872.40246   5354137.22546  22191109.4064   22191117.8134
        15.2504         14.0004
  -5469575.71147  -4515339.99446  20847819.7894   20847831.2774
        21.0004         23.5004
  -9535739.69446  -7202188.75446  22334179.6564   22334201.5434
        13.0004         12.5004
   9269460.62144   8126550.53645  23914740.0164   23914751.1764
         7.0004          6.2504
                                  25238637.6484
         2.7504
   -737820.53542   -815397.20745  24383391.2814   24383424.1134
         4.0004          5.7504
 03 10 31  0 19  0.0000000  0  8G 9G 8G28G 7G 4G26G 5G29
 -11756164.77546  -7832012.42346  21697592.4384   21697607.8524
        16.2504         16.2504
   3028854.64242    165388.72745  24557231.7584   24557270.9924
         4.5004          5.0004
   6298552.03346   5422459.18346  22207793.4064   22207801.6024
        15.0004         13.7504
  -5403234.89647  -4463645.59346  20860444.2584   20860455.7464
        21.0004         23.2504
  -9592900.79646  -7246728.98646  22323300.6174   22323323.0904
        12.7504         12.2504
   9385372.19143   8216871.01445  23936795.6724   23936808.8484
         6.5004          7.0004
  -1622256.84551                  25227014.0864
         3.7504
   -617618.96743   -721734.98445  24406267.1334   24406294.5044
         5.0004          5.0004
 03 10 31  0 19 30.0000000  0  8G 9G 8G28G 7G 4G26G 5G29
 -11786746.95046  -7855842.25846  21691772.1334   21691787.7344
        16.2504         16.2504
   3176378.30643    280342.23645  24585305.4774   24585344.6524
         5.0004          5.7504
   6386368.95246   5490888.18046  22224505.0784   22224512.9104
        15.2504         13.5004
  -5336659.67447  -4411768.46446  20873112.6334   20873123.9804
        21.0004         23.2504
  -9649785.87346  -7291054.15746  22312475.6724   22312497.6764
        13.0004         12.5004
   9501398.69143   8307280.98045  23958876.3914   23958892.9414
         6.7504          7.2504
  -1683424.19642                  25215375.5314
         4.2504
   -497428.15442   -628081.04945  24429140.1414   24429172.6334
         4.5004          5.2504
 03 10 31  0 20  0.0000000  0  8G 9G 8G28G 7G 4G26G 5G29
 -11816921.84046  -7879354.67046  21686029.8524   21686045.2194
        16.7504         16.2504
   3323927.21043    395315.39345  24613383.0474   24613423.6884
         5.7504          6.2504
   6474325.46646   5559425.78646  22241242.3054   22241249.5274
        15.0004         13.7504
  -5269849.04947  -4359707.86346  20885826.2664   20885837.3794
        21.0004         23.0004
  -9706389.83946  -7335160.35846  22301704.3674   22301726.8524
        13.5004         13.0004
   9617539.45843   8397779.94645  23980977.3054   23980988.5944
         6.5004          6.7504
  -1744672.95242                  25203719.4774
         4.7504
   -377248.83842   -534436.40745  24452011.0634   24452044.5044
         4.7504          5.5004
 03 10 31  0 20 30.0000000  0  8G 9G 8G28G 7G 4G26G 5G29
 -11846692.39346  -7902552.09946  21680364.2894   21680378.7074
        16.7504         16.2504
   3471493.76543    510302.36745  24641463.2584   24641506.6054
         6.0004          5.7504
   6562416.84546   5628068.60546  22258005.2344   22258012.9614
        14.7504         13.0004
  -5202810.05147  -4307469.40246  20898582.6804   20898593.9924
        21.0004         23.2504
  -9762714.63846  -7379049.02946  22290985.0944   22291006.7234
        13.2504         12.2504
   9733786.43844   8488361.70945  24003099.6334   24003114.0164
         7.2504          7.2504
  -1806007.03543                  25192049.5704
         5.2504
   -257089.27742   -440806.97244  24474876.1884   24474911.9414
         4.0004          4.7504
 03 10 31  0 21  0.0000000  0  8G 9G 8G28G 7G 4G26G 5G29
 -11876048.01746  -7925426.29446  21674778.2194   21674793.0594
        16.7504         16.2504
   3619084.15743    625307.96445  24669548.4144   24669591.4224
         5.7504          5.5004
   6650651.31646   5696822.97546  22274795.6954   22274803.7384
        14.5004         13.7504
  -5135535.24047  -4255047.13846  20911384.5944   20911396.1414
        20.7504         23.0004
  -9818748.66546  -7422711.09346  22280321.3054   22280342.3594
        13.2504         12.5004
   9850144.76743   8579030.31945  24025240.3134   24025255.0704
         6.5004          6.5004
  -1867417.82743  -1272263.05755  25180363.7974   25180367.2774
         5.7504          5.7504
   -136943.89442   -347188.66844  24497738.3204   24497768.3984
         4.0004          4.7504
 03 10 31  0 21 30.0000000  0  8G 9G 8G28G 7G 4G26G 5G29
 -11904985.08446  -7947974.25046  21669271.2664   21669285.8364
        17.0004         16.5004
   3766697.61443    740331.39645  24697638.8444   24697675.1604
         5.5004          6.0004
   6739030.05746   5765689.73646  22291613.6954   22291621.4694
        14.5004         13.2504
  -5068025.00547  -4202441.32146  20924231.2974   20924242.2584
        21.0004         23.2504
  -9874487.84846  -7466143.46146  22269714.1254   22269735.3094
        13.2504         13.0004
   9966612.79044   8669784.31945  24047405.2664   24047420.4344
         7.2504          7.5004
  -1928903.25843  -1320173.78045  25168662.6484   25168667.2894
         5.5004          6.5004
    -16814.30941   -253582.70144  24520601.8284   24520630.8874
         3.7504          4.0004
 03 10 31  0 22  0.0000000  0  8G 9G 8G28G 7G 4G26G 5G29
 -11933497.61546  -7970191.48046  21663845.2894   21663859.7544
        17.0004         16.7504
   3914335.83243    855374.13045  24725735.0164   24725775.8914
         5.0004          5.2504
   6827556.80846   5834671.80346  22308459.6254   22308467.0824
        14.2504         12.7504
  -5000276.89947  -4149650.15946  20937122.5474   20937133.6484
        21.0004         23.2504
  -9929925.07346  -7509340.47646  22259164.6334   22259185.6294
        14.2504         13.0004
  10083191.08343   8760624.26445  24069588.0784   24069603.5044
         6.2504          7.2504
  -1990459.23643  -1368139.47345  25156950.3984   25156958.9454
         5.0004          6.0004
    103300.21241   -159988.42644  24543457.4304   24543495.8324
         3.0004          4.2504
 03 10 31  0 22 30.0000000  0  8G 9G 8G28G 7G 4G26G 5G29
 -11961585.89746  -7992078.16246  21658499.8914   21658514.4964
        17.2504         17.2504
   4061994.48542    970432.79844  24753831.9304   24753874.7384
         4.2504          4.0004
   6916229.19146   5903767.36546  22325333.0164   22325341.5744
        14.2504         13.0004
  -4932295.04247  -4096676.91346  20950059.1564   20950069.9064
        21.2504         23.0004
  -9985059.76146  -7552301.81546  22248671.7814   22248692.7304
        13.5004         12.5004
  10199874.33344   8851546.02445  24091795.5634   24091811.0944
         7.2504          7.0004
  -2052087.22142  -1416161.19745  25145223.4694   25145230.1844
         4.7504          5.7504
    223394.34842    -66410.06443  24566317.7504   24566364.5314
         4.2504          3.5004
 03 10 31  0 23  0.0000000  0  8G 9G 8G28G 7G 4G26G 5G29
 -11989245.95246  -8013631.12046  21653236.2424   21653250.3794
        17.2504         17.0004
   4209672.87541   1085506.81142  24781934.3204   24781975.0554
         3.7504          2.7504
   7005048.87446   5972977.65046  22342234.8204   22342242.3594
        14.0004         12.5004
  -4864079.17447  -4043521.29346  20963039.7114   20963050.1914
        21.0004         23.0004
 -10039887.45946  -7595023.94146  22238237.8284   22238259.0234
        13.5004         12.7504
  10316661.08943   8942548.43445  24114015.1954   24114030.2934
         6.2504          6.7504
  -2113784.92442  -1464237.33243  25133482.5864   25133490.8874
         4.2504          3.7504
    343466.77442     27151.54245  24589165.0474   24589201.0704
         4.2504          5.0004
 03 10 31  0 23 30.0000000  0  8G 9G 8G28G 7G 4G26G 5G29
 -12016465.26746  -8034840.61746  21648056.1414   21648070.1134
        16.7504         16.7504
   4357379.31541   1200602.73944  24810042.7344   24810086.5044
         3.2504          4.0004
   7094026.67146   6042311.21946  22359166.7344   22359174.3794
        14.0004         12.5004
  -4795620.26347  -3990176.25646  20976066.9224   20976077.6024
        21.0004         23.0004
 -10094394.15846  -7637495.90646  22227864.6174   22227886.0944
        13.5004         13.0004
  10433558.75843   9033637.27545  24136261.5314   24136275.2464
         6.5004          7.0004
  -2175541.61641  -1512359.27443  25121727.8914   25121736.0864
         3.2504          3.7504
    463524.97642    120701.97143  24612010.7584   24612042.8754
         4.0004          3.0004
 03 10 31  0 24  0.0000000  0  8G 9G 8G28G 7G 4G26G 5G29
 -12043240.93146  -8055704.57046  21642960.7664   21642975.2544
        17.0004         17.0004
   4505112.77441                  24838152.6174
         2.5004
   7183163.61546   6111768.94346  22376128.7114   22376136.2734
        14.0004         12.7504
  -4726918.76547  -3936642.20646  20989139.9614   20989150.7114
        20.7504         23.0004
 -10148576.46746  -7679715.08246  22217553.6024   22217574.5634
        13.5004         13.0004
  10550565.03044   9124810.69045  24158529.1804   24158542.5554
         7.0004          7.0004
  -1585725.29851  -1560525.86143  25109965.6564   25109968.0474
         3.0004          3.0004
    583566.86142    214239.40845  24634855.8674   24634890.9774
         4.0004          5.5004
 03 10 31  0 24 30.0000000  0  8G 9G 8G28G 7G 4G26G 5G29
 -12069576.62146  -8076225.69346  21637949.3204   21637964.0204
        17.5004         17.5004
  -1550797.96751                  24866271.0554
         2.0004
   7272453.29946   6181345.73946  22393119.4924   22393127.7704
        14.0004         12.7504
  -4657982.35347  -3882925.11046  21002257.9064   21002268.4804
        21.2504         22.7504
 -10202437.39246  -7721683.77846  22207303.8134   22207324.1724
        14.2504         13.2504
  10667670.75443   9216061.53845  24180811.4844   24180826.3134
         6.5004          6.0004
  -1647601.74441                  25098190.2424
         2.5004
    703583.59441    307757.38044  24657694.3834   24657733.9694
         3.2504          4.2504
 03 10 31  0 25  0.0000000  0  8G 9G 8G28G 7G 4G26G 5G29
 -12095463.41946  -8096396.96346  21633022.7114   21633037.0474
        17.5004         17.2504
                                  24894389.0784
         1.2504
   7361902.16146   6251046.49146  22410140.2034   22410146.8364
        13.5004         12.7504
  -4588805.69247  -3829020.70246  21015420.9614   21015430.9384
        21.0004         22.7504
 -10255967.35646  -7763394.70346  22197117.3284   22197136.6804
        15.2504         13.7504
  10784879.61143   9307392.86745  24203115.6644   24203129.8134
         6.7504          6.7504
                                  25086411.3834
         2.0004
    823578.86842    401258.77444  24680531.4534   24680564.8244
         4.0004          4.5004
 03 10 31  0 25 30.0000000  0  6G 9G28G 7G 4G26G29
 -12120893.94646  -8116212.62546  21628183.1094   21628197.1764
        17.0004         17.2504
   7451514.90646   6320874.68846  22427192.9304   22427200.0704
        13.5004         12.7504
  -4519385.27547  -3774926.41246  21028631.1804   21028641.2034
        20.7504         22.5004
 -10309157.95946  -7804841.24646  22186994.6094   22187014.3134
        14.7504         13.5004
  10902193.79543   9398806.18045  24225440.8054   24225455.4104
         6.5004          7.5004
    943554.26642    494744.43045  24703363.5004   24703398.4694
         4.5004          5.2504
 03 10 31  0 26  0.0000000  0  6G 9G28G 7G 4G26G29
 -12145873.10446  -8135676.59046  21623429.8524   21623443.3554
        17.5004         17.2504
   7541285.29846   6390825.71246  22444276.3914   22444284.1174
        14.0004         13.0004
  -4449729.76047  -3720649.11646  21041885.9304   21041896.1764
        21.0004         22.2504
 -10362013.28646  -7846026.47846  22176935.2114   22176954.8674
        14.0004         13.5004
  11019603.22943   9490293.74145  24247783.2894   24247797.3444
         6.2504          7.0004
   1063500.63842    588207.44944  24726189.2584   24726226.3484
         4.2504          4.2504
 03 10 31  0 26 30.0000000  0  7G 9G28G 7G 4G26G 5G29
 -12170393.86246  -8154783.60746  21618763.6094   21618777.3364
        18.0004         17.2504
   7631218.96646   6460904.19546  22461389.8914   22461397.6054
        14.2504         12.7504
  -4379834.83447  -3666185.10146  21055186.3444   21055196.6024
        21.0004         22.5004
 -10414525.01246  -7886943.91846  22166943.0634   22166962.5664
        15.2504         13.2504
  11137109.87143   9581856.91345  24270145.6024   24270160.2424
         6.0004          6.7504
  -1598189.18052                  25050993.2584
         4.0004
   1183420.21342    681649.68244  24749011.7034   24749053.8794
         4.0004          4.5004
 03 10 31  0 27  0.0000000  0  7G 9G28G 7G 4G26G 5G29
 -12194452.17246  -8173530.14546  21614185.5234   21614199.4734
        18.0004         17.7504
   7721316.85646   6531110.73146  22478534.4304   22478541.3714
        13.5004         12.2504
  -4309700.51847  -3611534.37946  21068531.7274   21068541.5744
        21.0004         22.5004
 -10466689.00546  -7927590.43846  22157015.9774   22157035.3284
        15.2504         13.5004
  11254712.08543   9673494.62645  24292525.3054   24292539.9804
         6.2504          6.2504
  -1660324.50343                  25039168.3984
         5.5004
   1303310.94942    775069.28845  24771827.7664   24771862.1724
         4.5004          5.0004
 03 10 31  0 27 30.0000000  0  7G 9G28G 7G 4G26G 5G29
 -12218041.68446  -8191911.33246  21609696.1954   21609710.4844
        17.5004         17.5004
   7811582.87146   6601448.03646  22495711.7974   22495719.5234
        13.7504         13.0004
  -4239324.10247  -3556694.94846  21081923.4614   21081933.1564
        21.2504         22.2504
 -10518498.13646  -7967960.54846  22147156.0474   22147175.1644
        14.5004         13.0004
  11372411.50343   9765207.99945  24314921.5474   24314941.8134
         6.0004          5.7504
  -1722502.08343                  25027337.9534
         6.2504
   1423174.98342    868468.22444  24794637.4614   24794675.0314
         4.0004          4.2504
 03 10 31  0 28  0.0000000  0  7G 9G28G 7G 4G26G 5G29
 -13816582.04846  -9437526.93946  21305503.5554   21305517.7034
        18.0004         17.7504
   6326599.26246   5444317.92746  22213128.5474   22213135.5354
        13.7504         12.7504
  -5744125.95347  -4729267.37046  20795568.9844   20795578.5044
        21.2504         22.5004
 -12145371.94246  -9235653.87546  21837571.6954   21837591.0474
        14.2504         12.7504
   9914788.02143   8629397.11445  24037546.3054   24037563.1374
         6.2504          6.0004
  -3360145.08643                  24715704.0314
         6.7504
    -32407.65241   -265753.83543  24517648.4774   24517692.6564
         3.0004          3.2504
 03 10 31  0 28 30.0000000  0  7G 9G28G 7G 4G26G 5G29
 -13839232.26846  -9455176.27046  21301193.4454   21301207.1134
        18.0004         18.0004
   6417197.96646   5514914.34546  22230368.4844   22230375.5084
        13.5004         12.7504
  -5673274.58947  -4674058.21846  20809051.4224   20809061.1764
        21.0004         22.2504
 -12196465.81146  -9275466.54146  21827848.2344   21827866.9184
        14.5004         13.2504
  10032668.29743   8721251.53245  24059976.6174   24059992.1604
         6.0004          6.0004
  -3422410.79144  -2476228.43455  24703854.8984   24703861.2154
         7.2504          6.5004
     87389.41041   -172407.19945  24540447.9454   24540489.8524
         3.5004          5.0004
 03 10 31  0 29  0.0000000  0  7G 9G28G 7G 4G26G 5G29
 -13861413.42646  -9472460.18046  21296972.5554   21296986.0824
        18.2504         18.0004
   6507960.43446   5585638.76346  22247639.8594   22247647.7384
        13.5004         12.5004
  -5602190.90647  -4618667.87646  20822577.6954   20822587.2034
        20.7504         22.2504
 -12247201.41846  -9315000.10546  21818193.7664   21818211.5944
        15.0004         13.2504
  10150630.98643   8813170.10645  24082424.4454   24082441.7464
         5.5004          5.2504
  -3484722.62543  -2524783.15145  24691996.2734   24692002.6134
         6.7504          6.5004
    207145.23141    -79092.93744  24563240.6174   24563277.3914
         3.2504          4.0004
 03 10 31  0 29 30.0000000  0  8G 9G24G28G 7G 4G26G 5G29
 -13883120.81246  -9489374.97646  21292841.6954   21292855.4344
        18.2504         18.0004
  -3164281.29851                  24383309.3364
         3.0004
   6598889.00146   5656492.70146  22264942.9144   22264949.1844
        13.5004         12.0004
  -5530873.40247  -4563095.18946  20836148.6174   20836158.6174
        21.0004         22.2504
 -12297573.17246  -9354250.22046  21808607.1484   21808626.2074
        14.2504         13.7504
  10268675.66843   8905152.47145  24104890.1484   24104905.3284
         6.0004          6.2504
  -3547077.11443  -2573371.20345  24680131.6174   24680139.0164
         6.0004          6.7504
    326859.50241     14189.02744  24586022.9304   24586061.9064
         3.5004          4.5004
 03 10 31  0 30  0.0000000  0  8G 9G24G28G 7G 4G26G 5G29
 -13904345.47946  -9505913.54946  21288802.9384   21288816.8164
        18.2504         17.7504
  -3244951.40042                  24367957.9924
         4.0004
   6689989.13846   5727480.14046  22282278.3364   22282283.9844
        13.5004         12.2504
  -5459317.67847  -4507336.81546  20849764.5084   20849773.3014
        20.5004         21.7504
 -12347571.70746  -9393209.50546  21799092.1414   21799109.6294
        14.5004         13.2504
  10386805.71243   8997201.45545  24127368.8204   24127383.0394
         6.0004          6.5004
  -3609467.69942  -2621987.42945  24668259.4454   24668266.7624
         4.7504          6.0004
    446535.92741    107441.46244  24608796.4844   24608841.0864
         3.0004          4.0004
 03 10 31  0 30 30.0000000  0  8G 9G24G28G 7G 4G26G 5G29
 -13925086.62246  -9522075.21946  21284855.5944   21284868.9924
        18.5004         18.2504
  -3325641.80942                  24352600.2194
         4.7504
   6781259.80146   5798600.37546  22299646.0944   22299651.7304
        13.2504         12.0004
  -5387526.89847  -4451395.56446  20863425.9304   20863435.1094
        20.5004         22.0004
 -12397195.23346  -9431876.52546  21789649.3594   21789667.1764
        15.7504         13.7504
  10505016.78443   9089313.47245  24149866.9384   24149883.8524
         6.5004          6.0004
  -3671894.66342  -2670631.89944  24656379.9144   24656388.4144
         4.0004          4.7504
    566170.19441    200660.88142  24631563.2974   24631602.6844
         3.7504          2.5004
 03 10 31  0 31  0.0000000  0  8G 9G24G28G 7G 4G26G 5G29
 -13945342.30146  -9537858.69646  21281001.1884   21281014.5984
        18.5004         18.2504
  -3406349.28043                  24337240.8674
         5.2504
   6872702.16146   5869854.70146  22317046.9144   22317053.5704
        13.5004         12.2504
  -5315501.42147  -4395271.36846  20877131.1564   20877140.2424
        20.5004         21.7504
 -12446440.60946  -9470248.96746  21780277.7344   21780295.4694
        16.2504         13.7504
  10623306.41743   9181486.83245  24172373.8594   24172389.5314
         6.0004          5.0004
  -3734356.68241  -2719303.75845  24644493.7034   24644502.8244
         3.2504          5.7504
  -3083082.53252                  24654322.5474
         4.0004
 03 10 31  0 31 30.0000000  0  8G 9G24G28G 7G 4G26G 5G29
 -13965115.26246  -9553265.98746  21277238.1254   21277251.6294
        18.7504         18.2504
  -3487075.60443                  24321877.1724
         5.5004
   6964310.12146   5941237.59346  22334479.2424   22334485.8164
        13.2504         12.2504
  -5243247.75647  -4338969.32346  20890880.1884   20890889.1564
        20.5004         21.7504
 -12495309.85146  -9508328.34146  21770977.4304   21770995.0594
        15.0004         14.0004
  10741666.60443   9273715.00645  24194897.1024   24194912.4344
         5.7504          6.7504
  -3796858.39041  -2768006.60445  24632599.1954   24632606.9924
         2.2504          5.7504
  -2963544.50742                  24677070.6334
         4.0004
 03 10 31  0 32  0.0000000  0  8G 9G24G28G 7G 4G26G 5G29
 -13984398.78446  -9568291.77346  21273568.4144   21273581.7544
        18.5004         18.2504
  -3567813.87343  -2516011.95355  24306510.8754   24306559.4774
         6.2504          6.0004
   7056088.75746   6012753.56746  22351943.5704   22351950.4304
        13.0004         12.0004
  -5170763.19947  -4282487.47446  20904673.2034   20904682.0904
        20.5004         21.7504
 -12543795.67246  -9546108.91746  21761750.4384   21761767.5514
        15.2504         14.2504
  10860098.59243   9365999.15745  24217433.0784   24217448.0354
         5.5004          5.7504
                                  24620699.8054
         1.5004
  -2844057.01641                  24699805.7894
         2.7504
 03 10 31  0 32 30.0000000  0  7G 9G24G28G 7G 4G26G29
 -14003184.02946  -9582929.18046  21269993.0474   21270006.5274
        18.2504         18.2504
  -3648554.60943  -2578924.26145  24291144.6334   24291191.8364
         6.0004          5.2504
   7148045.03146   6084407.90946  22369442.4304   22369449.1094
        13.0004         12.2504
  -5098042.10947  -4225821.31746  20918511.6254   20918520.2424
        20.2504         21.7504
 -12591888.35146  -9583583.12046  21752598.6024   21752615.1644
        16.0004         14.5004
  10978606.52343   9458342.53045  24239986.6954   24240002.0744
         5.7504          5.0004
  -2724616.20541                  24722541.2504
         3.2504
 03 10 31  0 33  0.0000000  0  8G 9G24G28G 7G 4G26G 5G29
 -14021477.60546  -9597183.52546  21266511.4924   21266525.1254
        18.5004         18.5004
  -3729302.90043  -2641842.35145  24275776.4064   24275822.0044
         5.0004          5.0004
   7240170.87246   6156194.46245  22386973.4844   22386980.2934
        12.7504         11.7504
  -5025093.98447  -4168978.31546  20932392.7664   20932401.4654
        20.5004         21.7504
 -12639593.02946  -9620754.94446  21743520.0084   21743536.8634
        15.7504         14.2504
  11097179.14043   9550736.31745  24262550.7114   24262566.9574
         5.7504          6.0004
  -3173794.52252                  24596883.6644
         4.2504
  -2605232.99541                  24745259.3134
         3.2504
 03 10 31  0 33 30.0000000  0  8G 9G24G28G 7G 4G26G 5G29
 -14039276.59846  -9611052.58246  21263124.3754   21263137.6334
        18.7504         18.5004
  -3810055.03842  -2704763.60945  24260408.3364   24260451.6954
         4.2504          5.2504
   7332467.13746   6228113.79045  22404536.2894   22404542.0784
        12.2504         11.2504
  -4951919.00747  -4111958.45746  20946317.3284   20946326.1094
        20.5004         21.5004
 -12686906.00746  -9657621.60546  21734515.8524   21734532.4614
        15.0004         14.2504
  11215814.51543   9643178.94445  24285126.6024   24285140.9384
         5.7504          5.7504
  -3236422.58543                  24584966.0474
         5.2504
  -2485909.04141                  24767967.3834
         3.5004
 03 10 31  0 34  0.0000000  0  8G 9G24G28G 7G 4G26G 5G29
 -14056575.38346  -9624531.79946  21259832.1094   21259845.0514
        18.2504         18.2504
  -3890804.90741  -2767683.08143  24245040.4534   24245086.4264
         3.5004          3.2504
   7424936.96246   6300168.24245  22422132.9614   22422138.7854
        12.7504         11.0004
  -4878515.57247  -4054760.67746  20960285.1564   20960293.5164
        20.5004         21.2504
 -12733821.17846  -9694178.38346  21725588.2114   21725605.3364
        15.7504         14.5004
  11334512.84543   9735670.61445  24307712.7894   24307730.8874
         5.5004          5.5004
  -3299078.73943  -2456827.18454  24573043.5784   24573047.1764
         6.2504          4.5004
  -2366643.81441                  24790665.2584
         3.2504
 03 10 31  0 34 30.0000000  0  8G 9G24G28G 7G 4G26G 5G29
 -14073370.75346  -9637618.65146  21256635.6724   21256648.6954
        18.5004         18.5004
  -3971548.12541                  24229672.7814
         3.0004
   7517582.24546   6372359.42745  22439762.8594   22439770.2704
        12.5004         11.7504
  -4804883.42047  -3997384.56646  20974296.7814   20974305.2934
        20.5004         21.5004
 -12780334.20046  -9730421.82046  21716736.8364   21716753.5514
        16.5004         14.5004
  11453272.62643   9828209.98445  24330315.1484   24330332.4844
         5.5004          5.7504
  -3361760.43243  -2505670.57943  24561115.7974   24561128.8554
         6.2504          3.7504
  -2247438.85041                  24813347.2114
         2.7504
 03 10 31  0 35  0.0000000  0  8G 9G24G28G 7G 4G26G 5G29
 -14089663.34746  -9650313.79846  21253535.4384   21253547.9224
        19.0004         18.7504
  -4052284.10641                  24214306.4454
         3.7504
   7610400.54846   6444685.47345  22457424.8524   22457431.5664
        12.0004         11.2504
  -4731026.16547  -3939832.98546  20988350.8284   20988359.1414
        20.5004         21.5004
 -12826444.33146  -9766351.30746  21707961.9224   21707979.0124
        16.2504         15.0004
  11572088.74943   9920793.30445  24352925.7274   24352941.8204
         5.5004          5.5004
  -3424469.36143  -2554535.19145  24549184.1024   24549188.6954
         5.7504          5.0004
  -2128299.10841                  24836020.7274
         3.2504
 03 10 31  0 35 30.0000000  0  8G 9G24G28G 7G 4G26G 5G29
 -14105449.92946  -9662614.84646  21250531.0864   21250544.0044
        19.2504         18.7504
  -4133008.93643                  24198944.0634
         5.2504
   7703393.11246   6517147.36845  22475121.4454   22475126.6024
        12.2504         10.7504
  -4656944.16047  -3882106.27246  21002447.9304   21002455.7854
        20.5004         21.2504
 -12872147.63846  -9801963.72146  21699264.6724   21699281.0474
        16.5004         15.0004
  11690959.28543  10013419.04845  24375544.1334   24375564.6334
         5.2504          5.0004
  -3487203.74242  -2603419.72444  24537246.1024   24537249.6294
         4.7504          4.7504
  -2009225.83441                  24858682.7814
         2.7504
 03 10 31  0 36  0.0000000  0  8G 9G24G28G 7G 4G26G 5G29
 -14120729.50046  -9674520.89046  21247623.0554   21247635.9024
        18.7504         18.5004
  -4213720.51043                  24183583.9924
         6.2504
   7796559.29446   6589744.62045  22492849.7584   22492856.2384
        12.0004         11.0004
  -4582639.43847  -3824205.85946  21016587.2504   21016595.0234
        20.5004         21.2504
 -12917442.15446  -9837257.59846  21690644.6954   21690660.5084
        16.7504         15.0004
  11809880.43443  10106084.03345  24398175.9844   24398190.4614
         5.5004          5.5004
  -3549963.31242  -2652323.74445  24525302.1094   24525310.9614
         4.2504          5.0004
  -1890223.00841                  24881328.1484
         2.2504
 03 10 31  0 36 30.0000000  0  7G 9G24G28G 7G 4G26G 5
 -14135497.20846  -9686027.88546  21244813.0554   21244826.2894
        18.7504         18.7504
  -4294413.59543  -2474059.80055  24168227.6644   24168269.4304
         6.5004          5.0004
   7889901.51345   6662479.18545  22510612.1484   22510618.4414
        11.5004         11.0004
  -4508111.17347  -3766131.35346  21030768.8204   21030776.5354
        20.5004         21.2504
 -12962322.72246  -9872228.92946  21682103.7344   21682119.5594
        17.0004         15.2504
  -3083421.14953                  24420815.2504
         5.2504
  -3612744.03242  -2701244.07044  24513356.7584   24513362.4774
         4.0004          4.7504
 03 10 31  0 37  0.0000000  0  8G 9G24G28G 7G 4G26G 5G29
 -14149760.99346  -9697142.06246  21242098.3524   21242111.2464
        19.2504         19.0004
  -4375094.93243  -2536926.25845  24152871.7894   24152913.2624
         6.2504          6.2504
   7983409.96545   6735343.30445  22528405.8914   22528412.7234
        11.7504         10.5004
  -4433370.59647  -3707891.47846  21044991.3674   21044999.0594
        20.2504         21.0004
 -13006796.30846  -9906883.14146  21673640.6954   21673656.7074
        16.7504         15.2504
  -2964412.04943                  24443461.9304
         5.0004
  -3675555.58342  -2750188.40045  24501404.6254   24501410.3444
         4.2504          5.2504
  -3131042.47451                  24926581.4694
         3.7504
 03 10 31  0 37 30.0000000  0  8G 9G24G28G 7G 4G26G 5G29
 -14163519.63046  -9707862.65146  21239479.8674   21239492.1884
        19.2504         19.0004
  -4455761.90843  -2599781.40445  24137520.5004   24137561.0004
         6.5004          6.2504
   8077084.44145   6808336.79645  22546231.3364   22546237.5944
        11.2504         10.5004
  -4358419.00147  -3649487.19046  21059253.8754   21059261.4844
        20.2504         20.7504
 -13050859.81946  -9941217.68546  21665255.3754   21665272.0314
        17.0004         15.0004
  -2845368.25443  -2455203.52755  24466115.6564   24466132.7934
         5.2504          5.5004
  -3738396.84342  -2799155.93245  24489447.1414   24489453.4454
         4.5004          5.0004
  -3012278.98542                  24949182.9534
         4.2504
 03 10 31  0 38  0.0000000  0  8G 9G24G28G 7G 4G26G 5G29
 -14176763.71646  -9718182.35046  21236958.9064   21236971.5084
