     2.10           OBSERVATION DATA    G (GPS)             RINEX VERSION / TYPE
teqc  2000Jul20     CORS-ADM Account    20041212 05:50:01UTCPGM / RUN BY / DATE
Solaris 2.7|Ultra 2|cc SC5.0|=+-|*Sparc                     COMMENT
teqc  2000Jul20     CORS/NGS/NOAA       20041212 05:49:55UTCCOMMENT
BIT 2 OF LLI FLAGS DATA COLLECTED UNDER A/S CONDITION       COMMENT
htv1                                                        MARKER NAME
Jason Cockrell      U.S. Coast Guard                        OBSERVER / AGENCY
2199912124          ASHTECH Z-XII3      RD00                REC # / TYPE / VERS
16020               ASH700829.3     SNOW                    ANT # / TYPE
   350722.8656 -5130731.1515  3760329.7009                  APPROX POSITION XYZ
        0.0000        0.0000        0.0000                  ANTENNA: DELTA H/E/N
     1     1                                                WAVELENGTH FACT L1/2
     7    C1    L1    L2    P1    P2    D1    D2            # / TYPES OF OBSERV
    30.0000                                                 INTERVAL
 SNR is mapped to RINEX snr flag value [1-9]                COMMENT
  L1: 1 -> 1;  90 -> 5; 210 -> 9                            COMMENT
  L2: 1 -> 1; 150 -> 5; 250 -> 9                            COMMENT
Forced Modulo Decimation to 30 seconds                      COMMENT
  2004    12    11     0     0    0.0000000     GPS         TIME OF FIRST OBS
                                                            END OF HEADER
 04 12 11  0  0  0.0000000  0  9G17G 4G 5G 2G30G10G24G13G 7
  21895452.3634  -28722212.38449 -21788999.77347  21895450.3814   21895456.6774
      2134.3864       1663.1594
  21810390.2474  -30058646.64049 -23394803.27247  21810388.3444   21810392.2614
     -1356.7794      -1057.2304
  21731550.3284  -23895143.83349 -18284144.11547  21731548.1284   21731553.2134
       700.3484        545.7274
  20560464.1334  -39173198.27149 -30181281.58547  20560462.2224   20560464.0894
       985.4804        767.9064
  22722385.4034  -15998275.93348 -11838085.52846  22722383.9174   22722387.8754
      2607.1814       2031.5694
  21697690.6084  -23662432.20549 -16380744.20947  21697688.1874   21697694.0014
      3713.1774       2893.3844
  21099049.5724  -33241704.87449 -25544133.20847  21099047.5304   21099052.2814
      -290.8224       -226.6144
  24391233.5844   -4297398.91147  -3168753.14946  24391231.6434   24391235.0564
      1262.7184        983.9324
  23522846.7944  -29596419.77747 -22461526.92345  23522844.1994   23522850.7764
     -1818.6344      -1417.1164
 04 12 11  0  0 30.0000000  0  9G17G 4G 5G 2G30G10G24G13G 7
  21883288.0574  -28786137.59849 -21838811.61447  21883285.6234   21883291.9884
      2127.1254       1657.5004
  21818147.1864  -30017879.59049 -23363036.74147  21818145.6174   21818149.9694
     -1361.0464      -1060.5554
  21727608.3944  -23915862.29849 -18300288.38447  21727606.0994   21727611.1384
       680.7704        530.4694
  20554867.6744  -39202609.90449 -30204199.72947  20554865.6674   20554867.1724
       975.1444        759.8524
  22707550.8104  -16076230.85648 -11898829.59146  22707549.4764   22707554.4884
      2589.7354       2017.9744
  21676531.4664  -23773622.12149 -16467385.65647  21676529.4034   21676535.3274
      3699.3834       2882.6344
  21100727.8854  -33232883.10549 -25537259.10147  21100726.1364   21100731.0564
      -297.4934       -231.8134
  24384073.7554   -4335021.10847  -3198069.13546  24384072.1924   24384076.5134
      1245.2804        970.3534
  23533251.6864  -29541740.17147 -22418919.50245  23533249.4664   23533255.9514
     -1826.7264      -1423.4214
 04 12 11  0  1  0.0000000  0  9G17G 4G 5G 2G30G10G24G13G 7
  21871162.2354  -28849856.83549 -21888462.95547  21871160.0584   21871165.9694
      2121.3174       1652.9734
  21825926.7384  -29976997.10149 -23331180.26947  21825925.1674   21825929.2654
     -1363.8504      -1062.7414
  21723774.7934  -23936004.77049 -18315983.82847  21723772.5834   21723778.6094
       662.5534        516.2754
  20549327.8484  -39231723.06449 -30226885.29947  20549325.6684   20549326.9994
       966.2144        752.8944
  22692813.3404  -16153672.42948 -11959173.65346  22692812.1344   22692817.3194
      2573.6074       2005.4064
  21655450.4814  -23884408.78549 -16553712.88447  21655447.5214   21655453.0004
      3686.9164       2872.9204
  21102442.5074  -33223873.25649 -25530238.44147  21102440.6904   21102445.5854
      -302.6754       -235.8514
  24377012.9444   -4372129.13547  -3226984.44446  24377011.3324   24377013.9464
      1229.1254        957.7584
  23543700.4044  -29486830.24647 -22376132.60045  23543698.6624   23543703.6424
     -1833.3544      -1428.5874
 04 12 11  0  1 30.0000000  0  9G17G 4G 5G 2G30G10G24G13G 7
  21859075.2634  -28913377.86349 -21937959.85147  21859072.7504   21859078.3854
      2114.2574       1647.4734
  21833727.2564  -29936007.15649 -23299240.05847  21833725.2744   21833729.2724
     -1367.9044      -1065.8994
  21720049.6224  -23955578.50749 -18331236.10847  21720047.9214   21720053.2044
       643.1844        501.1824
  20543842.5754  -39260545.53849 -30249344.35547  20543840.7584   20543842.4314
       956.0864        745.0024
  22678173.0134  -16230606.04348 -12019121.90046  22678171.9924   22678176.6594
      2556.2124       1991.8544
  21634443.9464  -23994796.94449 -16639729.58747  21634441.3914   21634447.0394
      3673.1084       2862.1614
  21104191.2874  -33214683.49149 -25523077.58247  21104189.1934   21104194.2514
      -309.1074       -240.8624
  24370047.4754   -4408728.76347  -3255503.62046  24370046.1124   24370050.2764
      1211.7034        944.1854
  23554192.5804  -29431697.77647 -22333172.25645  23554190.0904   23554194.8874
     -1841.2324      -1434.7254
 04 12 11  0  2  0.0000000  0  9G17G 4G 5G 2G30G10G24G13G 7
  21847025.4744  -28976696.00449 -21987298.65047  21847023.4994   21847028.8744
      2107.1134       1641.9074
  21841547.6094  -29894906.17449 -23267213.32547  21841546.5534   21841549.9974
     -1371.9504      -1069.0524
  21716434.9934  -23974579.34449 -18346041.95947  21716432.6554   21716437.2794
       623.7354        486.0274
  20538414.4294  -39289072.99349 -30271573.53447  20538412.3404   20538413.8504
       945.9104        737.0744
  22663632.0864  -16307025.21148 -12078669.29746  22663630.1554   22663634.4124
      2538.6204       1978.1434
  21613514.3764  -24104779.60749 -16725430.32147  21613512.2624   21613518.0384
      3659.2144       2851.3354
  21105975.2034  -33205310.11549 -25515773.64947  21105973.0874   21105978.2374
      -315.6044       -245.9254
  24363180.9304   -4444813.73248  -3283621.74946  24363179.8974   24363182.9214
      1194.1574        930.5164
  23564727.9924  -29376338.42547 -22290035.10545  23564725.1304   23564730.3664
     -1849.0994      -1440.8604
 04 12 11  0  2 30.0000000  0  9G17G 4G 5G 2G30G10G24G13G 7
  21835019.1454  -29039792.37148 -22036464.63347  21835016.9404   21835021.8224
      2099.5014       1635.9754
  21849394.1074  -29853675.84349 -23235085.78847  21849392.2354   21849395.7834
     -1376.4124      -1072.5294
  21712931.1354  -23992988.18649 -18360386.52447  21712928.9864   21712935.1274
       603.7474        470.4534
  20533045.7434  -39317287.04249 -30293558.50847  20533043.3954   20533044.8684
       935.2514        728.7674
  22649191.9044  -16382908.87948 -12137799.40446  22649190.5004   22649195.1274
      2520.5364       1964.0534
  21592666.9274  -24214335.11349 -16810798.20347  21592664.4964   21592670.1814
      3644.7154       2840.0374
  21107797.1604  -33195735.19449 -25508312.67147  21107795.1284   21107800.4554
      -322.5034       -251.3024
  24356416.8514   -4480363.57948  -3311322.91246  24356415.3314   24356418.1894
      1176.1064        916.4474
  23575308.3344  -29320733.80147 -22246706.86345  23575306.0164   23575312.5714
     -1857.5224      -1447.4204
 04 12 11  0  3  0.0000000  0  9G17G 4G 5G 2G30G10G24G13G 7
  21823055.7584  -29102659.71248 -22085452.17047  21823053.6174   21823058.3474
      2094.0814       1631.7524
  21857265.5854  -29812309.99349 -23202852.66047  21857264.2124   21857267.5884
     -1378.7584      -1074.3564
  21709542.4424  -24010797.99849 -18374264.32147  21709540.0984   21709545.6244
       585.9894        456.6164
  20527737.2494  -39345180.46849 -30315293.64647  20527735.2624   20527736.6294
       926.7364        722.1324
  22634856.1464  -16458247.61048 -12196504.88746  22634854.5654   22634858.9124
      2504.5154       1951.5714
  21571902.4484  -24323453.62449 -16895825.57547  21571900.0574   21571905.3894
      3632.2894       2830.3534
  21109658.5464  -33185952.08249 -25500689.46647  21109656.7294   21109661.9044
      -327.2474       -254.9974
  24349754.6894   -4515369.29048  -3338600.06146  24349753.3274   24349757.4654
      1160.0584        903.9434
  23585936.1594  -29264876.75647 -22203181.98445  23585934.2954   23585942.7524
     -1863.7074      -1452.2344
 04 12 11  0  3 30.0000000  0  9G17G 4G 5G 2G30G10G24G13G 7
  21811128.6524  -29165336.84748 -22134291.49447  21811126.3224   21811131.8184
      2084.8974       1624.5964
  21865156.0264  -29770847.91049 -23170544.53747  21865154.3324   21865158.5384
     -1384.7964      -1079.0624
  21706259.6304  -24028047.72649 -18387705.68547  21706257.5244   21706263.1704
       564.5334        439.8964
  20522482.7834  -39372792.46549 -30336809.48147  20522481.0514   20522482.5304
       914.5344        712.6224
  22620615.7904  -16533078.21848 -12254814.44546  22620614.6074   22620618.3434
      2484.7164       1936.1434
  21551214.2894  -24432171.13149 -16980540.48547  21551212.0684   21551216.9814
      3616.0624       2817.7104
  21111552.1014  -33176000.02849 -25492934.61947  21111550.4274   21111555.5264
      -335.6984       -261.5834
  24343190.0404   -4549868.47247  -3365482.52346  24343188.7384   24343191.6304
      1140.3734        888.6014
  23596607.7154  -29208806.38347 -22159490.83845  23596605.4124   23596610.0824
     -1873.6974      -1460.0264
 04 12 11  0  4  0.0000000  0  9G17G 4G 5G 2G30G10G24G13G 7
  21799248.1154  -29227770.08849 -22182940.76847  21799245.8634   21799251.6374
      2078.5374       1619.6394
  21873073.9024  -29729237.01749 -23138120.47247  21873072.3734   21873076.8104
     -1387.9444      -1081.5154
  21703094.1814  -24044684.01949 -18400669.04247  21703091.9544   21703097.4124
       545.8134        425.3084
  20517292.0664  -39400069.68949 -30358064.45747  20517290.1794   20517291.9424
       905.1614        705.3204
  22606482.7094  -16607345.11548 -12312684.75346  22606481.6374   22606485.5894
      2467.6414       1922.8384
  21530613.0004  -24540431.45449 -17064899.14647  21530610.4444   21530615.8834
      3602.5184       2807.1554
  21113488.2704  -33165826.33349 -25485007.06647  21113486.4604   21113491.0204
      -341.3264       -265.9684
  24336731.3784   -4583805.73947  -3391927.10746  24336729.8814   24336734.9734
      1123.3004        875.2964
  23607328.5534  -29152469.61947 -22115592.06845  23607326.0814   23607329.8284
     -1880.8334      -1465.5824
 04 12 11  0  4 30.0000000  0  9G17G 4G 5G 2G30G10G24G13G 7
  21787407.4754  -29289991.62049 -22231425.05947  21787405.2204   21787411.0734
      2068.0874       1611.4964
  21881014.6404  -29687509.88249 -23105605.83047  21881013.0074   21881017.3164
     -1395.2414      -1087.2024
  21700038.4004  -24060738.95649 -18413179.39447  21700036.5234   21700042.1734
       523.0604        407.5794
  20512159.1544  -39427044.32449 -30379083.65547  20512157.1414   20512158.6484
       891.6614        694.7994
  22592451.7494  -16681078.18948 -12370139.07246  22592450.5964   22592454.9014
      2446.4704       1906.3394
  21510092.4644  -24648264.11449 -17148924.54947  21510090.1714   21510096.2724
      3584.8214       2793.3664
  21115460.6024  -33155464.01849 -25476932.53147  21115458.4334   21115462.4734
      -350.9874       -273.4974
  24330374.2514   -4617212.07047  -3417957.99845  24330372.5854   24330377.1984
      1102.2494        858.8964
  23618093.2144  -29095898.68347 -22071510.82145  23618090.3864   23618097.0924
     -1891.9674      -1474.2584
 04 12 11  0  5  0.0000000  0  9G17G 4G 5G 2G30G10G24G13G 7
  21775608.3904  -29351995.55249 -22279739.79547  21775606.1524   21775611.8594
      2064.0684       1608.3644
  21888978.3124  -29645661.42649 -23072996.65247  21888976.1754   21888980.7254
     -1396.0424      -1087.8254
  21697096.1764  -24076207.12449 -18425232.53247  21697093.7604   21697098.8144
       506.7034        394.8344
  20507084.5584  -39453711.10249 -30399862.96447  20507082.7054   20507083.9714
       884.6344        689.3264
  22578524.2864  -16754269.98248 -12427171.61246  22578522.7884   22578526.9354
      2431.5954       1894.7524
  21489656.0704  -24755660.66749 -17232610.13847  21489653.5524   21489659.1404
      3573.4794       2784.5284
  21117469.2604  -33144907.91449 -25468706.98647  21117467.2164   21117471.1264
      -354.1834       -275.9864
  24324120.0024   -4650080.24947  -3443569.56345  24324118.6384   24324122.4514
      1087.4804        847.3884
  23628902.5634  -29039088.12647 -22027242.93345  23628900.4904   23628908.1784
     -1896.7214      -1477.9564
 04 12 11  0  5 30.0000000  0  9G17G 4G 5G 2G30G10G24G13G 7
  21763839.6834  -29413841.15349 -22327931.16247  21763837.5004   21763843.6044
      2058.0764       1603.6964
  21896952.5074  -29603751.81949 -23040339.82147  21896951.0674   21896955.3794
     -1398.7494      -1089.9354
  21694252.9014  -24091147.76549 -18436874.60747  21694250.5114   21694255.7454
       488.4704        380.6254
  20502057.3804  -39480129.28749 -30420448.56647  20502055.4444   20502056.6924
       875.7014        682.3644
  22564687.4624  -16826977.34448 -12483826.67646  22564686.3424   22564691.2514
      2414.7334       1881.6074
  21469291.1774  -24862677.71749 -17316000.01447  21469288.9584   21469294.2574
      3560.1084       2774.1084
  21119503.2634  -33134218.15349 -25460377.29847  21119501.3544   21119504.9094
      -359.3014       -279.9744
  24317956.0894   -4682467.66947  -3468806.49745  24317954.4304   24317958.7024
      1070.8044        834.3924
  23639748.0404  -28982097.45047 -21982834.71545  23639746.1144   23639752.4114
     -1903.4684      -1483.2204
 04 12 11  0  6  0.0000000  0  9G17G 4G 5G 2G30G10G24G13G 7
  21752116.1884  -29475446.37449 -22375935.21447  21752114.6004   21752120.8354
      2049.1304       1596.7224
  21904954.7334  -29561699.72349 -23007571.95747  21904953.3064   21904957.2104
     -1404.3954      -1094.3334
  21691524.9214  -24105479.23949 -18448042.00647  21691523.0584   21691528.3804
       467.2264        364.0734
  20497092.5854  -39506217.35149 -30440776.93547  20497090.7024   20497092.3744
       863.7414        673.0444
  22550959.9084  -16899116.60948 -12540039.07646  22550958.8814   22550963.8094
      2394.8724       1866.1354
  21449014.9294  -24969230.87249 -17399028.41947  21449012.5374   21449017.6084
      3543.6664       2761.2974
  21121578.0684  -33123313.33049 -25451880.01947  21121576.3224   21121580.1994
      -367.4414       -286.3194
  24311901.7574   -4714290.77647  -3493603.71445  24311900.1074   24311903.2174
      1050.9874        818.9524
  23650643.4434  -28924845.11447 -21938222.56145  23650641.5544   23650646.5044
     -1913.0244      -1490.6664
 04 12 11  0  6 30.0000000  0  9G17G 4G 5G 2G30G10G24G13G 7
  21740431.5984  -29536854.96249 -22423786.04247  21740428.8884   21740434.8694
      2043.8954       1592.6464
  21912976.2964  -29519549.40048 -22974727.55347  21912974.5754   21912978.2194
     -1406.3444      -1095.8524
  21688906.3374  -24119245.35849 -18458768.86847  21688903.9254   21688909.0854
       449.7084        350.4214
  20492183.1344  -39532019.14449 -30460882.23647  20492181.0444   20492182.3424
       855.5284        666.6464
  22537332.7434  -16970729.40948 -12595841.24146  22537331.5854   22537336.6904
      2378.5684       1853.4294
  21428819.0814  -25075361.15849 -17481727.32247  21428816.5154   21428821.5544
      3530.8474       2751.3084
  21123685.8374  -33112237.92449 -25443249.83147  21123684.0774   21123687.7444
      -371.7814       -289.6994
  24305944.9424   -4745591.99147  -3517994.25145  24305942.8704   24305946.9104
      1034.9354        806.4414
  23661579.9054  -28867375.15447 -21893440.78845  23661577.6684   23661582.0204
     -1919.0244      -1495.3384
 04 12 11  0  7  0.0000000  0  9G17G 4G 5G 2G30G10G24G13G 7
  21728789.4394  -29598030.21149 -22471455.05147  21728787.3234   21728793.6154
      2035.0704       1585.7694
  21921022.4114  -29477264.71948 -22941778.44247  21921021.1184   21921024.2504
     -1411.8824      -1100.1664
  21686400.8814  -24132409.95249 -18469027.01447  21686398.6224   21686403.4044
       428.6004        333.9744
  20487334.8704  -39557497.98849 -30480735.87647  20487332.7604   20487333.8144
       843.6944        657.4234
  22523813.9414  -17041777.09348 -12651203.06846  22523812.0844   22523815.8254
      2358.6434       1837.9034
  21408711.0124  -25181029.18949 -17564066.01647  21408708.5604   21408714.1094
      3514.3104       2738.4224
  21125832.7524  -33100955.73749 -25434458.51147  21125830.8944   21125834.8744
      -379.7294       -295.8934
  24300095.4544   -4776333.08447  -3541948.34745  24300093.4654   24300095.9294
      1015.1544        791.0274
  23672562.3484  -28809651.14947 -21848461.05645  23672561.5924   23672568.7664
     -1928.5904      -1502.7954
 04 12 11  0  7 30.0000000  0  9G17G 4G 5G 2G30G10G24G13G 7
  21717182.2414  -29659024.03649 -22518982.68247  21717180.3644   21717186.9054
      2028.6064       1580.7324
  21929084.6474  -29434898.69348 -22908765.94347  21929083.1174   21929086.7644
     -1414.9524      -1102.5594
  21683999.9744  -24145025.38649 -18478857.23947  21683997.8354   21684002.9884
       409.8904        319.3954
  20482536.9364  -39582706.26649 -30500378.65647  20482535.4374   20482537.2004
       834.2904        650.0954
  22510391.7524  -17112309.87648 -12706163.66646  22510390.4274   22510394.4834
      2341.0394       1824.1884
  21388681.9044  -25286284.63449 -17646083.21747  21388679.3174   21388685.1234
      3500.1294       2727.3734
  21128009.2704  -33089519.76349 -25425547.35847  21128007.2694   21128011.5074
      -385.2234       -300.1744
  24294341.7444   -4806565.04647  -3565505.69745  24294339.5284   24294344.2494
       997.8404        777.5364
  23683586.6694  -28751725.43247 -21803324.18945  23683584.8204   23683590.5244
     -1935.5974      -1508.2574
 04 12 11  0  8  0.0000000  0  9G17G 4G 5G 2G30G10G24G13G 7
  21705618.3364  -29719796.15148 -22566337.55447  21705615.8554   21705622.0814
      2022.1144       1575.6734
  21937170.1734  -29392411.56049 -22875659.08247  21937168.1714   21937172.3874
     -1418.0984      -1105.0124
  21681711.4004  -24157051.60649 -18488228.33747  21681709.2944   21681715.1144
       391.1734        304.8114
  20477799.6294  -39607604.25849 -30519779.68247  20477797.7454   20477799.3234
       824.8904        642.7724
  22497075.1834  -17182285.43248 -12760690.07846  22497074.1544   22497077.9374
      2323.3694       1810.4174
  21368738.7544  -25391084.65249 -17727745.53347  21368736.2374   21368742.5244
      3485.8144       2716.2184
  21130221.7904  -33077890.48949 -25416485.58447  21130220.1604   21130224.9234
      -390.7604       -304.4874
  24288693.3354   -4836246.09547  -3588633.78145  24288691.4354   24288695.0594
       980.2894        763.8634
  23694655.9144  -28693558.03047 -21757999.00145  23694654.1754   23694660.4624
     -1942.8254      -1513.8914
 04 12 11  0  8 30.0000000  0  9G17G 4G 5G 2G30G10G24G13G 7
  21694095.5174  -29780344.16648 -22613517.81647  21694093.7864   21694099.9054
      2014.4304       1569.6864
  21945278.3794  -29349801.29149 -22842456.27847  21945276.8624   21945281.0774
     -1422.4034      -1108.3674
  21679536.0934  -24168486.55949 -18497138.71147  21679533.5734   21679538.3974
       371.2524        289.2884
  20473121.2604  -39632189.66549 -30538937.15147  20473119.2854   20473120.8184
       814.2374        634.4694
  22483866.1384  -17251699.62848 -12814779.05746  22483864.7164   22483869.4084
      2304.3784       1795.6184
  21348883.6384  -25495424.37249 -17809049.18547  21348880.9684   21348886.7774
      3470.2544       2704.0944
  21132472.1414  -33066066.25549 -25407271.89747  21132470.1864   21132475.2774
      -397.4394       -309.6924
  24283150.5684   -4865372.53547  -3611329.69345  24283148.3814   24283153.5304
       961.5294        749.2434
  23705771.0604  -28635147.31647 -21712484.22245  23705769.2424   23705774.7524
     -1951.0824      -1520.3224
 04 12 11  0  9  0.0000000  0  9G17G 4G 5G 2G30G10G24G13G 7
  21682613.2984  -29840688.85048 -22660539.63947  21682611.0084   21682616.5094
      2009.0874       1565.5214
  21953405.5784  -29307089.67249 -22809174.50147  21953404.3884   21953409.0584
     -1424.3174      -1109.8584
  21677467.7914  -24179351.37149 -18505604.81547  21677465.7344   21677470.8944
       353.6684        275.5864
  20468498.2114  -39656483.54449 -30557867.44547  20468496.3144   20468497.6454
       805.9314        627.9984
  22470760.8684  -17320571.14748 -12868445.16246  22470759.2204   22470764.3184
      2287.6754       1782.6034
  21329111.9814  -25599321.95249 -17890008.32047  21329109.8934   21329115.1814
      3456.8574       2693.6544
  21134755.0814  -33054068.42049 -25397922.94447  21134753.2534   21134758.5814
      -401.8044       -313.0944
  24277709.8094   -4893963.72747  -3633608.52745  24277707.9404   24277711.3724
       945.1174        736.4514
  23716928.5254  -28576514.13747 -21666796.06445  23716927.0654   23716932.4544
     -1957.0554      -1524.9744
 04 12 11  0  9 30.0000000  0  9G17G 4G 5G 2G30G10G24G13G 7
  21671161.5824  -29900868.30848 -22707432.70747  21671159.3774   21671164.7824
      2003.6874       1561.3154
  21961545.3644  -29264315.44249 -22775843.93747  21961543.7614   21961548.5414
     -1426.3204      -1111.4184
  21675501.9854  -24189684.70049 -18513656.78347  21675499.7634   21675505.0594
       336.0474        261.8554
  20463923.0574  -39680524.30649 -30576600.49547  20463921.3844   20463922.8834
       797.6174        621.5204
  22457750.8084  -17388936.62648 -12921716.96246  22457749.5344   22457754.5584
      2270.8764       1769.5144
  21309418.8394  -25702813.05649 -17970650.71647  21309416.3424   21309421.4624
      3443.3904       2683.1614
  21137063.8134  -33041935.72949 -25388468.90447  21137061.9524   21137067.5204
      -406.1954       -316.5154
  24272363.0064   -4922056.60947  -3655499.05245  24272361.6964   24272365.8364
       928.5574        723.5504
  23728121.5584  -28517696.89347 -21620964.47445  23728119.2114   23728125.3784
     -1963.0894      -1529.6814
 04 12 11  0 10  0.0000000  0  9G17G 4G 5G 2G30G10G24G13G 7
  21659749.3284  -29960839.86148 -22754163.77147  21659747.2604   21659752.2644
      1995.2074       1554.7074
  21969704.6094  -29221436.50349 -22742431.78247  21969703.3224   21969707.8054
     -1431.3674      -1115.3514
  21673644.5334  -24199444.18449 -18521261.59247  21673642.2784   21673647.7854
       315.3854        245.7564
  20459404.6264  -39704269.26849 -30595103.06847  20459402.7594   20459403.9964
       786.1804        612.6074
  22444845.9014  -17456751.30348 -12974559.55946  22444844.9314   22444849.7914
      2250.9424       1753.9814
  21289811.5564  -25805852.50449 -18050941.17047  21289808.7994   21289814.0074
      3426.7094       2670.1614
  21139406.1034  -33029626.00049 -25378876.91747  21139404.4474   21139409.8144
      -413.6434       -322.3194
  24267121.6014   -4949606.82747  -3676966.73945  24267120.4044   24267122.7684
       908.9064        708.2384
  23739355.8544  -28458653.50247 -21574956.70045  23739353.3824   23739360.2464
     -1972.3084      -1536.8604
 04 12 11  0 10 30.0000000  0  9G17G 4G 5G 2G30G10G24G13G 7
  21648379.2194  -30020591.17648 -22800723.21647  21648376.9014   21648381.9044
      1989.0174       1549.8844
  21977886.7264  -29178440.75748 -22708928.60947  21977885.1394   21977889.3874
     -1434.0974      -1117.4784
  21671899.0744  -24208617.99549 -18528410.03647  21671896.5604   21671901.7674
       297.0174        231.4424
  20454944.5274  -39727706.62149 -30613365.93847  20454942.9374   20454944.3364
       777.0874        605.5234
  22432049.0254  -17524001.10748 -13026961.99646  22432047.8254   22432051.5974
      2233.1954       1740.1504
  21270292.0644  -25908425.51849 -18130868.17547  21270289.5264   21270295.1254
      3412.2834       2658.9224
  21141784.6684  -33017127.72249 -25369138.00347  21141782.9704   21141788.1414
      -418.7804       -326.3214
  24261983.5284   -4976601.23447  -3698001.33145  24261982.1064   24261987.2404
       891.5104        694.6844
  23750638.0464  -28399371.95747 -21528763.34845  23750637.1044   23750641.1314
     -1978.9834      -1542.0634
 04 12 11  0 11  0.0000000  0  9G17G 4G 5G 2G30G10G24G13G 7
  21637043.1654  -30080162.48048 -22847142.40047  21637040.9154   21637045.7834
      1982.7774       1545.0214
  21986083.3394  -29135369.57448 -22675366.64847  21986081.4394   21986084.9574
     -1436.8444      -1119.6194
  21670256.7174  -24217247.09149 -18535134.02547  21670254.7294   21670260.0924
       278.6124        217.1004
  20450536.1454  -39750876.71249 -30631420.54947  20450534.0424   20450535.4414
       767.9094        598.3704
  22419352.4834  -17590724.55248 -13078954.27446  22419350.7474   22419355.1024
      2215.4044       1726.2874
  21250854.4284  -26010570.06549 -18210461.28747  21250851.8074   21250857.7904
      3397.7214       2647.5734
  21144191.8544  -33004481.92549 -25359284.13547  21144189.6114   21144194.2114
      -423.9194       -330.3264
  24256944.8944   -5003078.79847  -3718633.18045  24256943.1774   24256947.1864
       874.0134        681.0474
  23761957.2604  -28339893.02347 -21482416.14645  23761954.2234   23761960.9924
     -1985.7914      -1547.3674
 04 12 11  0 11 30.0000000  0  9G17G 4G 5G 2G30G10G24G13G 7
  21625745.6114  -30139531.98049 -22893404.33947  21625743.1714   21625748.2624
      1973.8884       1538.0944
  21994297.5134  -29092201.81748 -22641729.42347  21994296.1834   21994299.4824
     -1442.2294      -1123.8154
  21668722.0664  -24225309.92549 -18541416.77347  21668720.1774   21668725.2264
       257.6124        200.7374
  20446181.8604  -39773758.03649 -30649250.16547  20446179.7304   20446181.0544
       756.1764        589.2284
  22406758.8234  -17656898.10648 -13130518.07046  22406757.8504   22406762.8804
      2194.9024       1710.3124
  21231503.3264  -26112261.74749 -18289701.52647  21231500.6964   21231506.6424
      3380.4384       2634.1084
  21146629.7764  -32991667.31049 -25349298.72547  21146627.9964   21146632.6204
      -431.6674       -336.3644
  24252010.0914   -5029016.74747  -3738844.52645  24252007.8014   24252013.0324
       853.8704        665.3614
  23773316.3354  -28280195.28147 -21435898.46545  23773314.7824   23773319.3374
     -1995.2554      -1554.7424
 04 12 11  0 12  0.0000000  0  9G17G 4G 5G 2G30G10G24G13G 7
  21614489.2814  -30198683.31549 -22939496.27047  21614486.9374   21614492.6184
      1969.4934       1534.6684
  22002533.6394  -29048921.35348 -22608004.37647  22002532.2234   22002535.8974
     -1443.0994      -1124.4924
  21667298.5794  -24232790.50449 -18547245.81147  21667296.5724   21667301.8984
       241.0784        187.8534
  20441885.2264  -39796334.44649 -30666842.17147  20441883.5034   20441884.6344
       748.8794        583.5404
  22394275.0154  -17722503.63148 -13181639.24446  22394273.7894   22394279.7434
      2178.7794       1697.7504
  21212241.6364  -26213481.94949 -18368574.36947  21212239.1864   21212244.6664
      3367.5474       2624.0614
  21149103.5044  -32978668.26549 -25339169.59947  21149101.5074   21149106.1034
      -434.9464       -338.9194
  24247180.9304   -5054397.34347  -3758621.60745  24247178.5214   24247182.3504
       838.0974        653.0644
  23784720.4584  -28220262.69247 -21389197.81945  23784717.8274   23784724.6644
     -2000.2604      -1558.6414
 04 12 11  0 12 30.0000000  0  9G17G 4G 5G 2G30G10G24G13G 7
  21603268.0074  -30257651.45249 -22985445.44447  21603265.4794   21603271.7884
      1961.3664       1528.3364
  22010784.3904  -29005564.07748 -22574219.47847  22010782.8254   22010786.9834
     -1447.6524      -1128.0414
  21665979.5524  -24239724.49849 -18552648.93747  21665977.2804   21665982.5584
       220.8504        172.0914
  20437640.5314  -39818641.27349 -30684224.10047  20437638.6674   20437639.8374
       737.8844        574.9744
  22381892.8344  -17787574.54048 -13232343.85346  22381891.5774   22381895.5084
      2158.9364       1682.2894
  21193063.5984  -26314263.23249 -18447105.21447  21193061.2994   21193066.2844
      3350.8394       2611.0434
  21151605.0134  -32965520.48649 -25328924.57447  21151603.2884   21151608.0814
      -441.9044       -344.3414
  24242450.4644   -5079254.48447  -3777990.78545  24242448.1704   24242452.2814
       818.6204        637.8824
  23796164.1684  -28160130.90747 -21342341.96445  23796161.3344   23796168.3784
     -2008.8324      -1565.3194
 04 12 11  0 13  0.0000000  0  9G17G 4G 5G 2G30G10G24G13G 7
  21592087.4484  -30316401.79149 -23031224.90647  21592085.6314   21592091.8594
      1954.0414       1522.6294
  22019056.0994  -28962095.69748 -22540348.01747  22019054.2214   22019059.5924
     -1451.3754      -1130.9424
  21664769.7664  -24246077.90149 -18557599.65047  21664768.3174   21664773.3734
       201.4504        156.9744
  20433453.3374  -39840644.18349 -30701369.21147  20433451.6544   20433452.8274
       727.7064        567.0424
  22369618.4294  -17852074.40748 -13282603.48646  22369617.5914   22369621.7714
      2139.7934       1667.3714
  21173975.9914  -26414568.46649 -18525265.12347  21173973.5684   21173978.9004
      3334.8984       2598.6204
  21154141.7434  -32952189.82049 -25318537.03847  21154140.0204   21154144.8774
      -448.0614       -349.1394
  24237825.3704   -5103552.46547  -3796924.27645  24237823.4394   24237828.0734
       799.9044        623.2994
  23807652.2594  -28099765.53247 -21295304.05745  23807649.8654   23807655.2264
     -2016.7014      -1571.4574
 04 12 11  0 13 30.0000000  0  9G17G 4G 5G 2G30G10G24G13G 7
  21580947.9934  -30374939.44549 -23076838.64347  21580945.9474   21580952.2304
      1948.0024       1517.9234
  22027347.8454  -28918522.31648 -22506394.75147  22027346.0954   22027351.1624
     -1453.8874      -1132.8984
  21663670.1114  -24251856.63149 -18562102.56747  21663668.3354   21663674.1154
       183.3364        142.8584
  20429323.5904  -39862348.68149 -30718281.80947  20429321.5574   20429322.8584
       718.8174        560.1184
  22357452.8474  -17916006.68848 -13332420.84446  22357451.4954   22357456.0734
      2121.9474       1653.4664
  21154978.0234  -26514400.50149 -18603056.30247  21154975.8734   21154981.6304
      3320.1264       2587.1104
  21156712.2694  -32938682.44749 -25308011.81147  21156710.4994   21156715.1054
      -452.8514       -352.8714
  24233308.0334   -5127295.44847  -3815425.28145  24233306.2414   24233309.8704
       782.5134        609.7484
  23819182.1814  -28039172.48747 -21248088.71545  23819180.1884   23819185.5084
     -2023.2134      -1576.5334
 04 12 11  0 14  0.0000000  0  9G17G 4G 5G 2G30G10G24G13G 7
  21569846.5674  -30433277.77549 -23122297.05447  21569844.5044   21569851.0914
      1940.4164       1512.0114
  22035656.8634  -28874857.37448 -22472370.13047  22035655.4504   22035660.3644
     -1457.8364      -1135.9774
  21662677.9974  -24257074.62549 -18566168.54447  21662675.8944   21662681.0934
       163.7664        127.6094
  20425247.0524  -39883768.36149 -30734972.47447  20425245.4304   20425246.6874
       708.4124        552.0104
  22345392.4364  -17979383.29748 -13381805.20646  22345391.3344   22345395.9594
      2102.4354       1638.2604
  21136069.5714  -26613770.41349 -18680487.38047  21136067.0144   21136072.5414
      3303.7484       2574.3484
  21159313.9324  -32925012.30249 -25297359.75247  21159311.9014   21159316.0854
      -459.2204       -357.8354
  24228892.4234   -5150495.33047  -3833503.07745  24228890.6744   24228894.2874
       763.3714        594.8334
  23830751.0894  -27978365.26847 -21200706.51945  23830749.5244   23830757.0934
     -2031.3834      -1582.8944
 04 12 11  0 14 30.0000000  0  9G17G 4G 5G 2G30G10G24G13G 7
  21558786.6894  -30491399.95549 -23167587.04447  21558784.0484   21558790.6774
      1933.5864       1506.6904
  22043985.8404  -28831085.00148 -22438261.80447  22043984.7904   22043989.5624
     -1461.0304      -1138.4654
  21661794.5264  -24261715.97249 -18569785.18747  21661792.3404   21661797.4074
       144.9214        112.9254
  20421228.3924  -39904886.60049 -30751428.26047  20421226.6194   20421227.8534
       698.7274        544.4644
  22333442.4534  -18042185.49948 -13430741.97946  22333440.9084   22333444.6174
      2083.6644       1623.6334
  21117251.2344  -26712659.10949 -18757543.48747  21117248.9834   21117254.6934
      3288.0414       2562.1104
  21161948.8754  -32911163.05849 -25286568.13047  21161947.1404   21161951.8154
      -464.8054       -362.1864
  24224585.7294   -5173134.72047  -3851144.14045  24224584.2054   24224586.8514
       745.0534        580.5664
  23842367.6644  -27917327.69747 -21153144.88645  23842366.3194   23842371.9894
     -2038.5974      -1588.5144
 04 12 11  0 15  0.0000000  0  9G17G 4G 5G 2G30G10G24G13G 7
  21547760.7044  -30549341.07349 -23212735.93747  21547758.3744   21547764.6484
      1927.7774       1502.1614
  22052330.6344  -28787240.45248 -22404097.21947  22052328.9124   22052331.8624
     -1463.1984      -1140.1544
  21661014.4004  -24265816.13349 -18572980.12747  21661012.1594   21661017.2944
       127.1024         99.0414
  20417261.0174  -39925738.46049 -30767676.45947  20417258.9204   20417259.9234
       690.0814        537.7244
  22321594.3514  -18104447.03948 -13479257.46146  22321592.5604   22321596.3514
      2065.8044       1609.7184
  21098518.7914  -26811099.22549 -18834250.04947  21098516.1264   21098522.0964
      3273.2864       2550.6124
  21164611.9144  -32897170.19649 -25275664.60447  21164610.1224   21164614.6144
      -469.3544       -365.7304
  24220377.4484   -5195247.45047  -3868374.81045  24220375.0444   24220379.1974
       727.8144        567.1244
  23854021.9094  -27856095.19847 -21105431.33345  23854018.6174   23854024.4174
     -2044.7694      -1593.3284
 04 12 11  0 15 30.0000000  0  9G17G 4G 5G 2G30G10G24G13G 7
  21536775.9044  -30607067.99449 -23257717.94147  21536773.7284   21536779.3954
      1921.0904       1496.9534
  22060693.0634  -28743291.40648 -22369851.19947  22060691.6964   22060694.7424
     -1466.2294      -1142.5174
  21660343.0614  -24269342.49349 -18575727.94747  21660341.0834   21660346.2204
       108.4234         84.4874
  20413349.2354  -39946291.31049 -30783691.66147  20413347.7134   20413349.1014
       680.5194        530.2744
  22309854.9894  -18166133.11748 -13527324.52746  22309853.9234   22309858.1294
      2047.0224       1595.0834
  21079878.3924  -26909055.39649 -18910579.51047  21079875.8974   21079881.1764
      3257.5444       2538.3464
  21167308.2744  -32883001.43049 -25264624.00547  21167306.4014   21167311.1594
      -474.7914       -369.9664
  24216274.8834   -5216799.56147  -3885168.61745  24216273.7964   24216276.9064
       709.4384        552.7994
  23865715.0714  -27794635.30947 -21057540.55745  23865712.9784   23865719.0514
     -2052.0054      -1598.9724
 04 12 11  0 16  0.0000000  0  9G17G 4G 5G 2G30G10G24G13G 7
  21525828.3494  -30664599.09549 -23302547.37947  21525826.1364   21525831.6564
      1913.9084       1491.3564
  22069072.7164  -28699256.79548 -22335538.50547  22069071.3194   22069074.0664
     -1469.7594      -1145.2674
  21659777.6294  -24272314.49449 -18578043.80147  21659775.5944   21659780.7994
        89.2934         69.5804
  20409492.0094  -39966563.58249 -30799488.22647  20409490.0744   20409491.5684
       670.5434        522.5004
  22298223.6204  -18227260.55048 -13574956.28346  22298222.0564   22298226.4074
      2027.7684       1580.0794
  21061325.6794  -27006543.60849 -18986544.33147  21061323.9954   21061329.4764
      3241.2654       2525.6604
  21170034.2794  -32868675.53649 -25253460.97147  21170032.5084   21170037.7984
      -480.6624       -374.5424
  24212278.0214   -5237808.40347  -3901539.10945  24212276.8504   24212279.2714
       690.7194        538.2224
  23877449.0894  -27732966.92747 -21009487.31545  23877448.9554   23877454.5234
     -2059.5214      -1604.8214
 04 12 11  0 16 30.0000000  0  9G17G 4G 5G 2G30G10G24G13G 7
  21514917.7624  -30721937.69949 -23347226.80247  21514915.3514   21514920.3804
      1908.6744       1487.2794
  22077467.0594  -28655140.34448 -22301162.03447  22077465.6554   22077469.9764
     -1471.2864      -1146.4564
  21659316.8574  -24274736.05649 -18579930.74647  21659314.9924   21659320.1714
        72.1654         56.2344
  20405686.5174  -39986559.13749 -30815069.18947  20405684.8564   20405686.5764
       662.4854        516.2224
  22286697.1324  -18287831.12148 -13622154.11846  22286695.7474   22286699.8754
      2010.3524       1566.5104
  21042864.6584  -27103565.02949 -19062145.40447  21042862.0364   21042867.2384
      3226.8534       2514.4304
  21172789.7144  -32854196.61849 -25242178.70147  21172787.7164   21172792.9204
      -484.5644       -377.5824
  24208382.2864   -5258276.36747  -3917488.17345  24208380.2134   24208384.8504
       673.8194        525.0514
  23889227.1144  -27671093.73947 -20961274.52745  23889224.1994   23889230.0344
     -2065.1644      -1609.2174
 04 12 11  0 17  0.0000000  0  9G17G 4G 5G 2G30G10G24G13G 7
  21504040.5784  -30779094.74449 -23391764.74347  21504038.4494   21504043.4404
      1900.6874       1481.0554
  22085875.1504  -28610953.74248 -22266730.91947  22085873.9674   22085879.1524
     -1475.5044      -1149.7434
  21658959.0514  -24276618.90549 -18581397.91247  21658956.7544   21658961.6154
        52.2844         40.7414
  20401932.8314  -40006289.04449 -30830443.14347  20401930.6734   20401931.8564
       651.7414        507.8504
  22275274.7744  -18347854.25748 -13668925.38046  22275273.6404   22275278.4464
      1990.1584       1550.7724
  21024489.3554  -27200128.24149 -19137389.43847  21024486.9504   21024491.7164
      3209.6344       2501.0134
  21175571.5534  -32839576.18049 -25230786.15247  21175569.7534   21175575.2674
      -491.1804       -382.7394
  24204588.7954   -5278212.99047  -3933023.17145  24204587.1274   24204589.2354
       654.1804        509.7324
  23901034.8264  -27609027.26947 -20912911.14045  23901033.0734   23901040.5234
     -2073.4404      -1615.6654
 04 12 11  0 17 30.0000000  0  9G17G 4G 5G 2G30G10G24G13G 7
  21493207.6654  -30836020.57249 -23436122.51547  21493205.6664   21493210.8654
      1893.8474       1475.7264
  22094306.6074  -28566647.80748 -22232206.82347  22094305.1654   22094310.2474
     -1478.6464      -1152.1914
  21658712.3434  -24277914.30949 -18582407.32147  21658710.1584   21658715.0804
        33.5694         26.1584
  20398237.5144  -40025704.19749 -30845571.82847  20398235.9274   20398237.7104
       642.0884        500.3284
  22263966.9954  -18407278.95148 -13715230.32246  22263965.4984   22263970.2984
      1971.0194       1535.8594
  21006210.6274  -27296181.50349 -19212236.10847  21006208.2474   21006213.8514
      3193.4264       2488.3824
  21178390.1634  -32824765.40149 -25219245.28947  21178388.2684   21178393.4904
      -496.7124       -387.0494
  24200906.6384   -5297568.54447  -3948105.41445  24200905.0074   24200908.4864
       635.6644        495.3254
  23912893.4984  -27546718.51647 -20864358.98945  23912890.3774   23912898.0384
     -2080.6894      -1621.3174
 04 12 11  0 18  0.0000000  0  9G17G 4G 5G 2G30G10G24G13G 7
  21482411.3564  -30892758.20549 -23480333.64147  21482409.0254   21482413.7724
      1887.1474       1470.5044
  22102752.4684  -28522265.88748 -22197623.51647  22102751.3214   22102755.9624
     -1481.5674      -1154.4674
  21658568.7894  -24278666.10949 -18582993.15547  21658567.1784   21658572.5024
        15.0654         11.7404
  20394594.9754  -40044847.61049 -30860488.76347  20394593.1324   20394594.8334
       632.6254        492.9554
  22252764.6904  -18466146.71348 -13761101.29046  22252763.3244   22252768.1944
      1952.0514       1521.0794
  20988021.6324  -27391765.69049 -19286717.26647  20988019.1324   20988025.0934
      3177.3464       2475.8534
  21181236.7904  -32809807.94149 -25207590.12347  21181234.5464   21181239.5224
      -501.9484       -391.1284
  24197324.4504   -5316385.14047  -3962767.67445  24197323.0004   24197325.3824
       617.2544        480.9854
  23924788.6904  -27484211.00747 -20815651.91945  23924786.5844   23924790.0254
     -2087.8154      -1626.8684
 04 12 11  0 18 30.0000000  0  9G17G 4G 5G 2G30G10G24G13G 7
  21471646.8364  -30949322.13649 -23524409.42047  21471644.8084   21471650.5744
      1882.1804       1466.6344
  22111210.0164  -28477823.03248 -22162992.72047  22111208.4744   22111212.8634
     -1482.7414      -1155.3824
  21658526.3464  -24278889.76649 -18583167.44547  21658524.4774   21658529.3284
        -1.6844         -1.3124
  20391000.9344  -40063734.01149 -30875205.43347  20390998.9734   20391000.9894
       624.8874        486.9244
  22241666.7554  -18524470.58448 -13806548.45246  22241664.9294   22241669.1654
      1934.7254       1507.5774
  20969918.2124  -27486892.94449 -19360842.36247  20969916.1164   20969922.7624
      3162.9264       2464.6164
  21184107.6044  -32794718.51949 -25195832.13047  21184105.8704   21184110.9264
      -505.5594       -393.9424
  24193845.1174   -5334676.11147  -3977020.36245  24193842.2374   24193845.4664
       600.5754        467.9734
  23936718.8794  -27421519.65147 -20766801.48545  23936716.3004   23936720.5364
     -2093.1684      -1631.0414
 04 12 11  0 19  0.0000000  0  9G17G 4G 5G 2G30G10G24G13G 7
  21460922.3784  -31005679.90049 -23568324.54747  21460920.2804   21460926.1334
      1875.5794       1461.4904
  22119685.4914  -28433287.40448 -22128289.63447  22119683.8554   22119687.2214
     -1485.6124      -1157.6214
  21658589.8934  -24278553.47449 -18582905.41047  21658588.2044   21658593.4644
       -20.1064        -15.6674
  20387462.1224  -40082331.14349 -30889696.70947  20387460.2484   20387462.0684
       615.5154        479.6214
  22230676.9324  -18582216.65548 -13851545.37846  22230675.5704   22230680.7304
      1915.6654       1492.7244
  20951910.6474  -27581528.75249 -19434584.51747  20951908.1454   20951913.6414
      3146.7324       2451.9974
  21187010.3444  -32779465.27349 -25183946.48147  21187008.3514   21187013.3954
      -510.7344       -397.9754
  24190470.1064   -5352408.17447  -3990837.53845  24190467.8114   24190471.8574
       582.1564        453.6204
  23948689.2834  -27358612.54847 -20717783.02345  23948685.8114   23948692.3534
     -2100.0074      -1636.3684
 04 12 11  0 19 30.0000000  0  9G17G 4G 5G 2G30G10G24G13G 7
  21450237.4634  -31061830.73649 -23612078.43347  21450235.2594   21450240.8964
      1869.3154       1456.6104
  22128176.8604  -28388658.60548 -22093513.93347  22128176.0554   22128178.8664
     -1488.0534      -1159.5234
  21658761.4264  -24277657.35249 -18582207.14747  21658759.1594   21658764.3464
       -38.1134        -29.6974
  20383978.2314  -40100638.60049 -30903962.26547  20383976.3994   20383978.0584
       606.5004        472.5974
  22219798.0814  -18639382.78148 -13896090.38546  22219797.0404   22219802.2024
      1896.9704       1478.1594
  20933996.4554  -27675669.98249 -19507941.30847  20933994.0604   20933998.8074
      3130.8654       2439.6354
  21189944.1244  -32764047.98449 -25171933.00547  21189942.1044   21189947.2614
      -515.5564       -401.7324
  24187201.2034   -5369579.83747  -4004218.03845  24187200.0464   24187204.3244
       564.1254        439.5804
  23960698.7784  -27295489.46647 -20668596.35045  23960697.0904   23960704.2994
     -2106.5374      -1641.4434
 04 12 11  0 20  0.0000000  0  9G17G 4G 5G 2G30G10G24G13G 7
  21439589.8554  -31117783.29949 -23655677.82947  21439587.8174   21439593.1524
      1861.4524       1450.4824
  22136686.2154  -28343945.69848 -22058672.69346  22136684.1704   22136687.9414
     -1492.1194      -1162.6924
  21659036.3114  -24276210.82449 -18581079.99847  21659034.2004   21659039.3254
       -57.7304        -44.9844
  20380547.7684  -40118665.18149 -30918008.94947  20380546.0514   20380547.6294
       595.8734        464.3164
  22209029.7894  -18695976.23948 -13940189.18446  22209028.0934   22209032.7794
      1876.5574       1462.2524
  20916174.5264  -27769323.27049 -19580917.87847  20916172.3374   20916177.1104
      3113.2944       2425.9424
  21192906.7544  -32748475.78449 -25159798.81947  21192905.3884   21192910.2984
      -521.9884       -406.7454
  24184038.9074   -5386198.82147  -4017167.88745  24184037.9014   24184041.4024
       544.3454        424.1664
  23972753.8824  -27232159.70247 -20619248.55345  23972750.4184   23972755.2604
     -2114.7294      -1647.8454
 04 12 11  0 20 30.0000000  0  9G17G 4G 5G 2G30G10G24G13G 7
  21428979.9954  -31173538.80249 -23699123.66847  21428977.8194   21428983.2824
      1855.4864       1445.8344
  22145209.4484  -28299150.38848 -22023767.25246  22145208.0154   22145212.4894
     -1494.2414      -1164.3434
  21659416.2674  -24274216.21149 -18579525.76447  21659414.2604   21659418.7914
       -75.3364        -58.7034
  20377170.8104  -40136412.41749 -30931837.95847  20377168.9534   20377170.7864
       587.2004        457.5584
  22198369.0314  -18751996.92948 -13983841.66846  22198367.7004   22198371.9474
      1858.1154       1447.8824
  20898446.4704  -27862487.72449 -19653513.53947  20898443.7624   20898448.6784
      3097.6064       2413.7194
  21195899.5294  -32732750.75749 -25147545.54547  21195897.9584   21195902.8754
      -526.4464       -410.2164
  24180980.2374   -5402265.76947  -4029687.57145  24180980.2754   24180984.9074
       526.6584        410.3884
  23984842.1084  -27168625.10547 -20569741.07045  23984840.7114   23984845.9674
     -2120.8414      -1652.6014
 04 12 11  0 21  0.0000000  0  9G17G 4G 5G 2G30G10G24G13G 7
  21418411.1764  -31229076.55049 -23742399.83247  21418409.1274   21418414.7914
      1848.0504       1440.0394
  22153753.9474  -28254252.55948 -21988781.93047  22153752.5274   22153757.1244
     -1497.8174      -1167.1294
  21659903.7474  -24271653.94549 -18577529.20647  21659901.5544   21659906.5444
       -94.4234        -73.5764
  20373850.7854  -40153859.95249 -30945433.44147  20373848.6844   20373850.6264
       577.0084        449.6174
  22187821.1044  -18807422.83848 -14027030.68746  22187819.9174   22187824.7584
      1838.0504       1432.2484
  20880813.4674  -27955140.72849 -19725710.65947  20880811.5014   20880817.5044
      3080.3184       2400.2484
  21198925.4544  -32716852.60249 -25135157.36647  21198923.5294   21198928.2934
      -532.4074       -414.8634
  24178031.9884   -5417759.40047  -4041760.51245  24178031.7504   24178036.5564
       507.3534        395.3344
  23996974.7594  -27104865.53847 -20520058.36545  23996972.5074   23996978.9904
     -2128.5494      -1658.6094
 04 12 11  0 21 30.0000000  0  9G17G 4G 5G 2G30G10G24G13G 7
  21407873.9754  -31284449.32749 -23785547.44747  21407872.1014   21407877.9804
      1842.1354       1435.4304
  22162306.4344  -28209305.43148 -21953758.19947  22162305.8884   22162310.5264
     -1499.8474      -1168.7134
  21660489.2154  -24268577.71149 -18575132.15747  21660486.9644   21660491.7554
      -111.9324        -87.2194
  20370577.3874  -40171060.58449 -30958836.52147  20370575.5474   20370577.7234
       568.4094        442.9164
  22177377.1554  -18862305.54048 -14069796.43046  22177376.3614   22177380.4434
      1819.5634       1417.8404
  20863270.6284  -28047332.82749 -19797548.62247  20863268.3414   20863274.3224
      3064.5434       2387.9544
  21201973.3694  -32700834.59849 -25122675.79347  21201971.4524   21201976.2544
      -536.7624       -418.2574
  24175184.3024   -5432731.78247  -4053427.29445  24175183.4244   24175187.1484
       489.5354        381.4584
  24009142.8154  -27040934.33146 -20470241.90845  24009137.3704   24009143.4964
     -2134.6854      -1663.3914
 04 12 11  0 22  0.0000000  0  9G17G 4G 5G 2G30G10G24G13G 7
  21397379.5434  -31339599.38849 -23828521.50347  21397377.6624   21397383.3664
      1835.4354       1430.2084
  22170881.5264  -28164251.68848 -21918651.39647  22170879.7584   22170883.6284
     -1502.6864      -1170.9254
  21661182.7994  -24264930.82649 -18572290.44947  21661180.7354   21661185.7734
      -130.2404       -101.4854
  20367362.4324  -40187957.04649 -30972002.59147  20367360.2704   20367362.4504
       558.9384        435.5364
  22167049.3824  -18916586.03248 -14112092.90946  22167047.4794   22167051.0454
      1800.1354       1402.7044
  20845826.5254  -28139004.25249 -19868980.86647  20845824.1144   20845830.0404
      3047.8424       2374.9404
  21205055.4324  -32684639.84849 -25110056.50047  21205053.4234   21205058.3494
      -541.9614       -422.3084
  24172443.6574   -5447124.71547  -4064642.52245  24172443.0784   24172448.2594
       470.9564        366.9814
  24021348.9634  -26976774.43347 -20420247.28645  24021347.1114   24021353.5514
     -2141.5074      -1668.7104
 04 12 11  0 22 30.0000000  0  9G17G 4G 5G 2G30G10G24G13G 7
  21386923.7194  -31394547.78049 -23871338.42347  21386921.2374   21386927.0824
      1830.3694       1426.2614
  22179470.4484  -28119112.93448 -21883478.33947  22179468.9324   22179473.2384
     -1503.9134      -1171.8804
  21661981.2564  -24260735.30349 -18569021.22947  21661979.2364   21661984.4294
      -146.8554       -114.4324
  20364201.2854  -40204570.51149 -30984948.14147  20364199.1504   20364201.0694
       551.2014        429.5084
  22156830.7774  -18970284.02748 -14153935.49746  22156829.5284   22156832.7384
      1782.3644       1388.8544
  20828478.1374  -28230173.97749 -19940022.18147  20828475.4604   20828481.0684
      3032.7204       2363.1584
  21208167.4944  -32668289.79649 -25097316.19247  21208165.0444   21208169.6644
      -545.4534       -425.0284
  24169812.8234   -5460958.16247  -4075421.81945  24169811.1624   24169815.3084
       453.9194        353.6984
  24033599.6974  -26912407.47547 -20370091.26345  24033597.3264   24033602.8824
     -2146.8074      -1672.8344
 04 12 11  0 23  0.0000000  0  9G17G 4G 5G 2G30G10G24G13G 7
  21376495.8274  -31449344.34849 -23914037.03747  21376493.7364   21376499.1684
      1822.2614       1419.9444
  22188066.7744  -28073939.11448 -21848277.96547  22188065.2694   22188069.3544
     -1508.0754      -1175.1224
  21662874.7294  -24256042.02549 -18565364.13847  21662872.5954   21662877.3114
      -166.4754       -129.7194
  20361083.8184  -40220951.19849 -30997712.30447  20361081.8664   20361083.8034
       540.3904        421.0834
  22146714.1944  -19023448.16448 -14195362.09546  22146712.6414   22146716.5024
      1761.5084       1372.6054
  20811215.6064  -28320889.78749 -20010709.80747  20811213.0134   20811218.1694
      3014.5174       2348.9744
  21211297.4714  -32651834.80049 -25084494.10747  21211296.0024   21211300.8974
      -551.9894       -430.1214
  24167278.0974   -5474281.64747  -4085803.73345  24167277.6334   24167280.0674
       433.8124        338.0274
  24045877.2784  -26847884.00647 -20319813.25245  24045875.4524   24045881.1994
     -2155.1774      -1679.3544
 04 12 11  0 23 30.0000000  0  9G17G 4G 5G 2G30G10G24G13G 7
  21366105.5024  -31503947.92049 -23956585.26947  21366103.2614   21366108.2684
      1816.3644       1415.3484
  22196676.8594  -28028689.94448 -21813018.87446  22196674.9944   22196679.5794
     -1510.1044      -1176.7024
  21663870.4394  -24250811.01949 -18561288.04947  21663868.0604   21663872.6454
      -183.8404       -143.2524
  20358019.0324  -40237058.18949 -31010263.19647  20358016.8144   20358018.6694
       531.7974        414.3884
  22136706.8414  -19076036.00648 -14236339.64046  22136705.4294   22136708.8404
      1742.8084       1358.0334
  20794046.8764  -28411108.70649 -20081010.23547  20794044.2314   20794049.6944
      2998.4604       2336.4614
  21214456.9724  -32635233.98349 -25071558.39947  21214454.7984   21214459.9074
      -556.3044       -433.4844
  24164847.2414   -5487053.31947  -4095755.66845  24164845.6494   24164849.8144
       415.9214        324.0914
  24058191.5504  -26783163.36047 -20269381.63245  24058189.6924   24058198.4824
     -2160.9604      -1683.8644
 04 12 11  0 23 59.9990000  0  9G17G 4G 5G 2G30G10G24G13G 7
  21355754.5204  -31558340.62049 -23998969.17847  21355752.6854   21355757.8124
      1811.0804       1411.2314
  22205304.5594  -27983350.99248 -21777689.82546  22205302.7554   22205307.1944
     -1511.4024      -1177.7144
  21664970.7384  -24245027.47449 -18556781.40347  21664968.5024   21664973.0764
      -200.5604       -156.2814
  20355008.6864  -40252875.23449 -31022588.15847  20355006.9294   20355008.9854
       523.8094        408.1634
  22126813.1494  -19128028.75648 -14276853.47146  22126811.4374   22126815.0704
      1724.6654       1343.8964
  20776976.6144  -28500809.69949 -20150907.07547  20776973.8784   20776979.9634
      2982.9464       2324.3734
  21217646.0724  -32618472.33649 -25058497.37047  21217644.1584   21217649.7054
      -560.0174       -436.3764
  24162525.6854   -5499256.26347  -4105264.42345  24162523.6254   24162528.8474
       398.7014        310.6814
  24070550.4064  -26718232.36346 -20218786.17645  24070546.8484   24070553.1884
     -2166.4694      -1688.1434
 04 12 11  0 24 29.9990000  0  9G17G 4G 5G 2G30G10G24G13G 7
  21345439.7094  -31612548.47249 -24041209.05347  21345437.1824   21345442.0494
      1804.2244       1405.8874
  22213946.3534  -27937942.24748 -21742306.38646  22213944.7514   22213947.8734
     -1514.3064      -1179.9804
  21666171.9704  -24238714.36649 -18551862.10647  21666169.7714   21666174.8344
      -218.8244       -170.5114
  20352049.8914  -40268425.67549 -31034705.37947  20352047.9384   20352049.9664
       514.2894        400.7444
  22117027.1924  -19179451.03448 -14316922.77446  22117026.0974   22117030.2414
      1704.9944       1328.5654
  20760000.5164  -28590018.97349 -20220420.76647  20759998.4404   20760004.0374
      2965.7964       2311.0094
  21220861.7824  -32601571.89249 -25045328.19147  21220859.9964   21220865.4394
      -565.2474       -440.4524
  24160307.0484   -5510913.21847  -4114347.77145  24160305.1204   24160309.2554
       379.8974        296.0194
  24082941.8194  -26653109.77347 -20168041.40345  24082939.8514   24082945.2074
     -2173.3414      -1693.5024
 04 12 11  0 24 59.9990000  0  9G17G 4G 5G 2G30G10G24G13G 7
  21335161.0624  -31666561.00049 -24083296.72147  21335158.8384   21335163.7424
      1796.2614       1399.6844
  22222601.7514  -27892456.59148 -21706863.00847  22222599.9314   22222604.6464
     -1518.3844      -1183.1564
  21667475.5854  -24231864.62749 -18546524.67247  21667473.2204   21667478.4344
      -238.1684       -185.5864
  20349142.9814  -40283700.64149 -31046607.94247  20349141.0734   20349143.0754
       503.6454        392.4504
  22107353.2794  -19230291.27048 -14356538.53646  22107351.7834   22107355.4864
      1684.0754       1312.2664
  20743121.0534  -28678722.91349 -20289540.69947  20743119.0464   20743123.8484
      2947.4194       2296.6884
  21224105.9444  -32584524.98449 -25032044.88347  21224104.0654   21224109.2464
      -571.6024       -445.4054
  24158195.7544   -5522014.08347  -4122997.75345  24158193.3144   24158196.9964
       359.8304        280.3894
  24095372.5744  -26587789.52247 -20117142.50845  24095369.3194   24095376.3764
     -2181.5874      -1699.9354
 04 12 11  0 25 29.9990000  0  9G17G 4G 5G 2G30G10G24G13G 7
  21324923.6754  -31720359.31749 -24125217.48147  21324921.2704   21324926.4754
      1790.6114       1395.2814
  22231276.0234  -27846875.76548 -21671345.48147  22231274.5144   22231277.9884
     -1519.9644      -1184.3874
  21668884.2744  -24224460.32349 -18540755.10847  21668882.1714   21668887.2444
      -255.1044       -198.7814
  20346292.3134  -40298681.60449 -31058281.41447  20346290.4264   20346292.3644
       495.3774        386.0084
  22097793.2594  -19280529.57448 -14395685.26046  22097791.7494   22097795.2794
      1665.4974       1297.7914
  20726342.2344  -28766900.62749 -20358250.57847  20726339.7084   20726344.4024
      2931.3804       2284.1914
  21227381.0394  -32567313.17149 -25018633.07447  21227379.2744   21227384.2504
      -575.5474       -448.4784
  24156191.4424   -5532540.09847  -4131199.83645  24156190.9524   24156194.4974
       342.2344        266.6764
  24107842.7804  -26522253.59247 -20066075.57445  24107841.9934   24107846.3724
     -2187.1104      -1704.2514
 04 12 11  0 25 59.9990000  0  9G17G 4G 5G 2G30G10G24G13G 7
  21314716.7044  -31773997.17649 -24167013.20347  21314714.4814   21314719.6574
      1784.1244       1390.2254
  22239957.6734  -27801253.97348 -21635796.02447  22239955.6244   22239959.8774
     -1522.4934      -1186.3574
  21670388.4334  -24216556.64449 -18534596.41447  21670386.1444   21670391.3384
      -272.8684       -212.6254
  20343487.6924  -40313422.67749 -31069767.96047  20343485.4704   20343487.2774
       486.2514        378.8974
  22088337.0804  -19330218.71348 -14434404.05946  22088335.8184   22088339.7824
      1646.0344       1282.6244
  20709652.7444  -28854604.33849 -20426591.11047  20709650.3994   20709655.3704
      2914.4124       2270.9694
  21230677.5674  -32549990.90249 -25005135.19747  21230675.8024   21230680.2894
      -580.3824       -452.2454
  24154288.8224   -5542544.68047  -4138995.59045  24154286.8974   24154291.1714
       323.6844        252.2214
  24120340.4814  -26456556.43846 -20014883.03844  24120339.9634   24120349.3924
     -2193.6914      -1709.3624
 04 12 11  0 26 29.9990000  0  9G17G 4G 5G 2G30G10G24G13G 7
  21304553.0844  -31827411.43549 -24208634.69447  21304550.4564   21304555.3474
      1776.8964       1384.5944
  22248658.1424  -27755528.31648 -21600165.64047  22248656.3974   22248661.4604
     -1525.7124      -1188.8674
  21671999.2334  -24208091.38849 -18528000.13547  21671997.1144   21672002.3264
      -291.3764       -227.0454
  20340739.6264  -40327860.70349 -31081018.36747  20340738.0224   20340739.7904
       476.3664        371.1954
  22078998.4954  -19379294.30448 -14472644.77046  22078997.0864   22079001.5174
      1625.7614       1266.8284
  20693064.9934  -28941768.87249 -20494511.48747  20693062.7474   20693068.5524
      2896.6194       2257.1054
  21234007.3754  -32532495.28849 -24991502.24047  21234005.1934   21234009.6864
      -585.9324       -456.5714
  24152496.2164   -5551963.91447  -4146335.22845  24152494.1474   24152498.5524
       304.4104        237.1964
  24132890.6464  -26390635.38246 -19963516.10945  24132886.3364   24132895.5904
     -2200.9354      -1715.0054
 04 12 11  0 26 59.9990000  0  9G17G 4G 5G 2G30G10G24G13G 7
  21294423.1374  -31880639.40149 -24250111.02347  21294421.1814   21294425.7954
      1770.5784       1379.6714
  22257372.1364  -27709736.75048 -21564483.91246  22257370.2864   22257374.9294
     -1528.0464      -1190.6874
  21673710.2094  -24199103.41949 -18520996.54147  21673707.9804   21673712.8834
      -308.8814       -240.6864
  20338043.1794  -40342033.50749 -31092062.10147  20338041.1074   20338042.6994
       467.3824        364.1934
  22069769.6974  -19427792.94548 -14510435.90746  22069768.1144   22069772.8844
      1606.4104       1251.7484
  20676574.0454  -29028429.57249 -20562039.27347  20676571.4074   20676577.3424
      2879.6774       2243.9024
  21237362.2564  -32514864.33049 -24977763.82547  21237360.1974   21237365.0384
      -590.5344       -460.1564
