     2.10           OBSERVATION DATA    G (GPS)             RINEX VERSION / TYPE
teqc  2000Jul20     CORS-ADM Account    20041211 05:50:29UTCPGM / RUN BY / DATE
Solaris 2.7|Ultra 2|cc SC5.0|=+-|*Sparc                     COMMENT
teqc  2000Jul20     CORS/NGS/NOAA       20041211 05:50:22UTCCOMMENT
BIT 2 OF LLI FLAGS DATA COLLECTED UNDER A/S CONDITION       COMMENT
htv1                                                        MARKER NAME
Jason Cockrell      U.S. Coast Guard                        OBSERVER / AGENCY
2199912124          ASHTECH Z-XII3      RD00                REC # / TYPE / VERS
16020               ASH700829.3     SNOW                    ANT # / TYPE
   350722.8656 -5130731.1515  3760329.7009                  APPROX POSITION XYZ
        0.0000        0.0000        0.0000                  ANTENNA: DELTA H/E/N
     1     1                                                WAVELENGTH FACT L1/2
     7    C1    L1    L2    P1    P2    D1    D2            # / TYPES OF OBSERV
    30.0000                                                 INTERVAL
 SNR is mapped to RINEX snr flag value [1-9]                COMMENT
  L1: 1 -> 1;  90 -> 5; 210 -> 9                            COMMENT
  L2: 1 -> 1; 150 -> 5; 250 -> 9                            COMMENT
Forced Modulo Decimation to 30 seconds                      COMMENT
  2004    12    10     0     0    0.0000000     GPS         TIME OF FIRST OBS
                                                            END OF HEADER
 04 12 10  0  0  0.0000000  0  9G 2G17G 5G 7G10G 4G13G24G30
  20565005.7484  -38239979.08949 -29446087.84347  20565004.0224   20565005.5384
      1034.8024        806.3404
  21952118.2654  -28543656.72649 -21916169.43747  21952116.1194   21952121.8384
      2157.0104       1680.7864
  21725160.0344  -23517638.48949 -17997864.59547  21725157.6954   21725162.6424
       826.0694        643.6904
  23393542.4584  -31335992.84747 -23802544.98845  23393539.1514   23393546.5704
     -1787.9334      -1393.1974
  21833605.7654  -21224502.48048 -15484868.38747  21833603.1474   21833608.5644
      3788.8844       2952.3754
  21706938.3204  -32142622.34849 -24674621.19747  21706936.3774   21706940.5934
     -1359.0434      -1058.9944
  24408658.1864   -3971565.04147  -2906437.29345  24408657.9064   24408661.1534
      1369.7794       1067.3584
  21025478.3684  -33529294.11649 -25767210.01847  21025476.6524   21025481.9754
      -236.4914       -184.2784
  22807609.1834  -14868514.52648 -11249374.26446  22807607.5674   22807611.6264
      2714.3014       2115.0394
 04 12 10  0  0 30.0000000  0  9G 2G17G 5G 7G10G 4G13G24G30
  20559080.4834  -38271118.95449 -29470352.67247  20559078.2964   20559079.8394
      1038.5954        809.2944
  21939777.2104  -28608510.56649 -21966704.87647  21939774.7354   21939780.9604
      2163.9544       1686.1964
  21720453.2414  -23542378.57649 -18017142.57947  21720450.0934   21720455.1814
       820.6704        639.4824
  23403723.7194  -31282482.08647 -23760848.31945  23403721.8974   23403726.3674
     -1781.8934      -1388.4904
  21811964.3354  -21338225.21048 -15573483.47047  21811961.9304   21811967.8774
      3790.0434       2953.2794
  21714661.3584  -32102034.30249 -24642994.15547  21714659.8244   21714664.1544
     -1349.3244      -1051.4214
  24400838.7444   -4012655.07547  -2938455.51245  24400837.4844   24400840.2994
      1366.9614       1065.1624
  21026801.6464  -33522345.75049 -25761795.70047  21026799.1004   21026803.8984
      -229.2864       -178.6654
  22792112.8144  -14949942.13948 -11312824.33046  22792111.4144   22792115.5304
      2711.6454       2112.9714
 04 12 10  0  1  0.0000000  0  9G 2G17G 5G 7G10G 4G13G24G30
  20553161.8214  -38302223.03249 -29494589.60547  20553159.5364   20553161.1534
      1042.9054        812.6534
  21927424.6924  -28673423.40549 -22017286.29047  21927422.5254   21927428.1764
      2171.4624       1692.0474
  21715803.4284  -23566807.89949 -18036178.41647  21715801.1614   21715806.4104
       815.8274        635.7094
  23413901.0914  -31229003.82747 -23719176.97845  23413898.0114   23413902.4944
     -1775.3394      -1383.3744
  21790344.9084  -21451832.30748 -15662008.42847  21790343.1144   21790349.2844
      3791.6454       2954.5254
  21722357.3684  -32061588.79649 -24611478.18147  21722356.0094   21722360.4434
     -1339.0304      -1043.4004
  24393063.5304   -4053510.05747  -2970290.49745  24393062.6824   24393067.7884
      1364.5684       1063.2954
  21028110.5364  -33515464.76049 -25756433.89347  21028108.2444   21028113.0734
      -221.5114       -172.6064
  22776660.7664  -15031139.60248 -11376095.05546  22776659.5644   22776664.6594
      2709.4264       2111.2404
 04 12 10  0  1 30.0000000  0  9G 2G17G 5G 7G10G 4G13G24G30
  20547253.5184  -38333270.70949 -29518782.59647  20547251.4084   20547252.9444
      1029.0254        801.8384
  21915065.0724  -28738374.58849 -22067897.58047  21915062.6174   21915068.0084
      2160.7044       1683.6654
  21711217.9024  -23590905.74049 -18054955.96047  21711215.7014   21711220.5174
       792.7924        617.7604
  23424074.0114  -31175537.42247 -23677514.85945  23424071.5534   23424077.4484
     -1786.8984      -1392.3894
  21768753.1354  -21565300.14648 -15750424.87747  21768751.1284   21768757.2494
      3774.9484       2941.5184
  21730030.4554  -32021266.30349 -24580058.06047  21730029.0744   21730033.0834
     -1346.9484      -1049.5704
  24385339.2614   -4094107.43347  -3001924.80045  24385336.9524   24385341.6284
      1343.9834       1047.2604
  21029410.6624  -33508631.02649 -25751108.90347  21029408.5574   21029413.2524
      -231.9364       -180.7294
  22761256.7174  -15112084.02048 -11439168.60446  22761255.5334   22761259.8904
      2689.0114       2095.3344
 04 12 10  0  2  0.0000000  0  9G 2G17G 5G 7G10G 4G13G24G30
  20541427.1244  -38363882.66049 -29542636.05947  20541425.8184   20541427.3564
      1016.3484        791.9584
  21902769.8374  -28802984.18349 -22118242.69847  21902767.8224   21902773.0644
      2151.1734       1676.2394
  21706767.3534  -23614292.09549 -18073179.10047  21706765.1224   21706770.9694
       770.9154        600.7144
  23434319.6314  -31121703.29847 -23635566.23545  23434317.2204   23434323.9964
     -1797.2914      -1400.4854
  21747260.5094  -21678246.34949 -15838434.87947  21747258.4014   21747264.2544
      3759.3934       2929.3974
  21737751.5934  -31980687.49549 -24548438.21347  21737750.1054   21737754.5284
     -1353.6244      -1054.7714
  24377736.1594   -4134065.32847  -3033060.78445  24377733.9384   24377738.5234
      1324.5024       1032.0824
  21030773.4244  -33501465.57949 -25745525.43447  21030771.9334   21030776.6494
      -241.1404       -187.9014
  22745974.6834  -15192393.29848 -11501747.24346  22745973.6664   22745978.7034
      2669.6434       2080.2424
 04 12 10  0  2 30.0000000  0  9G 2G17G 5G 7G10G 4G13G24G30
  20535626.0504  -38394374.70149 -29566396.08747  20535623.5664   20535625.0414
      1010.9224        787.7314
  21890480.2594  -28867568.09849 -22168567.80247  21890477.7624   21890483.5354
      2148.8654       1674.4404
  21702392.6744  -23637282.52649 -18091093.72447  21702390.2794   21702395.1844
       756.3184        589.3394
  23444574.6894  -31067817.55747 -23593577.40645  23444571.8304   23444578.1014
     -1800.4444      -1402.9404
  21725806.8584  -21790983.86948 -15926282.23447  21725804.7624   21725810.7274
      3750.9334       2922.8024
  21745462.5124  -31940169.05449 -24516865.41447  21745461.2424   21745465.1954
     -1353.0074      -1054.2914
  24370195.2314   -4173697.88747  -3063943.26745  24370193.0544   24370196.8684
      1312.1714       1022.4764
  21032141.0544  -33494284.84749 -25739930.05147  21032138.5104   21032142.9584
      -243.0574       -189.3954
  22730755.3714  -15272380.98248 -11564075.29646  22730753.8334   22730757.2104
      2657.4224       2070.7194
 04 12 10  0  3  0.0000000  0  9G 2G17G 5G 7G10G 4G13G24G30
  20529857.0664  -38424688.91749 -29590017.55647  20529855.0314   20529856.1924
      1008.4994        785.8434
  21878206.0374  -28932068.16248 -22218827.57447  21878203.7324   21878209.5944
      2149.5544       1674.9774
  21698103.5044  -23659818.94049 -18108654.57047  21698101.3304   21698107.1834
       744.6514        580.2464
  23454848.7494  -31013822.21347 -23551503.13245  23454846.4304   23454851.0354
     -1800.6684      -1403.1224
  21704405.5404  -21903452.07548 -16013919.75247  21704402.8894   21704408.8394
      3745.3894       2918.4854
  21753172.7094  -31899653.99349 -24485295.23347  21753171.1774   21753174.8984
     -1349.3944      -1051.4764
  24362726.3824   -4212945.42747  -3094525.73145  24362724.5064   24362728.0304
      1302.8164       1015.1794
  21033520.5274  -33487031.78749 -25734278.31047  21033518.6734   21033523.2984
      -241.9794       -188.5564
  22715607.4524  -15351986.69248 -11626105.70846  22715605.1554   22715609.0454
      2648.1914       2063.5244
 04 12 10  0  3 30.0000000  0  9G 2G17G 5G 7G10G 4G13G24G30
  20524149.6974  -38454680.71349 -29613387.78747  20524147.4124   20524149.1894
       996.6364        776.5994
  21865975.7834  -28996339.19248 -22268908.88247  21865973.1934   21865979.1544
      2140.8484       1668.1924
  21693929.7084  -23681756.16949 -18125748.52847  21693927.3914   21693932.8224
       723.5784        563.8274
  23465171.8104  -30959572.48247 -23509230.61345  23465169.2794   23465174.3444
     -1810.2584      -1410.5924
  21683083.1644  -22015502.73948 -16101231.93947  21683080.3524   21683086.1334
      3730.2944       2906.7244
  21760909.3794  -31858997.84149 -24453615.11247  21760908.0234   21760912.3694
     -1355.2204      -1056.0174
  24355358.0674   -4251661.26547  -3124693.88445  24355356.6224   24355361.3894
      1283.9274       1000.4614
  21034941.9034  -33479562.35649 -25728457.97947  21034940.0034   21034944.8194
      -250.2924       -195.0324
  22700558.3524  -15431063.15248 -11687723.71546  22700557.4354   22700561.9914
      2629.3324       2048.8294
 04 12 10  0  4  0.0000000  0  9G 2G17G 5G 7G10G 4G13G24G30
  20518487.7534  -38484433.68549 -29636571.91247  20518485.7504   20518487.2974
       991.5374        772.6264
  21853772.6644  -29060464.84849 -22318876.89847  21853770.7474   21853776.9274
      2138.8354       1666.6264
  21689852.3344  -23703177.68349 -18142440.62147  21689850.4704   21689855.6654
       709.2004        552.6234
  23475526.7894  -30905152.11247 -23466825.16845  23475524.9144   23475530.5694
     -1813.0494      -1412.7614
  21661824.0384  -22127216.87149 -16188281.89347  21661821.8354   21661827.1004
      3721.9084       2900.1864
  21768657.6054  -31818285.08149 -24421890.88247  21768655.7334   21768659.6784
     -1354.2484      -1055.2584
  24348076.7894   -4289927.02347  -3154511.32346  24348075.1434   24348078.3084
      1271.7634        990.9834
  21036388.2944  -33471960.91649 -25722534.77847  21036386.6694   21036391.4414
      -251.8194       -196.2224
  22685595.5194  -15509691.84448 -11748992.81246  22685594.4744   22685598.2124
      2617.1834       2039.3614
 04 12 10  0  4 30.0000000  0  9G 2G17G 5G 7G10G 4G13G24G30
  20512839.1734  -38514119.97849 -29659704.08247  20512836.6134   20512838.1184
       988.6864        770.4054
  21841565.9204  -29124616.52249 -22368865.19247  21841563.0524   21841569.5534
      2139.0984       1666.8294
  21685842.0904  -23724255.05349 -18158864.54647  21685839.7954   21685844.7534
       697.1374        543.2244
  23485884.6164  -30850732.95347 -23424420.67645  23485881.1814   23485887.5644
     -1813.6534      -1413.2264
  21640597.9284  -22238763.20449 -16275201.08447  21640595.5384   21640600.9394
      3715.6594       2895.3174
  21776382.4044  -31777687.99749 -24390256.79447  21776380.6924   21776385.2884
     -1350.9874      -1052.7174
  24340848.3894   -4327912.30648  -3184110.21946  24340847.2154   24340850.8374
      1261.7754        983.2004
  21037827.9194  -33464399.73749 -25716642.95047  21037825.6534   21037830.3924
      -251.0774       -195.6454
  22670687.2804  -15588042.08148 -11810044.92446  22670685.2354   22670690.0594
      2607.3234       2031.6804
 04 12 10  0  5  0.0000000  0  9G 2G17G 5G 7G10G 4G13G24G30
  20507230.4034  -38543589.72649 -29682667.52547  20507228.9244   20507229.9524
       974.9354        759.6904
  21829380.6584  -29188644.48448 -22418757.08547  21829378.5334   21829384.7034
      2128.4214       1658.5084
  21681925.4254  -23744838.25349 -18174903.40847  21681923.0094   21681928.8134
       674.1224        525.2904
  23496270.1924  -30796165.35347 -23381900.53745  23496266.4504   23496270.9614
     -1825.1054      -1422.1584
  21619431.9954  -22349989.11249 -16361870.59747  21619429.7324   21619435.6434
      3698.4054       2881.8744
  21784113.3924  -31737057.33749 -24358596.54447  21784111.9524   21784116.2644
     -1358.6324      -1058.6754
  24333702.6594   -4365465.59148  -3213372.51746  24333701.3314   24333704.4904
      1240.8144        966.8684
  21039287.1784  -33456729.36949 -25710666.02547  21039285.3444   21039290.2874
      -261.2614       -203.5804
  22655859.2664  -15665961.84348 -11870761.59546  22655857.4864   22655862.3674
      2586.3654       2015.3494
 04 12 10  0  5 30.0000000  0  9G 2G17G 5G 7G10G 4G13G24G30
  20501703.6384  -38572635.75549 -29705300.79447  20501701.5484   20501702.7544
       960.3814        748.3484
  21817260.0524  -29252341.09948 -22468390.79247  21817257.8114   21817263.5634
      2116.9304       1649.5564
  21678141.8714  -23764720.05049 -18190395.73247  21678139.3444   21678144.9204
       650.3034        506.7304
  23506719.4284  -30741242.09247 -23339103.22245  23506717.8914   23506721.8464
     -1837.3704      -1431.7134
  21598367.8504  -22460684.55749 -16448126.74847  21598365.1104   21598370.9394
      3680.2414       2867.7194
  21791891.3354  -31696186.45149 -24326749.10047  21791889.7334   21791894.1314
     -1367.0744      -1065.2514
  24326677.6394   -4402377.90348  -3242135.32546  24326676.7324   24326679.8994
      1218.9504        949.8304
  21040807.0704  -33448743.21749 -25704443.04347  21040805.0104   21040810.1634
      -272.1994       -212.1034
  22641151.6924  -15743241.53448 -11930979.52546  22641150.7964   22641155.9124
      2564.5534       1998.3534
 04 12 10  0  6  0.0000000  0  9G 2G17G 5G 7G10G 4G13G24G30
  20496241.3884  -38601338.23749 -29727666.35147  20496239.5564   20496241.0914
       948.1674        738.8314
  21805186.7744  -29315786.32648 -22517828.61047  21805184.5054   21805190.0714
      2107.8134       1642.4504
  21674476.6904  -23783980.48949 -18205403.86747  21674474.5584   21674479.0764
       628.8214        489.9894
  23517224.4754  -30686043.35247 -23296091.19545  23517221.5244   23517225.1894
     -1847.2894      -1439.4464
  21577389.1794  -22570927.05649 -16534029.96047  21577386.5314   21577392.1014
      3664.3274       2855.3164
  21799699.2024  -31655156.24649 -24294777.51047  21799697.5794   21799700.7714
     -1373.1094      -1069.9564
  24319761.9404   -4438727.75047  -3270459.86446  24319760.3064   24319762.4444
      1199.4254        934.6174
  21042371.6844  -33440522.33849 -25698037.15447  21042369.7034   21042374.5914
      -280.7814       -218.7904
  22626552.3194  -15819958.91348 -11990759.28746  22626551.8304   22626556.9254
      2545.0344       1983.1404
 04 12 10  0  6 30.0000000  0  9G 2G17G 5G 7G10G 4G13G24G30
  20490854.9914  -38629646.99849 -29749725.12447  20490852.8224   20490854.0694
       939.9044        732.3934
  21793170.9914  -29378929.78748 -22567031.28747  21793168.9804   21793173.8424
      2102.5564       1638.3564
  21670939.1584  -23802568.63949 -18219888.13847  21670937.1854   21670943.1424
       611.2484        476.2974
  23527788.9734  -30630519.04947 -23252825.50245  23527786.3224   23527792.3704
     -1853.2994      -1444.1324
  21556506.7404  -22680663.31649 -16619538.67947  21556504.3424   21556510.0934
      3652.2704       2845.9234
  21807546.9454  -31613916.94049 -24262642.97447  21807545.3434   21807548.8334
     -1375.2544      -1071.6274
  24312961.8374   -4474463.10148  -3298305.57046  24312960.0334   24312963.3134
      1183.7704        922.4174
  21043990.4504  -33432017.01249 -25691409.62347  21043987.9834   21043992.9374
      -285.3894       -222.3814
  22612072.7534  -15896061.57648 -12050060.05546  22612070.5524   22612074.6244
      2529.3854       1970.9484
 04 12 10  0  7  0.0000000  0  9G 2G17G 5G 7G10G 4G13G24G30
  20485527.2704  -38657642.00749 -29771539.40747  20485525.2874   20485526.5084
       923.9674        719.9734
  21781197.4544  -29441850.89548 -22616060.71347  21781195.3414   21781199.9774
      2089.6984       1628.3364
  21667514.7404  -23820564.55349 -18233910.94047  21667512.5634   21667518.5064
       586.0454        456.6584
  23538400.5544  -30574749.23447 -23209368.57345  23538398.2864   23538406.6194
     -1866.9294      -1454.7464
  21535706.6274  -22789970.35949 -16704712.96047  21535703.8564   21535709.5614
      3632.4444       2830.4754
  21815419.4144  -31572548.97249 -24230408.18547  21815417.1664   21815420.8084
     -1384.9924      -1079.2144
  24306262.8824   -4509661.84047  -3325733.12746  24306261.2384   24306265.3584
      1160.3674        904.1824
  21045647.0074  -33423307.59049 -25684623.05547  21045645.3454   21045650.3464
      -297.6654       -231.9484
  22597693.5474  -15971626.96448 -12108942.15046  22597691.3564   22597695.3404
      2505.9754       1952.7064
 04 12 10  0  7 30.0000000  0  9G 2G17G 5G 7G10G 4G13G24G30
  20480261.7934  -38685310.89649 -29793099.56347  20480260.1004   20480261.4664
       919.4694        716.4694
  21769268.9734  -29504537.27648 -22664907.22847  21769266.5794   21769271.7474
      2088.2284       1627.1904
  21664205.3624  -23837955.86249 -18247462.62347  21664203.1794   21664208.6834
       572.2464        445.9074
  23549062.9644  -30518721.40947 -23165710.61845  23549061.7544   23549066.3104
     -1869.1714      -1456.4964
  21514990.4804  -22898832.89349 -16789540.89847  21514988.2264   21514993.5354
      3623.8964       2823.8144
  21823317.6274  -31531040.51849 -24198063.92647  21823316.2514   21823320.6474
     -1383.2364      -1077.8474
  24299670.1884   -4544309.76648  -3352731.49946  24299668.3624   24299671.9194
      1148.3374        894.8094
  21047345.6894  -33414382.12649 -25677668.14547  21047343.6644   21047348.7724
      -298.4914       -232.5914
  22583418.4994  -16046640.46748 -12167394.23646  22583417.0034   22583420.5444
      2493.8484       1943.2584
 04 12 10  0  8  0.0000000  0  9G 2G17G 5G 7G10G 4G13G24G30
  20475053.3024  -38712684.68749 -29814429.77347  20475051.0364   20475052.5034
       906.6454        706.4764
  21757378.5684  -29567019.45948 -22713594.61747  21757376.5304   21757382.3324
      2078.4524       1619.5734
  21661005.4934  -23854773.34149 -18260567.15947  21661003.1574   21661008.3224
       550.1424        428.6824
  23559768.8654  -30462466.69147 -23121875.80445  23559766.8824   23559770.4584
     -1879.7254      -1464.7164
  21494353.3524  -23007279.07649 -16874044.39847  21494351.7264   21494357.1944
      3607.0174       2810.6624
  21831237.0764  -31489422.95549 -24165634.65047  21831235.3944   21831240.0574
     -1389.8724      -1083.0164
  24293174.5714   -4578435.99347  -3379323.34445  24293173.7094   24293177.2214
      1127.9664        878.9314
  21049079.6624  -33405272.36649 -25670569.63147  21049077.3424   21049082.4694
      -307.5994       -239.6874
  22569243.0094  -16121130.66048 -12225438.54546  22569241.7364   22569245.9074
      2473.4634       1927.3734
 04 12 10  0  8 30.0000000  0  9G 2G17G 5G 7G10G 4G13G24G30
  20469915.8204  -38739677.52749 -29835463.14747  20469914.3544   20469915.9424
       894.1734        696.7584
  21745543.9264  -29629211.48648 -22762055.90947  21745541.5834   21745547.3724
      2068.9694       1612.1844
  21657930.4014  -23870931.26049 -18273157.75147  21657928.2564   21657933.7014
       528.3904        411.7334
  23570531.9904  -30405899.41147 -23077797.37245  23570530.4654   23570535.6424
     -1889.9764      -1472.7094
  21473813.3544  -23115220.12349 -16958154.27947  21473810.6724   21473816.4804
      3590.3584       2797.6804
  21839193.6664  -31447610.96849 -24133053.88247  21839192.2264   21839196.6524
     -1396.1494      -1087.9084
  24286797.2624   -4611953.18947  -3405440.59246  24286795.2104   24286800.0834
      1107.8504        863.2594
  21050863.4314  -33395892.74749 -25663260.83947  21050862.0284   21050867.4254
      -316.3724       -246.5234
  22555184.0554  -16195009.58948 -12283006.53746  22555183.1054   22555188.0424
      2453.2154       1911.5964
 04 12 10  0  9  0.0000000  0  9G 2G17G 5G 7G10G 4G13G24G30
  20464846.0574  -38766324.52449 -29856227.04747  20464843.7084   20464844.7994
       881.9334        687.2214
  21733757.8174  -29691148.01448 -22810318.12947  21733755.4004   21733760.7364
      2059.7734       1605.0174
  21654974.6164  -23886464.25349 -18285261.39147  21654972.5184   21654978.1734
       506.8484        394.9474
  23581350.7114  -30349054.33347 -23033502.53645  23581347.7704   23581355.0054
     -1899.9424      -1480.4724
  21453362.9884  -23222688.08349 -17041895.50847  21453360.3354   21453366.2484
      3573.8284       2784.8004
  21847180.2424  -31405640.00449 -24100349.24147  21847178.9184   21847183.3904
     -1402.1334      -1092.5714
  24280529.3374   -4644894.46747  -3431109.11445  24280527.3994   24280531.0524
      1087.8784        847.6944
  21052693.6094  -33386278.90249 -25655769.53047  21052691.4684   21052696.5434
      -324.8724       -253.1464
  22541236.0814  -16268309.96748 -12340123.69746  22541234.5454   22541238.8694
      2433.1974       1895.9974
 04 12 10  0  9 30.0000000  0  9G 2G17G 5G 7G10G 4G13G24G30
  20459851.4704  -38792569.43749 -29876677.63147  20459849.6044   20459850.5214
       866.4934        675.1904
  21722030.6784  -29752772.89448 -22858337.50547  21722028.5644   21722034.4294
      2047.3314       1595.3234
  21652149.0094  -23901316.37249 -18296834.48247  21652146.6844   21652151.9274
       482.1134        375.6734
  23592228.9754  -30291875.57047 -22988947.73545  23592228.2924   23592235.0224
     -1913.0844      -1490.7144
  21433013.6424  -23329623.95649 -17125222.10847  21433011.1854   21433016.9564
      3554.0104       2769.3584
  21855208.7514  -31363454.53249 -24067477.44847  21855206.6394   21855210.6934
     -1411.3264      -1099.7344
  24274382.1424   -4677201.77447  -3456283.63345  24274379.7044   24274383.0284
      1064.7264        829.6554
  21054577.6514  -33376375.26749 -25648052.41347  21054576.0234   21054580.8644
      -336.5604       -262.2554
  22527408.7014  -16340973.30048 -12396744.45946  22527407.0464   22527411.0544
      2409.9314       1877.8704
 04 12 10  0 10  0.0000000  0  9G 2G17G 5G 7G10G 4G13G24G30
  20454935.8374  -38818399.06149 -29896804.59847  20454933.9534   20454935.2514
       855.1364        666.3394
  21710366.3274  -29814072.32348 -22906103.26947  21710363.8294   21710370.0104
      2038.9504       1588.7914
  21649454.1824  -23915474.69749 -18307866.95447  21649452.0164   21649457.2624
       461.4754        359.5914
  23603178.8104  -30234350.10247 -22944122.75845  23603175.8544   23603180.9074
     -1922.1434      -1497.7704
  21412768.4734  -23436011.98949 -17208121.85947  21412766.0264   21412771.2554
      3538.2064       2757.0434
  21863278.2614  -31321041.67948 -24034428.46447  21863277.3154   21863281.0394
     -1416.4424      -1103.7234
  24268355.6934   -4708860.72947  -3480952.92645  24268354.5504   24268357.9164
      1045.5694        814.7234
  21056520.5794  -33366169.12449 -25640099.56847  21056518.2284   21056522.4474
      -344.1674       -268.1824
  22513704.9464  -16412984.40148 -12452856.99346  22513703.0204   22513707.1844
      2390.5864       1862.7954
 04 12 10  0 10 30.0000000  0  9G 2G17G 5G 7G10G 4G13G24G30
  20450078.1354  -38843925.78949 -29916695.55747  20450076.4894   20450077.8344
       848.1654        660.9074
  21698741.5964  -29875158.49748 -22953702.86047  21698739.4844   21698745.7344
      2034.9814       1585.6984
  21646870.9844  -23929051.12549 -18318446.00147  21646868.8094   21646874.0894
       445.1924        346.9024
  23614169.1034  -30176590.19447 -22899115.06145  23614167.2074   23614171.0844
     -1926.8604      -1501.4474
  21392607.2164  -23541961.41449 -17290679.83047  21392604.7444   21392609.5864
      3526.6534       2748.0394
  21871372.0444  -31278514.21148 -24001290.17747  21871370.2034   21871373.4774
     -1417.1004      -1104.2344
  24262434.4284   -4739981.63347  -3505202.97545  24262432.6034   24262435.4264
      1030.7114        803.1534
  21058498.8054  -33355772.91149 -25631998.60947  21058496.7414   21058500.4444
      -347.3604       -270.6714
  22500103.9494  -16484453.02048 -12508546.80846  22500102.6644   22500108.0694
      2375.6024       1851.1174
 04 12 10  0 11  0.0000000  0  9G 2G17G 5G 7G10G 4G13G24G30
  20445273.3964  -38869176.38049 -29936371.33947  20445271.5704   20445272.5214
       836.2674        651.6374
  21687152.5244  -29936057.87748 -23001156.90947  21687150.5224   21687156.8214
      2026.0234       1578.7184
  21644393.3984  -23942072.65449 -18328592.66047  21644391.2964   21644395.9934
       423.9814        330.3764
  23625199.8814  -30118622.75447 -22853945.61445  23625197.4554   23625202.7684
     -1936.5454      -1508.9964
  21372524.5724  -23647496.37649 -17372914.83247  21372522.0744   21372527.3524
      3510.0774       2735.1244
  21879481.6064  -31235899.20648 -23968083.66947  21879479.7194   21879482.5674
     -1422.7064      -1108.6034
  24256609.4904   -4770589.28047  -3529053.06245  24256607.8604   24256612.5604
      1010.9224        787.7314
  21060508.4484  -33345213.96649 -25623770.84947  21060505.9974   21060509.5154
      -355.4764       -276.9954
  22486603.9824  -16555403.95048 -12563833.23446  22486601.8684   22486606.0594
      2355.5614       1835.5014
 04 12 10  0 11 30.0000000  0  9G 2G17G 5G 7G10G 4G13G24G30
  20440528.5274  -38894111.70649 -29955801.45447  20440526.3684   20440527.8124
       826.3764        643.9304
  21675605.8934  -29996731.07448 -23048434.70247  21675604.4254   21675611.3964
      2019.1344       1573.3514
  21642028.0914  -23954499.97149 -18338276.29347  21642026.0854   21642031.0774
       404.8124        315.4384
  23636275.6474  -30060408.72847 -22808584.06345  23636273.7494   23636281.4814
     -1944.0594      -1514.8464
  21352528.5244  -23752574.66749 -17454793.98847  21352526.3184   21352532.0134
      3495.4344       2723.7144
  21887614.1314  -31193158.18148 -23934778.96247  21887612.9534   21887616.6634
     -1426.3104      -1111.4094
  24250889.7104   -4800643.29247  -3552471.76145  24250888.2484   24250891.8154
       993.0294        773.7884
  21062555.1014  -33334453.78049 -25615386.28047  21062553.5874   21062556.9514
      -361.5544       -281.7314
  22473208.1744  -16625795.86648 -12618684.06646  22473207.1104   22473211.3354
      2337.5224       1821.4444
 04 12 10  0 12  0.0000000  0  9G 2G17G 5G 7G10G 4G13G24G30
  20435849.0534  -38918703.96649 -29974964.25847  20435846.7624   20435848.1644
       815.6154        635.5444
  21664109.2334  -30057150.16748 -23095514.49347  21664107.1674   21664113.4574
      2011.3194       1567.2604
  21639781.2814  -23966305.52049 -18347475.43247  21639779.2694   21639785.2844
       384.7454        299.8014
  23647408.8464  -30001920.52447 -22763008.90845  23647405.0784   23647410.7114
     -1952.5524      -1521.4674
  21332626.0814  -23857165.97149 -17536293.67047  21332623.1654   21332629.2904
      3479.8364       2711.5604
  21895777.5664  -31150263.72648 -23901354.70447  21895775.5494   21895779.5544
     -1430.7284      -1114.8534
  24245282.6244   -4830114.38447  -3575436.25945  24245281.5384   24245283.9384
       974.2474        759.1494
  21064646.5254  -33323464.91849 -25606823.52547  21064644.5634   21064648.2884
      -368.4924       -287.1384
  22459925.5344  -16695598.77348 -12673075.94746  22459924.2174   22459927.3804
      2318.5124       1806.6344
 04 12 10  0 12 30.0000000  0  9G 2G17G 5G 7G10G 4G13G24G30
  20431229.9914  -38942975.89049 -29993877.44347  20431227.9624   20431229.4854
       804.2714        626.7044
  21652655.6574  -30117337.53048 -23142413.71347  21652653.6904   21652659.8914
      2002.9264       1560.7204
  21637649.8124  -23977512.25549 -18356207.96847  21637647.2744   21637652.3914
       364.1524        283.7554
  23658586.1074  -29943181.10647 -22717237.99945  23658583.9934   23658589.0574
     -1961.5434      -1528.4824
  21312811.9014  -23961290.15349 -17617429.35047  21312808.9264   21312814.9394
      3463.5724       2698.8874
  21903964.5774  -31107238.91749 -23867828.87747  21903962.8824   21903967.6134
     -1435.7564      -1118.7694
  24239780.1804   -4859023.48547  -3597962.80045  24239779.4684   24239782.5504
       954.8284        744.0214
  21066775.9744  -33312270.95849 -25598100.95047  21066774.6264   21066778.4994
      -376.0024       -292.9894
  22446749.7894  -16764833.38048 -12727024.99246  22446748.8034   22446752.9824
      2298.9254       1791.3704
 04 12 10  0 13  0.0000000  0  9G 2G17G 5G 7G10G 4G13G24G30
  20426670.8044  -38966935.10349 -30012546.95247  20426668.7054   20426670.2544
       791.5434        616.7864
  21641246.3174  -30177300.48148 -23189138.07447  21641243.6354   21641248.9964
      1993.1164       1553.0764
  21635629.0034  -23988127.82849 -18364479.85447  21635626.7274   21635631.6884
       342.0974        266.5704
  23669811.4544  -29884198.08747 -22671277.22645  23669808.3364   23669812.8884
     -1972.0004      -1536.6254
  21293085.3674  -24064952.11449 -17698204.88047  21293082.8724   21293088.1884
      3445.7744       2685.0184
  21912175.7884  -31064091.82649 -23834207.77347  21912173.6614   21912178.3314
     -1442.1364      -1123.7424
  24234382.9654   -4887376.88147  -3620056.31945  24234382.4514   24234388.8234
       933.9224        727.7294
  21068944.3424  -33300879.43349 -25589224.42247  21068942.3364   21068946.8424
      -384.8764       -299.9034
  22433683.0134  -16833505.06548 -12780535.38146  22433681.4004   22433685.4784
      2277.7734       1774.8864
 04 12 10  0 13 30.0000000  0  9G 2G17G 5G 7G10G 4G13G24G30
  20422177.3424  -38990547.56549 -30030946.25947  20422175.3264   20422176.6934
       781.4654        608.9344
  21629884.6504  -30237004.52748 -23235660.69447  21629882.5614   21629887.9374
      1985.9874       1547.5204
  21633727.7174  -23998118.14249 -18372264.52447  21633725.7974   21633731.1254
       322.7794        251.5164
  23681083.4514  -29824937.29347 -22625100.01345  23681082.8934   23681089.4954
     -1979.7544      -1542.6674
  21273453.9564  -24168114.76349 -17778591.34747  21273451.4214   21273456.6774
      3430.6014       2673.1954
  21920415.7334  -31020788.55148 -23800464.97147  21920413.6394   21920418.1834
     -1445.8374      -1126.6264
  24229100.2004   -4915138.62847  -3641688.81645  24229099.0444   24229104.5254
       915.6744        713.5104
  21071156.2854  -33289256.67349 -25580167.72047  21071154.3084   21071158.9694
      -391.0934       -304.7484
  22420728.4624  -16901577.74848 -12833579.02646  22420727.1404   22420732.1924
      2259.2934       1760.4864
 04 12 10  0 14  0.0000000  0  9G 2G17G 5G 7G10G 4G13G24G30
  20417744.9664  -39013838.50949 -30049095.03647  20417743.0494   20417744.3444
       772.2624        601.7624
  21618568.0104  -30296474.69848 -23282001.07547  21618565.8754   21618570.6244
      1979.6964       1542.6194
  21631941.6064  -24007508.41649 -18379581.63747  21631939.0634   21631944.4064
       304.2904        237.1094
  23692411.4264  -29765424.13247 -22578726.16245  23692408.2284   23692415.2144
     -1986.6264      -1548.0134
  21253913.4424  -24270800.76749 -17858606.37747  21253911.0524   21253916.5864
      3416.1884       2661.9634
  21928679.6474  -30977354.76748 -23766620.47347  21928678.5554   21928683.0544
     -1448.6484      -1128.8164
  24223927.0294   -4942332.31047  -3662878.71045  24223925.2784   24223929.7254
       898.2244        699.9204
  21073407.4944  -33277428.65549 -25570951.08047  21073405.0694   21073410.1524
      -396.4114       -308.8914
  22407884.0164  -16969074.34748 -12886173.74946  22407882.8634   22407888.1434
      2241.5804       1746.6844
 04 12 10  0 14 30.0000000  0  9G 2G17G 5G 7G10G 4G13G24G30
  20413365.7924  -39036853.12949 -30067028.49847  20413363.7324   20413364.7444
       762.4784        594.1384
  21607286.6134  -30355756.10948 -23328194.37447  21607284.7804   21607289.6924
      1972.8184       1537.2604
  21630259.2884  -24016344.36449 -18386466.81047  21630257.3554   21630262.5114
       285.2234        222.2514
  23703773.9114  -29705704.19447 -22532191.19345  23703773.6614   23703778.9644
     -1994.1204      -1553.8694
  21234456.1714  -24373052.93549 -17938283.35247  21234453.2334   21234458.8164
      3401.0874       2650.1964
  21936962.1424  -30933836.09848 -23732709.82347  21936960.2044   21936963.9974
     -1452.0844      -1131.4954
  24218850.8714   -4969002.16847  -3683660.37445  24218849.4874   24218853.4354
       880.1554        685.8384
  21075688.2824  -33265440.84349 -25561609.92547  21075686.0644   21075691.4774
      -402.3254       -313.5004
  22395142.1294  -17036038.38248 -12938353.50546  22395140.7924   22395144.5644
      2223.1654       1732.3354
 04 12 10  0 15  0.0000000  0  9G 2G17G 5G 7G10G 4G13G24G30
  20409050.4844  -39059533.14749 -30084701.22447  20409048.0704   20409049.3384
       748.7794        583.4634
  21596053.3564  -30414790.16848 -23374194.93347  21596051.0574   21596055.8604
      1962.0554       1528.8734
  21628695.2654  -24024568.15749 -18392874.97747  21628692.6934   21628698.0214
       262.2994        204.3894
  23715193.4954  -29645719.45447 -22485449.86945  23715190.3544   23715194.6084
     -2005.5004      -1562.7214
  21215091.4064  -24474810.19749 -18017574.69247  21215089.1454   21215095.1804
      3382.0134       2635.3354
  21945269.7344  -30890174.92248 -23698688.12047  21945268.4084   21945271.8824
     -1459.3274      -1137.1384
  24213885.8044   -4995087.99147  -3703986.99045  24213884.6934   24213890.5134
       858.1444        668.6804
  21078010.4894  -33253235.62149 -25552099.36447  21078008.6844   21078014.3004
      -412.0864       -321.1064
  22382511.6344  -17102409.39848 -12990071.16046  22382510.1574   22382514.6614
      2200.8824       1714.9724
 04 12 10  0 15 30.0000000  0  9G 2G17G 5G 7G10G 4G13G24G30
  20404805.3554  -39081840.83449 -30102083.83147  20404803.1244   20404804.2174
       739.2514        576.0404
  21584874.1824  -30473539.02448 -23419973.25547  21584871.3904   21584876.3074
      1955.4114       1523.6964
  21627253.7234  -24032142.02949 -18398776.70847  21627251.2684   21627256.3854
       243.5094        189.7484
  23726661.2214  -29585432.31247 -22438472.90445  23726660.8644   23726665.7064
     -2012.6994      -1568.3344
  21195830.1304  -24576031.87549 -18096448.68547  21195827.5184   21195833.3254
      3366.9874       2623.6244
  21953612.6424  -30846333.63548 -23664526.06747  21953611.5284   21953614.7304
     -1462.4574      -1139.5774
  24209040.8374   -5020550.98347  -3723828.26345  24209039.8574   24209044.0714
       840.2544        654.7474
  21080381.7954  -33240775.62949 -25542390.28547  21080379.6434   21080385.3654
      -417.7254       -325.4994
  22370001.9454  -17168147.66948 -13041295.75446  22370000.3744   22370005.6634
      2182.6044       1700.7304
 04 12 10  0 16  0.0000000  0  9G 2G17G 5G 7G10G 4G13G24G30
  20400614.6434  -39103859.88949 -30119241.53247  20400612.7454   20400614.1214
       728.5624        567.7114
  21573732.3294  -30532086.03848 -23465594.29047  21573730.1504   21573735.9374
      1947.6194       1517.6264
  21625919.4504  -24039150.24849 -18404237.66747  21625917.5344   21625922.5594
       223.5974        174.2324
  23738173.9104  -29524926.78647 -22391325.79945  23738172.9764   23738180.3504
     -2021.0624      -1574.8524
  21176654.7154  -24676799.37049 -18174968.77047  21176651.9464   21176657.6374
      3350.7284       2610.9554
  21961974.6444  -30802396.21748 -23630289.10447  21961972.6164   21961976.1474
     -1466.7274      -1142.9044
  24204298.8764   -5045473.48047  -3743248.36445  24204297.7984   24204301.4214
       821.1384        639.8384
  21082785.1544  -33228144.99249 -25532548.23147  21082783.3844   21082788.6334
      -424.4624       -330.7514
  22357597.4904  -17233335.04048 -13092091.08546  22357595.7234   22357602.2874
      2163.1474       1685.5684
 04 12 10  0 16 30.0000000  0  9G 2G17G 5G 7G10G 4G13G24G30
  20396480.9134  -39125581.40649 -30136167.38747  20396479.2504   20396480.4934
       718.7224        560.0424
  21562631.3284  -30590421.90448 -23511050.79147  21562628.9754   21562635.3254
      1940.6384       1512.1854
  21624695.3564  -24045584.06849 -18409251.02947  21624693.1044   21624698.5624
       204.5554        159.3934
  23749732.6394  -29464193.67047 -22344001.37745  23749732.2914   23749737.4704
     -2028.5664      -1580.7004
  21157567.4774  -24777101.01549 -18253125.86347  21157565.2164   21157570.5214
      3335.2554       2598.8984
  21970355.0444  -30758354.17848 -23595970.62947  21970353.5074   21970357.4334
     -1470.1494      -1145.5704
  24199661.4944   -5069844.78847  -3762238.98045  24199659.6104   24199665.5424
       802.8174        625.5754
  21085223.2814  -33215335.00049 -25522566.41447  21085221.2504   21085225.9544
      -430.3264       -335.3204
  22345299.8064  -17297960.46048 -13142448.55046  22345298.0414   22345302.1574
      2144.4494       1670.9984
 04 12 10  0 17  0.0000000  0  9G 2G17G 5G 7G10G 4G13G24G30
  20392402.0184  -39147018.70049 -30152871.76447  20392399.9124   20392401.0404
       707.9284        551.6314
  21551568.1574  -30648559.52948 -23556352.81047  21551565.7894   21551572.1054
      1932.6854       1505.9874
  21623578.1674  -24051456.86249 -18413827.24647  21623575.8394   21623580.8654
       184.4974        143.7644
  23761333.4994  -29403246.70147 -22296510.27545  23761330.8084   23761336.1894
     -2036.9364      -1587.2204
  21138567.7864  -24876947.14649 -18330928.01147  21138564.9314   21138570.2324
      3318.6634       2585.9704
  21978753.7194  -30714221.15748 -23561581.26247  21978751.5124   21978756.7414
     -1474.4854      -1148.9494
  24195127.2504   -5093676.99547  -3780809.51745  24195125.4614   24195127.4654
       783.5044        610.5274
  21087692.8974  -33202359.20449 -25512455.39647  21087690.6644   21087694.9714
      -437.2144       -340.6874
  22333106.5094  -17362035.32248 -13192377.00946  22333105.0624   22333108.9994
      2124.7604       1655.6574
 04 12 10  0 17 30.0000000  0  9G 2G17G 5G 7G10G 4G13G24G30
  20388393.3504  -39168086.30649 -30169288.07247  20388391.0954   20388392.1404
       698.4904        544.2774
  21540558.0454  -30706413.74848 -23601434.00047  21540555.9004   21540562.5364
      1926.1234       1500.8744
  21622582.3764  -24056683.83049 -18417900.22847  21622580.6514   21622586.2574
       165.8654        129.2474
  23772986.1724  -29342000.99647 -22248786.33345  23772983.9124   23772989.3034
     -2044.0604      -1592.7774
  21119670.7454  -24976250.26449 -18408307.02147  21119668.0644   21119673.4874
      3303.4414       2574.1094
  21987184.7754  -30669912.36348 -23527054.94247  21987183.0934   21987187.9914
     -1477.4514      -1151.2604
  24190708.9704   -5116883.62447  -3798892.56945  24190708.5514   24190713.9024
       765.4894        596.4864
  21090209.5074  -33189133.21849 -25502149.42247  21090207.3324   21090211.5164
      -442.6474       -344.9194
  22321034.5874  -17425472.42948 -13241808.51546  22321032.7044   22321036.9554
      2106.3364       1641.3014
 04 12 10  0 18  0.0000000  0  9G 2G17G 5G 7G10G 4G13G24G30
  20384427.4824  -39188923.95949 -30185525.20147  20384425.7424   20384427.0904
       689.6164        537.3634
  21529576.7844  -30764123.52748 -23646402.63947  21529574.2594   21529580.9344
      1920.1294       1496.2044
  21621684.8134  -24061404.88949 -18421578.99347  21621682.6544   21621688.1144
       147.8084        115.1744
  23784669.4384  -29280595.96147 -22200938.26045  23784668.7744   23784673.7974
     -2050.5714      -1597.8524
  21100851.3184  -25075146.98449 -18485369.35847  21100848.6524   21100854.3354
      3288.6364       2562.5714
  21995623.5314  -30625567.35748 -23492500.40147  21995622.0144   21995626.9944
     -1479.8744      -1153.1494
  24186385.0034   -5139602.50647  -3816595.59045  24186385.4154   24186390.7644
       748.0134        582.8674
  21092746.7114  -33175796.67549 -25491757.30247  21092744.8774   21092749.4764
      -447.5124       -348.7114
  22309058.2544  -17488409.29948 -13290850.21946  22309056.8364   22309061.7304
      2088.4284       1627.3484
 04 12 10  0 18 30.0000000  0  9G 2G17G 5G 7G10G 4G13G24G30
  20380524.1364  -39209438.73649 -30201510.73847  20380521.8654   20380522.8804
       679.0234        529.1084
  21518640.3344  -30821595.77048 -23691186.19247  21518637.5934   21518644.6034
      1912.3784       1490.1644
  21620900.1244  -24065527.38749 -18424791.34247  21620898.0364   21620903.3334
       128.0464         99.7774
  23796404.8784  -29218938.80247 -22152893.80445  23796403.0224   23796408.6364
     -2058.7854      -1604.2494
  21082127.8094  -25173541.78249 -18562040.59247  21082125.1924   21082130.6844
      3272.0394       2549.6394
  22004086.1204  -30581093.30748 -23457845.31047  22004084.8934   22004089.0934
     -1483.9794      -1156.3464
  24182174.1884   -5161739.55947  -3833845.22545  24182173.1634   24182177.1504
       728.7664        567.8754
  21095323.5324  -33162256.90649 -25481206.82847  21095321.3114   21095326.0374
      -454.1074       -353.8514
  22297195.6204  -17550751.14048 -13339428.27146  22297193.6194   22297197.3804
      2068.7684       1612.0284
 04 12 10  0 19  0.0000000  0  9G 2G17G 5G 7G10G 4G13G24G30
  20376672.5274  -39229677.76349 -30217281.40647  20376670.5394   20376671.5564
       668.0924        520.5914
  21507739.5434  -30878877.34748 -23735821.16447  21507737.3434   21507743.6634
      1904.2894       1483.8614
  21620220.4614  -24069099.20049 -18427574.58647  21620218.4634   21620223.6774
       107.9794         84.1414
  23808176.5074  -29157077.14147 -22104689.98545  23808174.7774   23808179.5584
     -2067.2924      -1610.8764
  21063489.9724  -25271479.35749 -18638355.55247  21063487.7934   21063494.0194
      3255.0194       2536.3784
  22012565.6764  -30536538.05848 -23423126.93047  22012563.9144   22012566.8654
     -1488.3894      -1159.7864
  24178065.4414   -5183340.81847  -3850677.38445  24178063.0304   24178065.7154
       709.1934        552.6274
  21097929.9244  -33148561.53449 -25470535.09747  21097927.4624   21097932.0334
      -461.0284       -359.2434
  22285436.9264  -17612543.17548 -13387577.90946  22285435.1834   22285438.7674
      2048.6474       1596.3494
 04 12 10  0 19 30.0000000  0  9G 2G17G 5G 7G10G 4G13G24G30
  20372900.0774  -39249503.28049 -30232729.86147  20372898.0784   20372899.0254
       657.3564        512.2264
  21496902.2004  -30935830.15649 -23780199.96647  21496900.0504   21496905.3914
      1896.3504       1477.6744
  21619671.9504  -24071982.98349 -18429821.70847  21619669.6854   21619674.8434
        88.0794         68.6334
  23820015.1194  -29094873.41247 -22056219.56445  23820010.9424   23820016.5644
     -2075.7054      -1617.4334
  21044967.1254  -25368819.33649 -18714204.85147  21044964.5894   21044970.4134
      3238.0934       2523.1884
  22021085.7174  -30491764.06248 -23388238.09247  22021083.9084   22021086.9974
     -1492.6504      -1163.1044
  24174079.8714   -5204267.31847  -3866983.70045  24174078.9764   24174084.5424
       689.6894        537.4234
  21100591.3764  -33134573.00349 -25459634.93247  21100589.3854   21100594.0044
      -467.7414       -364.4734
  22273809.2064  -17673646.07748 -13435190.55646  22273807.6844   22273811.5154
      2028.7144       1580.8154
 04 12 10  0 20  0.0000000  0  9G 2G17G 5G 7G10G 4G13G24G30
  20369181.4604  -39269046.62249 -30247958.42447  20369179.1124   20369180.2084
       645.5614        503.0364
  21486102.9134  -30992585.69949 -23824425.05447  21486100.3544   21486105.4724
      1887.3994       1470.7014
  21619229.0914  -24074310.51449 -18431635.37947  21619226.7864   21619232.0794
        67.1904         52.3574
  23831889.1854  -29032459.46447 -22007585.32945  23831888.4554   23831891.6984
     -2085.1144      -1624.7594
  21026532.9794  -25465690.52949 -18789688.86547  21026530.4334   21026535.5234
      3220.0664       2509.1424
  22029621.5414  -30446902.99048 -23353281.39847  22029620.6924   22029623.7264
     -1497.9124      -1167.2034
  24170202.7514   -5224649.15947  -3882865.65245  24170200.5924   24170205.2184
       669.1494        521.4134
  21103283.9134  -33120423.14549 -25448609.05947  21103282.0234   21103286.5344
      -475.4814       -370.5054
  22262287.6144  -17734189.18848 -13482367.00146  22262286.2174   22262290.9134
      2007.6374       1564.3934
 04 12 10  0 20 30.0000000  0  9G 2G17G 5G 7G10G 4G13G24G30
  20365513.9254  -39288315.18349 -30262972.87947  20365512.0264   20365513.5464
       639.5914        498.3814
  21475339.5814  -31049150.61449 -23868501.59947  21475336.6864   21475341.6764
      1884.2204       1468.2234
  21618890.2784  -24076089.53049 -18433021.63747  21618888.4634   21618893.6214
        52.0874         40.5884
  23843806.0884  -28969842.56347 -21958792.95245  23843804.4794   23843811.1714
     -2088.6434      -1627.5094
  21008187.3784  -25562097.84449 -18864811.41447  21008184.5704   21008189.9024
      3207.7244       2499.5254
  22038173.8064  -30401962.45048 -23318262.78647  22038172.2194   22038176.3614
     -1497.3864      -1166.7944
  24166427.8304   -5244492.29847  -3898327.83045  24166426.0824   24166429.2334
       654.3954        509.9144
  21106005.7844  -33106119.65049 -25437463.46747  21106003.7844   21106008.5784
      -477.4414       -372.0324
  22250872.1444  -17794178.17548 -13529111.64946  22250870.7014   22250875.6364
      1992.2944       1552.4364
 04 12 10  0 21  0.0000000  0  9G 2G17G 5G 7G10G 4G13G24G30
  20361890.6554  -39307356.03749 -30277809.90047  20361888.9164   20361890.0634
       631.5654        492.1274
  21464601.9454  -31105571.93549 -23912466.25447  21464599.7604   21464604.8364
      1878.9994       1464.1554
  21618647.8484  -24077367.82549 -18434017.73047  21618645.2704   21618650.3034
        34.9254         27.2164
  23855749.9054  -28907070.29247 -21909879.55945  23855747.3084   23855755.8664
     -2094.3204      -1631.9284
  20989922.1544  -25658085.99049 -18939607.34647  20989919.4394   20989924.3694
      3193.2784       2488.2694
  22046731.7094  -30356989.78948 -23283219.15547  22046730.2344   22046734.9644
     -1498.9194      -1167.9894
  24162744.7474   -5263842.91747  -3913406.25845  24162744.1804   24162745.6274
       637.5414        496.7774
  21108747.4674  -33091710.30449 -25426235.40047  21108745.9354   21108750.6324
      -481.3994       -375.1164
  22239553.7464  -17853658.32248 -13575459.81146  22239552.2524   22239556.7334
      1974.8524       1538.8454
 04 12 10  0 21 30.0000000  0  9G 2G17G 5G 7G10G 4G13G24G30
  20358318.1344  -39326132.72849 -30292441.08047  20358315.7094   20358317.0624
       619.0984        482.4134
  21453899.5254  -31161813.18949 -23956290.59347  21453897.1454   21453902.1454
      1869.2974       1456.5944
  21618506.5544  -24078109.36549 -18434595.56747  21618504.2924   21618508.8344
        13.4034         10.4454
  23867731.6734  -28844106.43047 -21860816.88145  23867729.4004   23867735.5584
     -2104.4244      -1639.8154
  20971743.3284  -25753615.89649 -19014046.21147  20971740.3624   20971745.7804
      3174.2924       2473.4734
  22055301.9834  -30311948.82548 -23248122.31347  22055300.7464   22055306.0264
     -1504.8494      -1172.6094
  24159162.6244   -5282663.35247  -3928071.50345  24159160.2574   24159166.7904
       616.0764        480.0724
  21111516.8224  -33077158.58349 -25414896.39047  21111515.2264   21111520.0254
      -489.7874       -381.6524
  22228339.6114  -17912591.45648 -13621381.71646  22228337.8914   22228342.6444
      1952.9274       1521.7594
 04 12 10  0 22  0.0000000  0  9G 2G17G 5G 7G10G 4G13G24G30
  20354785.5154  -39344693.04749 -30306903.66247  20354783.8554   20354785.3874
       615.9214        479.9384
  21443222.9334  -31217921.57949 -24000011.40347  21443220.0224   21443225.0284
      1868.9024       1456.2864
  21618458.5044  -24078362.28049 -18434792.65747  21618455.9434   21618461.4064
         1.1594           .9054
  23879745.7614  -28780998.92547 -21811642.26745  23879741.5544   23879744.8734
     -2105.0814      -1640.3244
  20953643.0404  -25848732.90649 -19088163.33947  20953640.3124   20953646.1244
      3164.5024       2465.8454
  22063877.6334  -30266887.57948 -23213009.66347  22063876.3214   22063881.0714
     -1501.4974      -1169.9984
  24155674.5014   -5301000.15647  -3942359.90745  24155672.1434   24155675.5984
       604.0174        470.6674
  21114304.8394  -33062512.54949 -25403483.88747  21114302.3634   21114307.3564
      -488.9134       -380.9724
  22217220.6854  -17971023.61548 -13666913.25946  22217218.6794   22217223.1794
      1940.2384       1511.8754
 04 12 10  0 22 30.0000000  0  9G 2G17G 5G 7G10G 4G13G24G30
  20351302.5924  -39362997.47549 -30321166.84447  20351300.6734   20351302.3664
       605.7264        471.9944
  21432577.9154  -31273857.27649 -24043597.65247  21432575.5444   21432581.1214
      1861.4764       1450.5014
  21618511.0264  -24078087.97049 -18434578.92847  21618508.4354   21618513.1534
       -18.0444        -14.0604
  23891784.3354  -28717708.67747 -21762325.17045  23891784.5974   23891787.5444
     -2112.8604      -1646.3874
  20935628.2694  -25943395.03949 -19161926.00747  20935625.9124   20935632.4384
      3147.6744       2452.7314
  22072464.7764  -30221767.01048 -23177850.78447  22072462.6984   22072466.8874
     -1505.0964      -1172.8014
  24152285.6884   -5318812.87647  -3956239.94345  24152283.6844   24152287.1974
       584.9194        455.7824
  21117116.6154  -33047733.32549 -25391967.60147  21117114.6054   21117119.8324
      -494.9944       -385.7104
  22206203.4124  -18028913.69848 -13712022.40846  22206202.4784   22206207.1544
      1920.5264       1496.5114
 04 12 10  0 23  0.0000000  0  9G 2G17G 5G 7G10G 4G13G24G30
  20347870.7154  -39381033.81849 -30335221.13347  20347868.5164   20347870.3434
       595.9274        464.3594
  21421968.5324  -31329607.99549 -24087039.75047  21421966.1844   21421972.0504
      1854.4684       1445.0384
  21618665.0054  -24077274.88549 -18433945.36947  21618662.6624   21618667.7134
       -36.8754        -28.7334
  23903865.5704  -28654223.63847 -21712856.29845  23903863.1414   23903870.2124
     -2120.0824      -1652.0244
  20917704.5184  -26037587.58349 -19235322.76247  20917701.7194   20917707.6854
      3131.0974       2439.8164
  22081064.4544  -30176574.65248 -23142635.96147  22081062.5254   22081066.2964
     -1508.3554      -1175.3424
  24148997.6584   -5336087.95647  -3969701.03345  24148994.7904   24148999.8394
       566.0384        441.0684
  21119956.2404  -33032808.89049 -25380338.16647  21119954.5764   21119960.0074
      -500.7014       -390.1584
  22195293.5314  -18086247.73648 -13756698.26846  22195291.7994   22195296.6224
      1901.0724       1481.3534
 04 12 10  0 23 29.9990000  0  9G 2G17G 5G 7G10G 4G13G24G30
  20344488.9934  -39398802.63849 -30349066.96147  20344486.9854   20344488.6264
       588.5234        458.5904
  21411395.1984  -31385172.64749 -24130336.85747  21411392.6984   21411398.5664
      1849.8024       1441.4044
  21618922.2504  -24075924.53049 -18432893.16247  21618919.9604   21618925.2144
       -53.2974        -41.5294
  23915982.8364  -28590547.34247 -21663238.48745  23915980.4784   23915986.5994
     -2125.1094      -1655.9194
  20899871.2494  -26131306.21749 -19308350.26947  20899868.6144   20899873.4424
      3116.8474       2428.7124
  22089676.6634  -30131313.47348 -23107367.50246  22089675.0414   22089677.7124
     -1509.1904      -1175.9924
  24145810.8464   -5352825.01447  -3982742.89045  24145809.9224   24145813.2294
       549.5514        428.2174
  21122823.9274  -33017741.24249 -25368597.13647  21122821.8524   21122826.9734
      -503.9834       -392.7144
  22184489.0874  -18143023.16348 -13800938.84746  22184487.5704   22184492.3134
      1883.9954       1468.0474
 04 12 10  0 23 59.9990000  0  9G 2G17G 5G 7G10G 4G13G24G30
  20341154.1884  -39416327.71649 -30362722.86947  20341152.0534   20341153.6664
       580.3504        452.2214
  21400852.1904  -31440577.41149 -24173509.39047  21400849.6214   21400855.1944
      1844.3954       1437.1914
  21619277.1244  -24074060.03249 -18431440.32747  21619274.5974   21619279.7774
       -70.4354        -54.8834
  23928134.7394  -28526698.74847 -21613486.40745  23928131.6764   23928138.1484
     -2130.8084      -1660.3734
  20882121.5834  -26224577.64449 -19381029.30947  20882119.3774   20882124.0844
      3101.7884       2416.9774
  22098298.4234  -30086003.61548 -23072061.10246  22098296.7634   22098300.6184
     -1510.7884      -1177.2364
  24142722.7674   -5369047.12147  -3995383.49745  24142722.5974   24142726.8204
       532.4154        414.8724
  21125714.3614  -33002552.39549 -25356761.66547  21125712.0964   21125717.1324
      -508.0434       -395.8774
  22173786.4774  -18199264.97048 -13844763.63146  22173785.2664   22173790.1294
      1866.0964       1454.1024
 04 12 10  0 24 29.9990000  0  9G 2G17G 5G 7G10G 4G13G24G30
  20337868.2474  -39433595.00849 -30376177.90647  20337866.2224   20337867.9384
       570.3624        444.4394
  21390341.6024  -31495806.89649 -24216545.34147  21390339.8124   21390345.4224
      1837.1794       1431.5684
  21619732.1094  -24071669.20549 -18429577.36647  21619729.8924   21619734.5644
       -89.3454        -69.6184
  23940319.5744  -28462666.98747 -21563591.52445  23940317.0844   23940321.3544
     -2138.2254      -1666.1524
  20864461.8084  -26317383.06349 -19453345.20447  20864459.3104   20864463.9214
      3084.8574       2403.7844
  22106931.4104  -30040633.42348 -23036707.70146  22106930.0054   22106935.1374
     -1514.1764      -1179.8774
  24139739.7834   -5384739.34647  -4007611.18945  24139737.9904   24139740.9944
       513.4364        400.0784
  21128629.8284  -32987229.69749 -25344821.89447  21128627.8524   21128632.8894
      -513.8644       -400.4134
  22163189.2124  -18254956.36448 -13888159.51346  22163187.5444   22163191.8314
      1846.3464       1438.7104
 04 12 10  0 24 59.9990000  0  9G 2G17G 5G 7G10G 4G13G24G30
  20334646.5154  -39450523.80349 -30389369.17347  20334644.8754   20334646.6654
       558.9144        435.5174
  21379881.1484  -31550779.75149 -24259381.31547  21379878.5904   21379884.2674
      1828.4184       1424.7404
  21620302.7484  -24068671.65949 -18427241.62747  21620300.2964   21620305.5054
      -109.7254        -85.5004
  23952551.1114  -28398371.26247 -21513490.96245  23952549.4844   23952558.6664
     -2147.2344      -1673.1634
  20846904.8384  -26409638.83149 -19525232.79547  20846902.6514   20846908.3684
      3066.3054       2389.3274
  22115593.6914  -29995122.06448 -23001244.30646  22115591.7994   22115595.9034
     -1519.0504      -1183.6754
  24136867.8814   -5399819.05047  -4019361.60345  24136867.0154   24136872.0234
       492.7504        383.9604
  21131585.4874  -32971692.75249 -25332715.17647  21131584.0564   21131589.2904
      -521.1644       -406.1024
  22152711.1534  -18310014.72548 -13931062.12946  22152710.0924   22152715.4384
      1825.0304       1422.1054
 04 12 10  0 25 29.9990000  0  9G 2G17G 5G 7G10G 4G13G24G30
  20331477.2134  -39467178.55249 -30402346.89147  20331475.4794   20331477.4684
       551.3884        429.6524
  21369456.1894  -31605560.64149 -24302067.70447  21369454.2584   21369460.2184
      1823.6024       1420.9894
  21620975.8614  -24065132.89749 -18424484.16947  21620973.5494   21620978.6264
      -126.1594        -98.3054
  23964830.8734  -28333876.50246 -21463235.35445  23964823.4644   23964828.7834
     -2152.1784      -1677.0194
  20829442.1054  -26501407.33249 -19596740.66347  20829439.5454   20829445.8384
      3051.6094       2377.8764
  22124267.9804  -29949534.46348 -22965721.50647  22124266.8734   22124271.4694
     -1519.9984      -1184.4154
  24134104.5644   -5414350.80247  -4030685.02045  24134102.5014   24134106.6214
       476.1304        371.0084
  21134571.0164  -32956006.17149 -25320491.86247  21134569.3224   21134574.1754
      -524.5614       -408.7494
  22142342.2394  -18364503.15548 -13973520.65346  22142341.3184   22142345.4684
      1807.5984       1408.5204
 04 12 10  0 25 59.9990000  0  9G 2G17G 5G 7G10G 4G13G24G30
  20328354.7854  -39483590.02849 -30415135.04347  20328352.5974   20328354.6074
       543.3584        423.3954
  21359062.6544  -31660179.58249 -24344627.89647  21359060.8404   21359066.7004
      1818.2854       1416.8444
  21621745.9054  -24061083.88349 -18421329.11147  21621743.9384   21621749.0104
      -143.0664       -111.4804
  23977130.9384  -28269213.82246 -21412848.92145  23977129.2714   23977134.4144
     -2157.8324      -1681.4264
  20812067.2614  -26592716.88049 -19667890.91447  20812064.5654   20812070.4354
      3036.3674       2365.9984
  22132952.3844  -29903901.42048 -22930163.29747  22132950.5794   22132954.8544
     -1521.4664      -1185.5584
  24131437.6014   -5428364.17847  -4041604.55645  24131436.8164   24131438.9224
       458.9294        357.6044
  21137578.8104  -32940200.82449 -25308175.99947  21137576.7354   21137581.7964
      -528.4444       -411.7754
  22132077.4774  -18418450.72048 -14015557.72146  22132075.7554   22132078.3794
      1789.6364       1394.5204
 04 12 10  0 26 29.9990000  0  9G 2G17G 5G 7G10G 4G13G24G30
  20325280.9964  -39499742.28149 -30427721.20247  20325279.0364   20325281.0244
       533.1784        415.4624
  21348703.9704  -31714620.56549 -24387049.41847  21348701.1754   21348706.7014
      1810.8334       1411.0384
  21622616.2954  -24056509.90649 -18417764.99447  21622614.4314   21622619.4304
      -162.0824       -126.2964
  23989471.0854  -28204367.67147 -21362319.44545  23989469.1864   23989474.1134
     -2165.4784      -1687.3904
  20794782.6504  -26683549.16349 -19738669.27047  20794780.0624   20794785.8424
      3018.8774       2352.3714
  22141647.2494  -29858207.20448 -22894557.41847  22141645.8524   22141650.3004
     -1525.0384      -1188.3414
  24128872.3124   -5441841.97947  -4052106.72245  24128870.5414   24128876.0234
       439.4354        342.4164
  21140612.0294  -32924261.44049 -25295755.69647  21140610.2164   21140615.0094
      -534.4554       -416.4594
  22121917.2144  -18471840.09048 -14057159.82446  22121915.8674   22121919.8004
      1769.4584       1378.7964
 04 12 10  0 26 59.9990000  0  9G 2G17G 5G 7G10G 4G13G24G30
  20322259.3884  -39515623.04049 -30440095.80247  20322257.1404   20322259.0414
       525.3194        409.3394
  21338379.2294  -31768871.04549 -24429322.50247  21338377.5774   21338383.0134
      1805.6824       1407.0254
  21623589.4044  -24051399.24949 -18413782.68547  21623587.2164   21623592.1464
      -178.7974       -139.3224
  24001850.5534  -28139325.88947 -21311637.55345  24001847.1444   24001851.7474
     -2170.7974      -1691.5364
  20777591.8594  -26773889.64449 -19809064.42047  20777589.0624   20777594.4494
      3003.6304       2340.4904
  22150355.9054  -29812439.53948 -22858894.30647  22150354.7664   22150359.5064
     -1526.3144      -1189.3344
  24126412.7484   -5454771.10447  -4062181.36445  24126410.7234   24126415.1474
       422.3284        329.0874
