     2.10           OBSERVATION DATA    G (GPS)             RINEX VERSION / TYPE
teqc  2004Dec3      Gordon Adams        20050221 04:45:41UTCPGM / RUN BY / DATE
Solaris 2.7|Ultra 2|cc SC5.0|=+-|*Sparc                     COMMENT
teqc  2000Jul20     CORS-ADM Account    20041213 05:49:58UTCCOMMENT
teqc  2000Jul20     CORS/NGS/NOAA       20041213 05:49:52UTCCOMMENT
BIT 2 OF LLI FLAGS DATA COLLECTED UNDER A/S CONDITION       COMMENT
htv1                                                        MARKER NAME
Jason Cockrell      U.S. Coast Guard                        OBSERVER / AGENCY
2199912124          ASHTECH Z-XII3      RD00                REC # / TYPE / VERS
16020               ASH700829.3     SNOW                    ANT # / TYPE
   350722.8656 -5130731.1515  3760329.7009                  APPROX POSITION XYZ
        0.0000        0.0000        0.0000                  ANTENNA: DELTA H/E/N
     1     1                                                WAVELENGTH FACT L1/2
     7    C1    L1    L2    P1    P2    D1    D2            # / TYPES OF OBSERV
    30.0000                                                 INTERVAL
 SNR is mapped to RINEX snr flag value [1-9]                COMMENT
  L1: 1 -> 1;  90 -> 5; 210 -> 9                            COMMENT
  L2: 1 -> 1; 150 -> 5; 250 -> 9                            COMMENT
Forced Modulo Decimation to 30 seconds                      COMMENT
Forced Modulo Decimation to 30 seconds                      COMMENT
  2004    12    12     0     0    0.0000000     GPS         TIME OF FIRST OBS
                                                            END OF HEADER
 04 12 12  0  0  0.0000000  0  9G 5G17G13G10G30G24G 7G 4G 2
  21643006.5144  -25111416.41149 -19230099.67147  21643004.0404   21643009.6344
       535.5744        417.3304
  21739068.9524  -29034374.24149 -22324512.25047  21739066.8054   21739072.7294
      2072.7484       1615.1274
  24278172.1904   -9314128.87548  -7015027.46646  24278170.3674   24278175.7754
      1112.8914        867.1864
  21464687.7924  -25266758.26749 -19643622.72247  21464685.0154   21464691.0674
      3592.1464       2799.0734
  22541525.4224  -18590956.31048 -12301857.41746  22541524.1624   22541529.3884
      2455.9704       1913.7424
  21076579.1184  -32279732.54549 -24794319.20047  21076577.2294   21076581.0004
      -380.5074       -296.5004
  23552964.4324  -30671595.02647 -23557288.83045  23552961.9464   23552965.2864
     -1887.8374      -1471.0404
  21812626.9314  -30827823.26049 -23662423.12747  21812624.9874   21812630.1324
     -1391.9054      -1084.6024
  20457384.6064  -39160459.78449 -29848376.08347  20457382.6124   20457384.3564
       897.7754        699.5654
 04 12 12  0  0 30.0000000  0  9G 5G17G13G10G30G24G 7G 4G 2
  21640003.3094  -25127194.07449 -19242393.94447  21640001.5464   21640007.3094
       516.1584        402.2014
  21727255.6824  -29096452.49149 -22372884.88447  21727253.4374   21727259.2634
      2065.6564       1609.6014
  24271868.7514   -9347249.92447  -7040836.02746  24271867.2834   24271872.4334
      1095.0804        853.3064
  21444220.9354  -25374308.19049 -19727427.81647  21444218.9344   21444225.1464
      3577.7604       2787.8644
  22527556.7814  -18664368.34748 -12359061.57646  22527554.4374   22527559.0944
      2438.1074       1899.8254
  21078768.6304  -32268224.72549 -24785352.05847  21078766.7564   21078770.8204
      -386.7734       -301.3824
  23563763.0284  -30614842.27147 -23513065.87945  23563759.1624   23563767.4064
     -1895.7264      -1477.1894
  21820584.1794  -30786008.83049 -23629840.45447  21820582.3214   21820587.1274
     -1395.7514      -1087.5984
  20452288.1624  -39187243.88949 -29869246.80447  20452285.9394   20452287.4884
       887.6994        691.7124
 04 12 12  0  1  0.0000000  0  9G 5G17G13G10G30G24G 7G 4G 2
  21637109.4984  -25142405.53949 -19254247.03447  21637107.3144   21637112.7214
       497.8494        387.9344
  21715479.6834  -29158334.01449 -22421104.22847  21715477.5234   21715483.4454
      2059.6494       1604.9214
  24265664.6494   -9379852.77047  -7066240.81145  24265663.3504   24265668.2034
      1078.3554        840.2784
  21423834.6094  -25481441.85849 -19810908.56547  21423832.2714   21423838.0494
      3564.4014       2777.4554
  22513685.5024  -18737258.95748 -12415859.42046  22513683.8644   22513688.2324
      2421.2314       1886.6754
  21080990.5434  -32256546.65449 -24776252.25447  21080988.9874   21080993.3494
      -391.8834       -305.3644
  23574604.1264  -30557871.01947 -23468672.74445  23574601.4164   23574608.8794
     -1902.3574      -1482.3504
  21828560.4594  -30744094.02949 -23597179.56947  21828558.4774   21828563.1684
     -1398.5364      -1089.7694
  20447245.3634  -39213740.89249 -29889893.81047  20447243.6614   20447245.3014
       878.6704        684.6764
 04 12 12  0  1 30.0000000  0  9G 5G17G13G10G30G24G 7G 4G 2
  21634313.6754  -25157098.30449 -19265695.92747  21634311.1294   21634316.4784
       478.3274        372.7224
  21703732.8084  -29220065.86049 -22469206.94047  21703730.6374   21703736.9154
      2052.4224       1599.2884
  24259549.0874   -9411983.17047  -7091277.43845  24259548.8724   24259553.7144
      1060.3734        826.2634
  21403518.3644  -25588203.79349 -19894099.65247  21403515.9634   21403521.2594
      3549.7074       2766.0044
  22499904.7764  -18809673.24348 -12472286.11246  22499902.9414   22499907.6464
      2403.0694       1872.5194
  21083236.9544  -32244745.98449 -24767056.92547  21083234.8534   21083239.3264
      -398.1654       -310.2604
  23585478.2534  -30500728.28947 -23424145.99045  23585476.6984   23585482.5774
     -1910.3344      -1488.5734
  21836545.6174  -30702126.35249 -23564477.47747  21836544.3134   21836548.8304
     -1402.5584      -1092.9034
  20442249.6144  -39239997.88749 -29910353.79947  20442247.1164   20442248.6064
       868.4234        676.6934
 04 12 12  0  2  0.0000000  0  9G 5G17G13G10G30G24G 7G 4G 2
  21631644.3324  -25171122.96749 -19276624.23147  21631642.2624   21631647.7694
       458.5524        357.3144
  21692042.3664  -29281498.44649 -22517076.46647  21692040.6574   21692046.8944
      2044.9554       1593.4704
  24253554.7874   -9443490.24447  -7115828.38345  24253553.9924   24253556.9344
      1042.0284        811.9654
  21383302.5534  -25694441.78649 -19976882.47847  21383299.7914   21383304.6734
      3534.7144       2754.3224
  22486242.5674  -18881459.83148 -12528223.67946  22486242.2674   22486248.0324
      2384.6054       1858.1324
  21085534.0584  -32232674.20349 -24757650.34147  21085532.0594   21085537.0474
      -404.7174       -315.3634
  23596413.7784  -30443265.36847 -23379369.69945  23596410.9034   23596415.9354
     -1918.5374      -1494.9694
  21844569.9894  -30659957.11049 -23531618.31947  21844568.7154   21844572.9424
     -1406.7574      -1096.1754
  20437326.2404  -39265866.00749 -29930510.76047  20437324.3014   20437326.0304
       857.9684        668.5464
 04 12 12  0  2 30.0000000  0  9G 5G17G13G10G30G24G 7G 4G 2
  21629079.9574  -25184602.44549 -19287127.71347  21629077.7044   21629082.8584
       439.0444        342.1114
  21680386.0294  -29342754.51249 -22564808.44747  21680383.7184   21680390.0904
      2037.7224       1587.8344
  24247654.0394   -9474495.05947  -7139987.93445  24247653.1014   24247659.0184
      1023.8734        797.8294
  21363162.6394  -25800275.84549 -20059350.54747  21363160.0154   21363165.3124
      3519.8574       2742.7444
  22472680.3694  -18952739.28348 -12583766.09346  22472679.0784   22472683.5574
      2366.3134       1843.8814
  21087859.4694  -32220454.47249 -24748128.47547  21087857.3424   21087862.6864
      -410.9524       -320.2224
  23607385.2924  -30385604.92747 -23334439.45345  23607382.8884   23607388.2414
     -1926.4364      -1501.1244
  21852609.8694  -30617709.27749 -23498697.92347  21852608.3594   21852612.4604
     -1410.7314      -1099.2724
  20432455.0244  -39291467.82449 -29950460.21247  20432452.6844   20432453.9854
       847.7514        660.5854
 04 12 12  0  3  0.0000000  0  9G 5G17G13G10G30G24G 7G 4G 2
  21626626.0724  -25197497.32949 -19297175.66847  21626623.6114   21626628.6444
       420.7854        327.8834
  21668770.5334  -29403794.12049 -22612371.76247  21668768.1194   21668774.4984
      2031.7024       1583.1444
  24241857.1444   -9504956.46047  -7163724.07245  24241856.2314   24241860.1294
      1007.0014        784.6834
  21343107.5514  -25905663.83549 -20141471.02647  21343105.4024   21343111.1124
      3506.1604       2732.0714
  22459221.8774  -19023469.71348 -12638880.68846  22459219.9444   22459224.1924
      2349.2164       1830.5574
  21090220.1684  -32208047.95449 -24738461.06147  21090218.0564   21090223.6874
      -415.9924       -324.1504
  23618402.4274  -30327707.48847 -23289324.56145  23618399.9304   23618407.7774
     -1933.1134      -1506.3174
  21860671.5804  -30575344.32448 -23465686.25947  21860670.2074   21860673.7874
     -1413.3594      -1101.3194
  20427641.0164  -39316764.01649 -29970171.51447  20427639.0794   20427640.5724
       838.7994        653.6094
 04 12 12  0  3 30.0000000  0  9G 5G17G13G10G30G24G 7G 4G 2
  21624285.0314  -25209798.35149 -19306760.87147  21624282.5444   21624288.3124
       400.4704        312.0554
  21657197.5354  -29464607.97449 -22659759.16147  21657195.2284   21657202.1114
      2023.6854       1576.8964
  24236167.2114   -9534863.77247  -7187028.43745  24236165.8324   24236169.5264
       987.9894        769.8624
  21323140.6464  -26010593.64549 -20223234.47747  21323138.0504   21323144.0244
      3490.3214       2719.7304
  22445868.2094  -19093640.07448 -12693558.87946  22445866.9554   22445871.1894
      2329.9574       1815.5534
  21092617.9834  -32195445.56849 -24728641.02347  21092616.2544   21092622.0144
      -422.9814       -329.5964
  23629467.0514  -30269564.19347 -23244018.11645  23629465.3314   23629471.0194
     -1941.8194      -1513.1054
  21868757.4174  -30532853.00648 -23432576.12347  21868756.1634   21868759.9594
     -1418.1324      -1105.0384
  20422886.9914  -39341745.35749 -29989637.48347  20422885.0424   20422886.9144
       827.7584        645.0074
 04 12 12  0  4  0.0000000  0  9G 5G17G13G10G30G24G 7G 4G 2
  21622047.1914  -25221558.80749 -19315924.86247  21622044.9634   21622050.5774
       382.2644        297.8684
  21645658.4104  -29525248.78649 -22707011.72647  21645655.7954   21645662.0604
      2017.7034       1572.2364
  24230570.6664   -9564268.43247  -7209941.13945  24230570.8044   24230573.3524
       970.9834        756.6054
  21303250.4764  -26115115.77349 -20304680.24847  21303247.9564   21303254.0394
      3476.5234       2708.9794
  22432611.2134  -19163301.07548 -12747840.16846  22432610.0454   22432614.8924
      2312.7874       1802.1714
  21095043.1044  -32182701.19649 -24718710.35247  21095041.2824   21095047.0784
      -427.8814       -333.4134
  23640567.7504  -30211228.13947 -23198561.49245  23640566.2344   23640572.5894
     -1948.4334      -1518.2564
  21876857.9334  -30490289.05549 -23399409.39947  21876855.8204   21876860.1744
     -1420.7024      -1107.0424
  20418183.0934  -39366464.98949 -30008899.53047  20418181.1574   20418182.8974
       818.8704        638.0804
 04 12 12  0  4 30.0000000  0  9G 5G17G13G10G30G24G 7G 4G 2
  21619917.8744  -25232749.39949 -19324644.80247  21619915.4474   21619920.3694
       364.2134        283.8024
  21634156.9194  -29585686.83348 -22754106.29147  21634154.6214   21634160.9034
      2011.9064       1567.7184
  24225076.6654   -9593139.23947  -7232437.84645  24225075.3374   24225080.3464
       954.1184        743.4734
  21283443.9544  -26219197.89049 -20385783.16147  21283441.7384   21283447.4214
      3462.7444       2698.2404
  22419459.1344  -19232421.25448 -12801700.02346  22419457.6604   22419462.1654
      2295.6594       1788.8244
  21097501.6294  -32169785.72149 -24708646.35047  21097499.3254   21097504.7674
      -432.6714       -337.1464
  23651710.7414  -30152669.86347 -23152931.68145  23651709.5324   23651714.8594
     -1954.8994      -1523.2944
  21884976.0884  -30447623.28249 -23366163.33847  21884974.9154   21884979.6354
     -1423.1724      -1108.9654
  20413534.1034  -39390893.30549 -30027934.56247  20413532.5034   20413534.2624
       810.0924        631.2414
 04 12 12  0  5  0.0000000  0  9G 5G17G13G10G30G24G 7G 4G 2
  21617893.6754  -25243384.26149 -19332931.70547  21617891.3924   21617896.8244
       343.8954        267.9704
  21622692.4514  -29645935.93349 -22801053.63247  21622690.0474   21622695.8344
      2003.7864       1561.3914
  24219681.3924   -9621488.98747  -7254528.50845  24219679.9134   24219686.2664
       934.9604        728.5354
  21263719.4404  -26322851.48949 -20466552.17847  21263717.0394   21263722.4344
      3446.5924       2685.6544
  22406405.8574  -19301012.50248 -12855147.73446  22406404.7644   22406410.0264
      2276.1904       1773.6564
  21099989.4784  -32156713.62649 -24698460.30647  21099987.0054   21099991.9244
      -439.6804       -342.6074
  23662894.7374  -30093903.73147 -23107139.88245  23662892.9824   23662898.0484
     -1963.6384      -1530.1044
  21893112.5984  -30404870.44549 -23332849.44147  21893110.4484   21893115.3674
     -1427.8824      -1112.6354
  20408938.9834  -39415044.46349 -30046753.63247  20408936.8724   20408938.4624
       799.0404        622.6284
 04 12 12  0  5 30.0000000  0  9G 5G17G13G10G30G24G 7G 4G 2
  21615984.2644  -25253420.32449 -19340752.01447  21615982.0704   21615987.3474
       323.9144        252.4004
  21611271.8924  -29705952.24049 -22847819.57847  21611269.5614   21611275.1094
      1995.9954       1555.3204
  24214395.0554   -9649272.48647  -7276177.97045  24214394.0574   24214397.1874
       916.0274        713.7784
  21244084.9654  -26426030.11849 -20546951.08447  21244082.8484   21244088.4444
      3430.6964       2673.2684
  22393462.6304  -19369029.39048 -12908147.87046  22393461.1984   22393466.6184
      2257.0024       1758.7014
  21102514.2254  -32143441.88249 -24688118.68447  21102512.5044   21102517.2204
      -446.3854       -347.8324
  23674124.3304  -30034886.38947 -23061152.34945  23674121.9874   23674128.5914
     -1972.0464      -1536.6584
  21901272.4834  -30361987.15849 -23299433.89347  21901270.7204   21901275.5794
     -1432.2364      -1116.0284
  20404403.4874  -39438875.05949 -30065322.91747  20404401.8684   20404403.4844
       788.3514        614.2994
 04 12 12  0  6  0.0000000  0  9G 5G17G13G10G30G24G 7G 4G 2
  21614185.6284  -25262870.13749 -19348115.50847  21614183.4234   21614188.9424
       306.3624        238.7234
  21599893.2524  -29765748.08649 -22894413.73147  21599890.8184   21599895.9864
      1990.6514       1551.1564
  24209212.8394   -9676500.53747  -7297394.58245  24209211.6194   24209217.1884
       899.4294        700.8524
  21224540.1224  -26528743.57849 -20626987.51647  21224537.2704   21224542.8204
      3417.1484       2662.7134
  22380627.0754  -19436482.30648 -12960708.55946  22380625.9124   22380630.2354
      2240.1574       1745.5764
  21105075.7324  -32129983.37549 -24677631.53747  21105073.4004   21105078.1744
      -450.5784       -351.1004
  23685400.0844  -29975630.30547 -23014978.81545  23685397.4464   23685404.3664
     -1977.9554      -1541.2564
  21909454.7104  -30318986.42349 -23265926.83247  21909453.3484   21909458.0944
     -1434.1494      -1117.5194
  20399927.7944  -39462397.49049 -30083652.07447  20399925.6204   20399926.9244
       780.0644        607.8424
 04 12 12  0  6 30.0000000  0  9G 5G17G13G10G30G24G 7G 4G 2
  21612498.2894  -25271737.59449 -19355025.21947  21612496.1804   21612501.4074
       285.7924        222.6954
  21588555.6234  -29825327.01549 -22940838.86247  21588553.0724   21588558.1284
      1982.2714       1544.6264
  24204136.2784   -9703175.76347  -7318180.45245  24204135.8564   24204140.5024
       879.8254        685.5854
  21205082.1674  -26630992.79249 -20706662.19547  21205079.6584   21205085.6044
      3400.4574       2649.7054
  22367898.6404  -19503373.04248 -13012831.18746  22367896.6604   22367900.8274
      2220.2174       1730.0384
  21107670.6464  -32116342.26949 -24667002.10147  21107669.0954   21107674.0494
      -457.8194       -356.7434
  23696721.0034  -29916139.59547 -22968622.43445  23696719.8204   23696726.0764
     -1987.0604      -1548.3564
  21917659.0214  -30275872.08248 -23232331.24647  21917657.6794   21917662.1394
     -1439.0624      -1121.3494
  20395509.4454  -39485615.44949 -30101743.97547  20395507.6124   20395509.1634
       768.7504        599.0264
 04 12 12  0  7  0.0000000  0  9G 5G17G13G10G30G24G 7G 4G 2
  21610920.9904  -25280028.66849 -19361485.80047  21610918.3224   21610923.7904
       267.0634        208.1014
  21577258.6764  -29884694.33749 -22987099.10847  21577256.0614   21577260.9184
      1975.6764       1539.4864
  24199164.8524   -9729302.24447  -7338538.70545  24199163.1174   24199168.6504
       862.0704        671.7404
  21185712.4834  -26732780.88649 -20785977.55747  21185709.9954   21185716.0294
      3385.5514       2638.0904
  22355275.2574  -19569704.97348 -13064518.37146  22355273.7124   22355279.5514
      2202.0634       1715.8934
  21110300.1284  -32102524.87349 -24656235.29447  21110298.2294   21110303.4874
      -463.2004       -360.9354
  23708086.9094  -29856419.97147 -22922087.65645  23708084.1074   23708089.6594
     -1994.1244      -1553.8684
  21925884.9354  -30232650.54748 -23198652.12447  21925882.5624   21925886.4924
     -1442.1364      -1123.7444
  20391148.7884  -39508534.64549 -30119603.08347  20391146.4224   20391147.8504
       759.3124        591.6714
 04 12 12  0  7 30.0000000  0  9G 5G17G13G10G30G24G 7G 4G 2
  21609443.9944  -25287788.06249 -19367532.08547  21609441.6514   21609446.7534
       249.4964        194.4124
  21565992.5284  -29943894.21649 -23033228.87247  21565990.6584   21565995.8754
      1970.2204       1535.2364
  24194289.8244   -9754923.00047  -7358502.87145  24194288.1534   24194292.2444
       845.3134        658.6754
  21166422.9204  -26834149.89349 -20864966.35847  21166420.2334   21166426.3474
      3371.6564       2627.2634
  22342751.7524  -19635520.82648 -13115803.42446  22342749.6444   22342755.8574
      2184.9674       1702.5714
  21112954.6794  -32088575.75349 -24645365.85047  21112952.8844   21112957.8534
      -467.4354       -364.2354
  23719483.6674  -29796516.08747 -22875409.30545  23719481.9864   23719488.6774
     -2000.1144      -1558.5304
  21934120.0414  -30189366.40848 -23164924.20847  21934119.2734   21934122.9464
     -1444.1314      -1125.2984
  20386835.3174  -39531199.64249 -30137264.12147  20386833.3354   20386834.6644
       750.9664        585.1694
 04 12 12  0  8  0.0000000  0  9G 5G17G13G10G30G24G 7G 4G 2
  21608074.6094  -25294983.12549 -19373138.62547  21608072.2844   21608077.8644
       229.8664        179.1174
  21554765.8724  -30002893.59649 -23079202.40347  21554763.3774   21554769.0644
      1962.7194       1529.3924
  24189516.9964   -9780003.80747  -7378046.33145  24189515.9884   24189521.2774
       826.4234        643.9634
  21147219.4404  -26935063.99849 -20943600.69347  21147216.8524   21147222.4404
      3355.6254       2614.7714
  22330331.6454  -19700785.65648 -13166659.11746  22330330.1924   22330335.0404
      2165.7574       1687.6044
  21115640.5524  -32074462.59049 -24634368.58147  21115638.6244   21115643.2564
      -473.7304       -369.1404
  23730928.2224  -29736395.28147 -22828561.96945  23730923.2584   23730930.0454
     -2008.1644      -1564.8034
  21942376.0414  -30145987.08648 -23131122.12747  21942374.2244   21942378.1624
     -1448.0854      -1128.3784
  20382576.4484  -39553577.51749 -30154701.42147  20382574.7754   20382576.1834
       740.5864        577.0814
 04 12 12  0  8 30.0000000  0  9G 5G17G13G10G30G24G 7G 4G 2
  21606815.6244  -25301600.78349 -19378295.24947  21606813.2794   21606818.5004
       210.7704        164.2384
  21543578.8084  -30061678.91749 -23125009.12647  21543576.6724   21543582.9784
      1955.7424       1523.9544
  24184850.9744   -9804529.92647  -7397157.54845  24184848.5074   24184852.3334
       808.0794        629.6724
  21128105.9454  -27035507.21249 -21021868.11147  21128103.2604   21128108.1104
      3340.0374       2602.6264
  22318020.3434  -19765484.11448 -13217073.48946  22318018.5584   22318022.8004
      2146.9924       1672.9814
  21118359.9634  -32060172.16049 -24623233.18047  21118357.8834   21118362.7574
      -479.5014       -373.6374
  23742410.9914  -29676044.44947 -22781535.37945  23742409.0904   23742414.5854
     -2015.6434      -1570.6304
  21950651.0744  -30102499.64248 -23097235.79847  21950649.8034   21950653.9294
     -1451.5544      -1131.0814
  20378375.1804  -39575654.99949 -30171904.64647  20378373.5844   20378374.8764
       730.7054        569.3804
 04 12 12  0  9  0.0000000  0  9G 5G17G13G10G30G24G 7G 4G 2
  21605671.4084  -25307612.20749 -19382979.47847  21605669.1944   21605674.4984
       190.1594        148.1754
  21532438.9784  -30120220.55949 -23170625.96747  21532436.6414   21532442.8124
      1947.2004       1517.2994
  24180294.4584   -9828470.82147  -7415812.78245  24180293.5914   24180297.4804
       788.1744        614.1554
  21109087.2734  -27135447.95349 -21099743.98547  21109084.7474   21109090.0654
      3322.8484       2589.2314
  22305822.3094  -19829585.17648 -13267022.34646  22305820.2334   22305824.8304
      2126.6284       1657.1124
  21121118.3514  -32045675.91649 -24611937.40247  21121116.5344   21121121.5404
      -486.7574       -379.2904
  23753945.8844  -29615434.43347 -22734306.77045  23753942.7564   23753946.9544
     -2024.7554      -1577.7354
  21958952.6344  -30058875.28148 -23063242.78447  21958950.7854   21958956.3054
     -1456.5064      -1134.9404
  20374237.2554  -39597402.80449 -30188850.97947  20374235.2074   20374236.7004
       719.2984        560.4924
 04 12 12  0  9 30.0000000  0  9G 5G17G13G10G30G24G 7G 4G 2
  21604637.8074  -25313044.66649 -19387212.56847  21604635.3504   21604641.0134
       171.0544        133.2904
  21521339.1594  -30178545.14849 -23216073.67647  21521337.3724   21521343.8774
      1940.1254       1511.7844
  24175842.5524   -9851851.92047  -7434031.76745  24175842.7764   24175847.0974
       769.6424        599.7234
  21090160.3304  -27234910.35249 -21177247.11847  21090157.5844   21090163.6364
      3307.0334       2576.9084
  22293733.2264  -19893113.67648 -13316525.04646  22293731.4734   22293736.7354
      2107.6874       1642.3564
  21123910.6414  -32031001.34249 -24600502.67047  21123909.0884   21123914.0234
      -492.5084       -383.7734
  23765519.2124  -29554592.42447 -22686897.37845  23765519.4824   23765525.8884
     -2032.2814      -1583.5934
  21967275.1774  -30015141.14349 -23029164.24647  21967273.3254   21967278.5884
     -1459.9654      -1137.6344
  20370156.5744  -39618847.66049 -30205561.26247  20370154.3434   20370155.8864
       709.3894        552.7724
 04 12 12  0 10  0.0000000  0  9G 5G17G13G10G30G24G 7G 4G 2
  21603707.4534  -25317935.28149 -19391023.44447  21603704.9844   21603710.2694
       154.0054        120.0044
  21510274.6824  -30236689.37649 -23261380.84647  21510272.7804   21510279.5914
      1935.0794       1507.8554
  24171494.7594   -9874708.74547  -7451842.23145  24171493.4694   24171498.5794
       753.1594        586.8734
  21071317.9864  -27333928.39449 -21254404.00247  21071315.6514   21071321.4124
      3293.1704       2566.1074
  22281746.5904  -19956104.70948 -13365608.95046  22281744.9724   22281748.8784
      2090.7344       1629.1424
  21126730.5674  -32016185.13049 -24588957.56547  21126728.5834   21126733.9444
      -496.2164       -386.6624
  23777134.3324  -29493555.46647 -22639336.13645  23777133.9144   23777142.1364
     -2037.6864      -1587.8044
  21975610.5424  -29971334.41749 -22995029.14247  21975609.1934   21975614.7054
     -1461.4164      -1138.7654
  20366126.0364  -39640026.52749 -30222064.26747  20366124.0834   20366125.5374
       701.5054        546.6284
 04 12 12  0 10 30.0000000  0  9G 5G17G13G10G30G24G 7G 4G 2
  21602881.3304  -25322272.31749 -19394402.95847  21602879.2574   21602884.6904
       134.5184        104.8194
  21499247.1704  -30294640.83549 -23306537.80447  21499244.7534   21499251.6374
      1927.6424       1502.0584
  24167248.1934   -9897027.76847  -7469233.66545  24167246.6844   24167250.6574
       734.1294        572.0484
  21052562.6104  -27432487.30649 -21331203.12347  21052560.2704   21052566.2514
      3276.7924       2553.3434
  22269865.2344  -20018544.11448 -13414263.02146  22269863.4264   22269867.2834
      2071.3004       1613.9994
  21129579.2534  -32001215.62949 -24577293.01647  21129577.1444   21129582.4964
      -502.3654       -391.4534
  23788790.2994  -29432311.54847 -22591613.66445  23788788.4414   23788795.3334
     -2045.7624      -1594.0984
  21983962.5254  -29927443.21748 -22960828.21347  21983961.3504   21983966.8054
     -1465.2494      -1141.7524
  20362148.6224  -39660927.29549 -30238350.56547  20362146.8004   20362148.0644
       691.2074        538.6034
 04 12 12  0 11  0.0000000  0  9G 5G17G13G10G30G24G 7G 4G 2
  21602157.5144  -25326077.43649 -19397367.99247  21602155.4964   21602160.8944
       116.7284         90.9574
  21488252.1714  -30352420.29849 -23351560.74347  21488249.9214   21488256.5694
      1921.8534       1497.5464
  24163098.9584   -9918829.15647  -7486221.71845  24163097.1304   24163102.3444
       716.7704        558.5204
  21033891.3654  -27530605.87249 -21407659.11247  21033888.8944   21033894.8344
      3262.0074       2541.8234
  22258084.3144  -20080451.28548 -13462502.36146  22258082.5184   22258086.5764
      2053.4504       1600.0904
  21132452.3154  -31986114.39249 -24565525.81547  21132450.6164   21132456.2924
      -506.8224       -394.9264
  23800481.2174  -29370882.13247 -22543746.61145  23800479.3494   23800483.3904
     -2051.8504      -1598.8404
  21992327.7624  -29883489.00348 -22926578.17547  21992326.3674   21992329.5294
     -1467.4094      -1143.4364
  20358220.9084  -39681570.86249 -30254436.44847  20358218.6254   20358219.7724
       682.5814        531.8804
 04 12 12  0 11 30.0000000  0  9G 5G17G13G10G30G24G 7G 4G 2
  21601544.2544  -25329299.71549 -19399878.86347  21601542.1854   21601547.4624
        98.4174         76.6894
  21477300.0204  -30409976.22149 -23396409.50047  21477297.8034   21477303.7734
      1915.5114       1492.6054
  24159059.3324   -9940060.06747  -7502765.25845  24159058.1154   24159060.7304
       698.9124        544.6134
  21015313.4414  -27628230.19449 -21483729.98947  21015311.3354   21015316.6444
      3246.6064       2529.8244
  22246414.6764  -20141772.93348 -13510285.44546  22246412.9324   22246418.1324
      2035.0004       1585.7134
  21135361.1444  -31970830.59149 -24553616.35847  21135359.1254   21135364.5794
      -511.7684       -398.7804
  23812214.7354  -29309216.00647 -22495695.06245  23812212.9744   23812218.4464
     -2058.6064      -1604.1034
  22000713.2264  -29839420.46148 -22892239.03047  22000711.9184   22000715.2824
     -1470.1144      -1145.5444
  20354350.5374  -39701906.01249 -30270282.00747  20354348.8164   20354350.3574
       673.4174        524.7404
 04 12 12  0 12  0.0000000  0  9G 5G17G13G10G30G24G 7G 4G 2
  21601039.2284  -25331955.62749 -19401948.40647  21601036.7934   21601042.2704
        79.0354         61.5864
  21466387.1844  -30467324.05749 -23441096.11447  21466385.0944   21466390.8254
      1908.0574       1486.7984
  24155124.6644   -9960735.71647  -7518876.09945  24155122.5224   24155128.2154
       679.8844        529.7774
  20996827.9064  -27725373.94449 -21559426.39347  20996825.2084   20996830.6794
      3230.0364       2516.9104
  22234854.4414  -20202523.26048 -13557623.34246  22234852.6584   22234857.5704
      2015.4314       1570.4634
  21138301.5234  -31955380.55849 -24541577.36547  21138299.1084   21138304.3874
      -517.8344       -403.5074
  23823990.3984  -29247329.44947 -22447471.75245  23823989.0364   23823996.6134
     -2066.5664      -1610.3114
  22009117.7094  -29795254.18148 -22857823.72747  22009116.6174   22009119.8504
     -1473.8664      -1148.4664
  20350536.6944  -39721948.74349 -30285899.73347  20350534.9034   20350536.5524
       663.1494        516.7404
 04 12 12  0 12 30.0000000  0  9G 5G17G13G10G30G24G 7G 4G 2
  21600638.8014  -25334058.44149 -19403586.96947  21600636.7884   21600642.1414
        60.7324         47.3234
  21455512.4124  -30524476.60149 -23485630.55647  21455509.7634   21455514.9914
      1901.6644       1481.8164
  24151292.8294   -9980867.29547  -7534563.03845  24151291.5374   24151295.3964
       661.8574        515.7324
  20978432.1394  -27822047.29849 -21634756.25147  20978429.6154   20978434.8654
      3214.4144       2504.7374
  22223400.5804  -20262713.34348 -13604524.69946  22223399.2314   22223403.3514
      1996.8864       1556.0144
  21141270.0664  -31939777.31049 -24529418.98047  21141268.2574   21141273.6554
      -522.8084       -407.3844
  23835808.9204  -29185235.37447 -22399086.79145  23835806.3494   23835813.7934
     -2073.2934      -1615.5514
  22017538.6804  -29751003.01948 -22823342.28247  22017537.0504   22017540.8894
     -1476.5344      -1150.5464
  20346775.5144  -39741712.09449 -30301299.75147  20346773.8244   20346775.5194
       653.9444        509.5664
 04 12 12  0 13  0.0000000  0  9G 5G17G13G10G30G24G 7G 4G 2
  21600345.8354  -25335601.31949 -19404789.21147  21600343.5164   21600348.2574
        43.1804         33.6474
  21444674.5684  -30581426.23849 -23530006.88847  21444672.3544   21444677.5804
      1895.9924       1477.3964
  24147566.4114  -10000445.91547  -7549819.02045  24147565.4204   24147569.9594
       644.4194        502.1504
  20960127.4104  -27918240.35349 -21709711.85947  20960124.6564   20960129.8384
      3199.4884       2493.1074
  22212055.0124  -20322334.14148 -13650982.43746  22212053.8034   22212058.9334
      1978.9744       1542.0574
  21144270.2474  -31924013.72949 -24517135.66747  21144267.8434   21144273.0844
      -527.0364       -410.6784
  23847662.9304  -29122926.98947 -22350534.85445  23847661.5214   23847669.5304
     -2079.3754      -1620.2864
  22025976.2224  -29706660.14448 -22788789.38747  22025974.8824   22025980.0424
     -1478.5274      -1152.0994
  20343070.2414  -39761188.48649 -30316476.15347  20343067.9334   20343069.4974
       645.4664        502.9604
 04 12 12  0 13 29.9990000  0  9G 5G17G13G10G30G24G 7G 4G 2
  21600164.1114  -25336553.82349 -19405531.41647  21600161.9004   21600167.1944
        21.9414         17.0964
  21433882.5014  -30638139.98049 -23574199.40247  21433879.8914   21433885.2084
      1886.6124       1470.0874
  24143953.7364  -10019439.63647  -7564619.32645  24143952.0594   24143955.8854
       623.4114        485.7764
  20941920.1354  -28013916.21849 -21784264.45547  20941917.9614   20941923.7124
      3180.7404       2478.4974
  22200825.0894  -20381350.85748 -13696969.47546  22200823.1854   22200828.0274
      1957.2704       1525.1454
  21147305.8624  -31908059.97849 -24504704.16647  21147303.6974   21147308.9794
      -534.9734       -416.8634
  23859568.4754  -29060375.52947 -22301793.50345  23859566.2854   23859571.5424
     -2089.1454      -1627.9114
  22034437.1794  -29662196.21448 -22754142.17647  22034435.8364   22034441.3174
     -1484.1974      -1156.5184
  20339424.0684  -39780346.45549 -30331404.43747  20339422.1584   20339424.0924
       633.3144        493.4914
 04 12 12  0 13 59.9990000  0  9G 5G17G13G10G30G24G 7G 4G 2
  21600077.5574  -25337009.86949 -19405886.78347  21600075.3404   21600080.5074
         6.2604          4.8794
  21423116.6544  -30694714.41649 -23618283.36947  21423114.2784   21423119.4024
      1882.7474       1467.0764
  24140432.1974  -10037941.48947  -7579036.32745  24140431.1484   24140434.9524
       607.8454        473.6374
  20923793.4554  -28109172.28249 -21858489.93147  20923790.8794   20923797.4304
      3167.4324       2468.1294
  22189690.7644  -20439859.01148 -13742560.23346  22189689.2624   22189694.6784
      1941.0974       1512.5424
  21150360.0664  -31892008.33349 -24492196.38647  21150358.1884   21150363.5004
      -537.3564       -418.7184
  23871499.2764  -28997670.34447 -22252932.30945  23871498.7344   23871502.4664
     -2093.3624      -1631.1954
  22042904.9664  -29617701.62648 -22719471.07047  22042903.4764   22042908.5244
     -1484.3244      -1156.6164
  20335821.2544  -39799280.19149 -30346157.99847  20335819.1134   20335821.0104
       626.6794        488.3224
 04 12 12  0 14 29.9990000  0  9G 5G17G13G10G30G24G 7G 4G 2
  21600100.6824  -25336884.86049 -19405789.37247  21600098.7994   21600103.6484
       -12.4614         -9.7104
  21412392.9984  -30751062.18349 -23662190.70647  21412391.2264   21412397.0954
      1875.8474       1461.6994
  24137022.5624  -10055864.55747  -7593002.31545  24137021.0424   24137024.6234
       589.1384        459.0694
  20905763.5134  -28203917.62649 -21932317.43247  20905761.1794   20905767.5874
      3151.0124       2455.3334
  22178670.1484  -20497769.72848 -13787685.45046  22178668.9154   22178673.6174
      1921.7824       1497.4924
  21153449.4344  -31875774.36749 -24479546.53547  21153447.7384   21153452.6524
      -542.7774       -422.9444
  23883480.1134  -28934728.61647 -22203886.76645  23883476.6284   23883481.9034
     -2100.4684      -1636.7284
  22051394.1034  -29573092.82148 -22684710.95747  22051392.4164   22051397.1424
     -1487.4294      -1159.0364
  20332277.4664  -39817904.24349 -30360670.24347  20332275.1334   20332277.1244
       617.0004        480.7794
 04 12 12  0 14 59.9990000  0  9G 5G17G13G10G30G24G 7G 4G 2
  21600229.7064  -25336208.60549 -19405262.41847  21600227.4494   21600232.8334
       -32.8394        -25.5894
  21401708.4904  -30807212.16449 -23705943.92347  21401706.3934   21401712.2184
      1867.2354       1454.9884
  24133715.8324  -10073237.17047  -7606539.38145  24133714.6694   24133718.7774
       568.7664        443.2024
  20887827.0354  -28298178.98049 -22005767.81747  20887824.6704   20887829.6324
      3132.8224       2441.1594
  22167758.8754  -20555110.58548 -13832366.61746  22167757.2764   22167762.3294
      1900.7584       1481.1094
  21156567.8664  -31859387.82349 -24466777.79447  21156566.0654   21156571.1824
      -549.9014       -428.4954
  23895493.2014  -28871579.81447 -22154679.94845  23895490.5624   23895498.5424
     -2109.5394      -1643.7924
  22059899.4674  -29528399.59048 -22649885.06447  22059897.5494   22059901.4524
     -1492.2604      -1162.8004
  20328786.6384  -39836247.49149 -30374963.68247  20328784.5564   20328786.4574
       605.6194        471.9124
 04 12 12  0 15 29.9990000  0  9G 5G17G13G10G30G24G 7G 4G 2
  21600460.7374  -25334994.23149 -19404316.15647  21600458.6664   21600464.1934
       -51.2594        -39.9424
  21391059.1674  -30863176.74649 -23749552.67347  21391056.6824   21391062.3814
      1860.5834       1449.8054
  24130512.3964  -10090070.67747  -7619656.36345  24130511.7434   24130514.3724
       550.2804        428.7844
  20869979.5554  -28391966.81349 -22078849.23047  20869977.2794   20869982.1894
      3116.5134       2428.4514
  22156952.7674  -20611892.51948 -13876612.26946  22156951.7644   22156957.2884
      1881.6134       1466.1904
  21159713.0404  -31842861.36549 -24453900.02547  21159710.8894   21159715.8264
      -555.0324       -432.4924
  23907545.0654  -28808236.85047 -22105321.86845  23907544.3884   23907552.8594
     -2116.4574      -1649.1904
  22068416.9434  -29483634.41248 -22615003.09647  22068415.8134   22068418.7684
     -1495.1404      -1165.0454
  20325346.5724  -39854322.69749 -30389048.26247  20325344.9124   20325346.7234
       596.2144        464.5834
 04 12 12  0 15 59.9990000  0  9G 5G17G13G10G30G24G 7G 4G 2
  21600798.3534  -25333219.41149 -19402933.18247  21600796.4484   21600801.4564
       -67.9874        -52.9774
  21380448.4564  -30918932.71949 -23792998.87447  21380446.6694   21380452.2784
      1855.5284       1445.8664
  24127416.6414  -10106341.14647  -7632334.61545  24127415.7644   24127418.9314
       533.4064        415.6304
  20852227.8554  -28485255.45449 -22151541.66147  20852225.1374   20852229.9754
      3101.7814       2416.9714
  22146259.1174  -20668090.76448 -13920403.10446  22146257.5824   22146262.4174
      1864.0924       1452.5394
  21162888.7404  -31826172.37249 -24440895.61047  21162886.8734   21162891.9104
      -558.4934       -435.1894
  23919644.9594  -28744676.96747 -22055794.71445  23919642.9344   23919647.3274
     -2121.7674      -1653.3244
  22076953.4914  -29438774.64348 -22580047.41346  22076951.7074   22076955.7934
     -1496.4114      -1166.0354
  20321962.1914  -39872106.65549 -30402905.89847  20321960.6734   20321962.4604
       588.4224        458.5114
 04 12 12  0 16 29.9990000  0  9G 5G17G13G10G30G24G 7G 4G 2
  21601240.3174  -25330899.70949 -19401125.61947  21601238.1364   21601243.0004
       -85.8384        -66.8864
  21369875.7784  -30974494.71849 -23836293.92347  21369873.2954   21369878.9724
      1849.3644       1441.0634
  24124423.3394  -10122062.47747  -7644584.97845  24124422.3664   24124427.6294
       515.4484        401.6524
  20834567.5984  -28578057.53449 -22223854.95647  20834565.0984   20834570.4874
      3085.8334       2404.5444
  22135674.0084  -20723718.88248 -13963749.67446  22135672.1514   22135677.3474
      1845.3404       1437.9244
  21166092.7634  -31809336.24949 -24427776.54547  21166090.7204   21166095.8454
      -563.0954       -438.7754
  23931774.3334  -28680915.54647 -22006110.44745  23931774.4174   23931781.0864
     -2128.0854      -1658.2564
  22085504.0994  -29393835.49348 -22545029.88646  22085502.8824   22085507.8614
     -1498.6634      -1167.7904
  20318631.5544  -39889614.26749 -30416548.19747  20318629.2004   20318631.1384
       579.5364        451.5874
 04 12 12  0 16 59.9990000  0  9G 5G17G13G10G30G24G 7G 4G 2
  21601786.2304  -25328029.85349 -19398889.36647  21601784.1094   21601789.2054
      -104.2324        -81.2194
  21359340.1694  -31029856.29749 -23879432.79547  21359338.2454   21359344.0944
      1842.6084       1435.7984
  24121537.3574  -10137227.50147  -7656401.83545  24121536.0504   24121542.7864
       496.7774        387.1014
  20817001.6184  -28670364.53449 -22295782.46147  20816999.1654   20817005.3754
      3069.2144       2391.5944
  22125197.4424  -20778768.93848 -14006645.82646  22125196.3914   22125200.5844
      1825.9514       1422.8194
  21169325.6864  -31792346.92649 -24414538.10547  21169323.6494   21169328.6124
      -568.2554       -442.7964
  23943951.4404  -28616946.62747 -21956264.56645  23943947.0204   23943953.8874
     -2135.1244      -1663.7244
  22094073.6844  -29348810.76348 -22509945.67947  22094071.6884   22094076.2664
     -1501.5954      -1170.0754
  20315353.1144  -39906839.55549 -30429970.50447  20315351.1934   20315353.3754
       570.0454        444.1914
 04 12 12  0 17 29.9990000  0  9G 5G17G13G10G30G24G 7G 4G 2
  21602437.2744  -25324609.59349 -19396224.23347  21602434.8044   21602439.8964
      -122.9914        -95.8364
  21348843.9604  -31085016.34749 -23922414.64147  21348841.6504   21348847.6434
      1835.4854       1430.2474
  24118761.9454  -10151834.47347  -7667783.88245  24118759.2694   24118761.4234
       477.7214        372.2454
  20799531.1034  -28762173.35649 -22367321.77647  20799529.0174   20799535.0974
      3052.1614       2378.3084
  22114833.0944  -20833238.71048 -14049089.80346  22114831.4264   22114834.7834
      1806.1604       1407.3964
  21172587.1144  -31775203.76349 -24401179.79647  21172585.5944   21172591.0754
      -573.8234       -447.1344
  23956162.7804  -28552769.66546 -21906256.59145  23956159.2824   23956166.9724
     -2142.4324      -1669.4234
  22102656.9944  -29303700.00148 -22474794.43947  22102656.0744   22102661.2624
     -1504.9124      -1172.6584
  20312129.5544  -39923781.62049 -30443172.11647  20312127.5174   20312129.7424
       560.1714        436.4984
 04 12 12  0 17 59.9990000  0  9G 5G17G13G10G30G24G 7G 4G 2
  21603190.5554  -25320650.28849 -19393139.06247  21603188.0574   21603193.2884
      -141.2054       -110.0304
  21338383.6814  -31139984.85449 -23965247.23247  21338381.8894   21338387.8804
      1828.8104       1425.0464
  24116083.9384  -10165892.70047  -7678738.29545  24116083.1104   24116087.4064
       459.2344        357.8424
  20782154.5624  -28853491.91349 -22438479.07247  20782151.8464   20782158.0784
      3035.5014       2365.3244
  22104575.9114  -20887136.72448 -14091088.24446  22104574.7534   22104579.0524
      1786.7964       1392.3084
  21175877.1454  -31757917.15649 -24387709.71247  21175874.8984   21175880.5294
      -578.8704       -451.0684
  23968411.3234  -28488395.45647 -21856094.91245  23968409.7894   23968415.5214
     -2149.3914      -1674.8444
  22111255.9754  -29258513.41648 -22439584.11847  22111254.7554   22111259.4884
     -1507.6674      -1174.8054
  20308957.0644  -39940450.59349 -30456160.93047  20308955.3114   20308957.7104
       550.8124        429.2054
 04 12 12  0 18 29.9990000  0  9G 5G17G13G10G30G24G 7G 4G 2
  21604055.3654  -25316106.24949 -19389598.25647  21604052.9534   21604058.2394
      -160.5624       -125.1144
  21327969.5934  -31194715.42249 -24007894.42047  21327966.9624   21327972.8584
      1821.0154       1418.9724
  24113522.4694  -10179355.16147  -7689228.49545  24113520.5604   24113525.0454
       439.4914        342.4594
  20764879.9714  -28944271.60749 -22509216.48047  20764877.6054   20764883.0534
      3017.6034       2351.3784
  22094437.5564  -20940415.57648 -14132604.22246  22094436.4584   22094440.3464
      1766.2674       1376.3124
  21179202.3084  -31740441.42349 -24374092.26147  21179200.1434   21179205.9284
      -585.0314       -455.8684
  23980710.4684  -28423778.02847 -21805743.67845  23980708.6694   23980711.7004
     -2157.4444      -1681.1264
  22119879.1434  -29213205.27148 -22404279.07547  22119876.9324   22119881.2344
     -1511.6384      -1177.9014
  20305846.2364  -39956800.45049 -30468901.08447  20305844.3094   20305846.4164
       540.2894        421.0054
 04 12 12  0 18 59.9990000  0  9G 5G17G13G10G30G24G 7G 4G 2
  21605020.9204  -25311032.12649 -19385644.39847  21605018.8124   21605023.6694
      -179.1374       -139.5864
  21317589.0754  -31249261.43049 -24050397.78547  21317587.0964   21317592.6584
      1813.9144       1413.4384
  24111063.9704  -10192274.82747  -7699295.74545  24111062.1184   24111066.6234
       420.4844        327.6464
  20747697.6354  -29034564.03149 -22579574.19847  20747695.0124   20747700.5194
      3000.4214       2337.9894
  22084408.1594  -20993127.42348 -14173678.38746  22084406.2354   22084409.1444
      1746.4254       1360.8504
  21182553.3854  -31722830.72349 -24360369.63747  21182551.3864   21182556.8964
      -590.4684       -460.1064
  23993038.9964  -28358971.63747 -21755245.19545  23993038.0394   23993044.5644
     -2164.4954      -1686.6124
  22128512.8304  -29167829.42248 -22368921.27247  22128511.2854   22128515.8854
     -1514.8274      -1180.3844
  20302785.6154  -39972884.86049 -30481434.39247  20302783.4214   20302785.5934
       530.5304        413.3994
 04 12 12  0 19 29.9990000  0  9G 5G17G13G10G30G24G 7G 4G 2
  21606091.7684  -25305406.35849 -19381260.68847  21606089.3884   21606093.8294
      -196.6744       -153.2514
  21307249.1694  -31303600.55649 -24092739.95147  21307246.6414   21307252.3214
      1807.8804       1408.7374
  24108712.3444  -10204628.61147  -7708922.02845  24108711.1844   24108714.6994
       402.3964        313.5444
  20730611.7544  -29124344.61349 -22649533.07247  20730609.6704   20730615.7644
      2984.1934       2325.3454
  22074489.2724  -21045248.57448 -14214292.27246  22074487.7074   22074491.1534
      1727.5644       1346.1534
  21185934.2104  -31705062.95449 -24346524.62947  21185932.6264   21185937.6004
      -594.8294       -463.5044
  24005413.4344  -28293954.23647 -21704582.31045  24005410.2184   24005418.0864
     -2170.6664      -1691.4194
  22137163.8794  -29122363.74248 -22333493.46946  22137162.3334   22137167.5434
     -1516.9214      -1182.0164
  20299779.8064  -39988681.46649 -30493743.44047  20299777.6584   20299779.5454
       521.7794        406.5804
 04 12 12  0 19 59.9990000  0  9G 5G17G13G10G30G24G 7G 4G 2
  21607254.8424  -25299288.47549 -19376493.50347  21607253.1744   21607258.2954
      -211.4744       -164.7834
  21296937.1364  -31357791.09749 -24134966.34347  21296934.8814   21296940.1854
      1804.5204       1406.1184
  24106458.3814  -10216474.36147  -7718152.46045  24106456.7384   24106463.0894
       387.1314        301.6594
  20713613.9614  -29213669.79549 -22719137.08347  20713611.4254   20713617.5104
      2970.5784       2314.7354
  22064672.0044  -21096836.27648 -14254490.47546  22064670.5684   22064674.7314
      1711.3734       1333.5364
  21189334.6644  -31687197.10649 -24332603.18847  21189332.5374   21189337.1464
      -596.4924       -464.7994
  24017818.7354  -28228784.92047 -21653801.13445  24017812.6104   24017820.3164
     -2174.1284      -1694.1334
  22145821.1164  -29076867.15948 -22298041.58846  22145819.7154   22145825.1544
     -1516.3484      -1181.5714
  20296817.3594  -40004249.04649 -30505874.02547  20296815.2274   20296817.2744
       515.7544        401.8864
 04 12 12  0 20 29.9990000  0  9G 5G17G13G10G30G24G 7G 4G 2
  21608518.9224  -25292648.36349 -19371319.39847  21608516.8484   21608522.0024
      -231.0164       -180.0134
  21286659.0864  -31411801.70749 -24177052.52347  21286656.8254   21286662.0544
      1796.3944       1399.7864
  24104308.5504  -10227780.33747  -7726962.29945  24104306.9594   24104309.4294
       366.8714        285.8774
  20696709.8374  -29302506.40049 -22788360.39347  20696707.1814   20696712.5374
      2952.0824       2300.3244
  22054962.1744  -21147858.15848 -14294247.77546  22054961.1904   22054966.0024
      1690.3264       1317.1384
  21192759.0674  -31669202.42049 -24318581.34947  21192756.8954   21192761.5794
      -602.9454       -469.8274
  24030251.6504  -28163433.22047 -21602877.74745  24030249.7144   24030254.2254
     -2182.3264      -1700.5154
  22154491.9544  -29031308.79448 -22262541.56746  22154490.4994   22154493.8904
     -1520.5804      -1184.8684
  20293904.2264  -40019556.71349 -30517802.07647  20293902.1854   20293904.4324
       504.9274        393.4494
 04 12 12  0 20 59.9990000  0  9G 5G17G13G10G30G24G 7G 4G 2
  21609890.0064  -25285445.82349 -19365707.03847  21609887.4314   21609892.6114
      -248.3104       -193.4884
  21276423.4904  -31465591.25249 -24218966.44747  21276421.0594   21276426.1324
      1790.4254       1395.1354
  24102266.7824  -10238504.59547  -7735318.82045  24102265.9324   24102270.1804
       348.8784        271.8474
  20679906.3354  -29390811.05649 -22857169.20247  20679903.5654   20679908.5114
      2935.7124       2287.5684
  22045370.1254  -21198271.64648 -14333531.00346  22045368.2704   22045372.1214
      1671.4124       1302.4014
  21196215.1624  -31651037.72949 -24304427.04247  21196213.5364   21196218.4364
      -607.1904       -473.1354
  24042730.5534  -28097858.32047 -21551780.38245  24042725.7154   24042732.2214
     -2188.3314      -1705.1954
  22163180.6994  -28985647.40948 -22226961.25147  22163179.3814   22163184.0254
     -1522.5994      -1186.4414
  20291048.9484  -40034563.11549 -30529495.37547  20291046.5874   20291048.7964
       496.2854        386.7154
 04 12 12  0 21 29.9990000  0  9G 5G17G13G10G30G24G 7G 4G 2
  21611361.8314  -25277710.29749 -19359679.36547  21611359.3754   21611364.6794
      -267.6684       -208.5734
  21266223.9674  -31519187.81549 -24260729.99547  21266221.7574   21266227.0714
      1782.3764       1388.8634
  24100331.8414  -10248675.04047  -7743243.82345  24100330.0834   24100334.1974
       328.8684        256.2554
  20663198.4924  -29478610.15549 -22925584.07047  20663196.0654   20663200.9654
      2917.2334       2273.1674
  22035886.3074  -21248104.04748 -14372361.43846  22035885.4064   22035889.5254
      1650.4654       1286.0754
  21199698.8244  -31632732.00749 -24290162.84147  21199697.0264   21199701.9954
      -613.4844       -478.0394
  24055243.1264  -28032089.19047 -21500531.71845  24055243.1174   24055250.1464
     -2196.4704      -1711.5274
  22171884.4814  -28939912.03348 -22191323.29347  22171883.0064   22171887.4134
     -1526.6794      -1189.6204
  20288245.3504  -40049296.80449 -30540976.16647  20288243.0334   20288245.2674
       485.6194        378.4044
 04 12 12  0 21 59.9990000  0  9G 5G17G13G10G30G24G 7G 4G 2
  21612930.9964  -25269462.40249 -19353252.44347  21612928.7934   21612934.0784
      -284.4254       -221.6314
  21256058.1874  -31572610.83649 -24302358.31447  21256055.8664   21256061.1704
      1776.9124       1384.6064
  24098498.1574  -10258310.60047  -7750752.03545  24098496.8974   24098501.4414
       311.2894        242.5614
  20646583.3804  -29565921.21149 -22993618.64647  20646581.1474   20646586.6634
      2901.2434       2260.7094
  22026510.3744  -21297373.72248 -14410753.37846  22026508.9914   22026514.2224
      1631.9954       1271.6844
  21203205.6994  -31614305.24549 -24275804.31847  21203203.4704   21203208.5124
      -617.2024       -480.9374
  24067789.5474  -27966145.77646 -21449147.28144  24067788.2274   24067798.0464
     -2201.8384      -1715.7134
  22180598.8744  -28894122.28048 -22155642.95847  22180596.6764   22180600.9304
     -1528.1874      -1190.7964
  20285489.6874  -40063777.44049 -30552259.77447  20285487.5924   20285489.5724
       477.5054        372.0814
 04 12 12  0 22 29.9990000  0  9G 5G17G13G10G30G24G 7G 4G 2
  21614608.7134  -25260646.98649 -19346383.30047  21614606.6584   21614611.7044
      -303.5944       -236.5664
  21245936.2594  -31625803.97649 -24343807.51247  21245933.8224   21245938.8194
      1768.9314       1378.3884
  24096777.0654  -10267354.58947  -7757799.26845  24096776.0374   24096780.2504
       291.3114        226.9984
  20630071.6214  -29652685.83749 -23061227.42747  20630069.7854   20630075.7104
      2882.7414       2246.2914
  22017253.1894  -21346023.10748 -14448661.98546  22017251.9524   22017256.2894
      1611.0314       1255.3464
  21206745.1294  -31595701.41349 -24261307.82047  21206743.5544   21206749.1964
      -623.3914       -485.7604
  24080385.1164  -27899972.54547 -21397583.82945  24080384.8164   24080390.7724
     -2209.7994      -1721.9174
  22189332.1574  -28848222.11048 -22119876.58747  22189330.2854   22189335.5934
     -1532.1114      -1193.8524
  20282793.2684  -40077948.82449 -30563302.40947  20282790.8634   20282792.6954
       466.9154        363.8284
 04 12 12  0 22 59.9990000  0  9G 5G17G13G10G30G24G 7G 4G 2
  21616380.0474  -25251341.73549 -19339132.46347  21616377.5564   21616382.6144
      -318.9354       -248.5214
  21235842.6104  -31678843.51749 -24385137.02347  21235840.5594   21235845.2614
      1764.8174       1375.1824
  24095153.6454  -10275882.69147  -7764444.51745  24095152.6424   24095156.2904
       275.0924        214.3594
  20613650.9424  -29738978.69249 -23128468.59047  20613648.5024   20613654.6664
      2867.9294       2234.7484
  22008098.4974  -21394127.72748 -14486146.08846  22008097.4724   22008102.7124
      1593.8254       1241.9414
  21210304.4824  -31576997.61049 -24246733.42947  21210302.7464   21210308.3234
      -625.7304       -487.5824
  24093007.6814  -27833646.60947 -21345901.31845  24093007.3724   24093009.6764
     -2213.9794      -1725.1744
  22198072.6984  -28802288.48748 -22084084.16246  22198071.0584   22198075.9054
     -1532.2294      -1193.9424
  20280140.4944  -40091887.60649 -30574163.79047  20280138.3534   20280140.3444
       460.1304        358.5424
 04 12 12  0 23 29.9990000  0  9G 5G17G13G10G30G24G 7G 4G 2
  21618253.7414  -25241489.67549 -19331455.54247  21618252.0384   21618257.4594
      -338.0874       -263.4444
  21225789.1634  -31731671.24049 -24426301.47547  21225787.1984   21225792.4934
      1756.7934       1368.9294
  24093640.0874  -10283836.38647  -7770642.15245  24093638.8954   24093643.9094
       254.9434        198.6554
  20597331.8464  -29824739.87749 -23195295.46547  20597328.9774   20597334.6624
      2849.2544       2220.1984
  21999059.9884  -21441628.28548 -14523159.49946  21999058.5514   21999063.3384
      1572.7114       1225.4894
  21213893.9784  -31558135.63249 -24232035.78347  21213891.9574   21213897.9364
      -631.9414       -492.4224
  24105666.1074  -27767110.43847 -21294054.92145  24105666.1184   24105673.1844
     -2221.8524      -1731.3144
  22206830.5074  -28756263.58348 -22048220.60146  22206829.0754   22206833.9834
     -1536.2214      -1197.0554
  20277542.8794  -40105535.88349 -30584798.80947  20277541.0664   20277543.5244
       449.5234        350.2774
 04 12 12  0 23 59.9990000  0  9G 5G17G13G10G30G24G 7G 4G 2
  21620234.2834  -25231082.84549 -19323346.33347  21620232.4044   21620237.7314
      -354.7354       -276.4174
  21215778.3694  -31784278.15249 -24467293.85947  21215776.5204   21215782.0834
      1751.2494       1364.6084
  24092238.6844  -10291206.27447  -7776384.89845  24092237.4574   24092241.1574
       237.3794        184.9664
  20581115.6784  -29909958.18249 -23261699.32747  20581113.0134   20581118.1174
      2832.9334       2207.4814
  21990138.1414  -21488514.75948 -14559694.40146  21990136.4904   21990141.2254
      1554.0694       1210.9634
  21217515.4194  -31539107.21349 -24217208.45047  21217513.0904   21217518.9284
      -635.6874       -495.3404
  24118370.6944  -27700355.63846 -21242038.19744  24118368.3824   24118375.6944
     -2227.4014      -1735.6364
  22215609.2804  -28710138.56448 -22012279.02846  22215607.0384   22215610.9654
     -1537.7124      -1198.2184
  20275002.7304  -40118884.95049 -30595200.68047  20275000.7904   20275003.5284
       441.3514        343.9094
 04 12 12  0 24 29.9990000  0  9G 5G17G13G10G30G24G 7G 4G 2
  21622316.7194  -25220141.12849 -19314820.32947  21622314.4534   21622319.8274
      -371.7924       -289.7074
  21205806.6584  -31836682.72449 -24508128.58047  21205804.5024   21205809.9074
      1745.2464       1359.9314
  24090943.4194  -10298010.81747  -7781687.12745  24090941.8344   24090946.9854
       219.1984        170.8024
  20564998.5734  -29994650.38849 -23327693.24247  20564996.5574   20565001.5904
      2816.1174       2194.3784
  21981328.1124  -21534804.72548 -14595764.48946  21981326.9574   21981332.0354
      1534.8764       1196.0074
  21221164.2094  -31519931.25849 -24202266.14647  21221162.4254   21221168.0424
      -639.8434       -498.5794
  24131113.4914  -27633401.33446 -21189866.10944  24131109.3664   24131119.7444
     -2233.3404      -1740.2614
  22224401.6014  -28663932.11348 -21976273.98446  22224400.4494   22224403.1854
     -1539.6634      -1199.7374
  20272515.7994  -40131953.21049 -30605383.73547  20272514.1064   20272516.7124
       432.7354        337.1964
 04 12 12  0 24 59.9990000  0  9G 5G17G13G10G30G24G 7G 4G 2
  21624492.8104  -25208708.83949 -19305912.06047  21624490.3434   21624495.2844
      -389.9354       -303.8464
  21195865.0854  -31888927.71549 -24548838.94847  21195862.6434   21195867.8774
      1738.1484       1354.4004
  24089748.6834  -10304292.21547  -7786581.67945  24089747.2694   24089750.8704
       199.9224        155.7804
  20548975.3874  -30078857.60149 -23393309.23647  20548972.7144   20548977.7104
      2798.0904       2180.3294
  21972626.6274  -21580540.19748 -14631402.51046  21972624.9214   21972629.3224
      1514.5874       1180.1984
  21224833.8634  -31500651.02449 -24187242.58747  21224831.4854   21224836.7674
      -645.1104       -502.6834
  24143884.8454  -27566290.94046 -21137572.30944  24143880.6954   24143888.7384
     -2240.2704      -1745.6644
  22233202.4154  -28617687.50048 -21940239.19046  22233200.4344   22233204.0174
     -1542.7374      -1202.1334
  20270074.9404  -40144783.91349 -30615381.68147  20270072.6324   20270074.8554
       423.0084        329.6164
 04 12 12  0 25 29.9990000  0  9G 5G17G13G10G30G24G 7G 4G 2
  21626772.0294  -25196728.29449 -19296576.57847  21626770.0254   21626774.9394
      -406.2804       -316.5824
  21185963.7544  -31940953.91249 -24589378.82547  21185961.8834   21185967.6204
      1732.7514       1350.1944
  24088663.3444  -10309991.30947  -7791022.51345  24088662.2684   24088666.1814
       182.4654        142.1834
  20533054.3814  -30162518.74849 -23458499.72047  20533052.2254   20533057.6444
      2781.7804       2167.6194
  21964039.6034  -21625660.95748 -14666561.52646  21964038.3424   21964042.9504
      1495.9794       1165.6994
  21228534.4634  -31481207.60349 -24172091.86547  21228531.9284   21228536.7094
      -648.6154       -505.4144
  24156696.6274  -27498966.38747 -21085111.66845  24156695.3784   24156699.5534
     -2245.4904      -1749.7334
  22242019.9484  -28571345.95348 -21904128.87946  22242018.3514   22242023.2364
     -1544.0684      -1203.1694
  20267689.3944  -40157318.13149 -30625148.59347  20267687.2404   20267689.5964
       415.0394        323.4064
 04 12 12  0 25 59.9990000  0  9G 5G17G13G10G30G24G 7G 4G 2
  21629143.9784  -25184264.96449 -19286864.90147  21629141.8154   21629146.7944
      -424.1774       -330.5264
  21176093.2304  -31992825.85749 -24629798.51647  21176091.1624   21176096.8484
      1725.7794       1344.7634
  24087677.9764  -10315172.49547  -7795059.76145  24087675.9414   24087680.4934
       163.4234        127.3454
  20517225.7994  -30245696.63149 -23523313.62647  20517223.4824   20517229.4414
      2763.8134       2153.6204
  21955558.2784  -21670230.64348 -14701291.14046  21955556.3514   21955561.5634
      1475.7924       1149.9674
  21232252.4164  -31461665.87149 -24156864.53547  21232250.1504   21232255.3524
      -653.7344       -509.4044
  24169536.2674  -27431492.66847 -21032534.73545  24169533.9084   24169537.1794
     -2252.3864      -1755.1084
  22250843.7064  -28524972.31548 -21867993.57946  22250842.6144   22250848.1444
     -1547.0104      -1205.4624
  20265348.0584  -40169620.42049 -30634734.77847  20265346.1204   20265348.6634
       405.5154        315.9854
 04 12 12  0 26 29.9990000  0  9G 5G17G13G10G30G24G 7G 4G 2
  21631613.0594  -25171288.22149 -19276753.16747  21631610.9414   21631616.3904
      -442.6384       -344.9134
  21166258.2024  -32044511.53449 -24670073.05747  21166255.7004   21166261.3194
      1718.1884       1338.8484
  24086797.5394  -10319803.25047  -7798668.12645  24086795.2704   24086799.3424
       143.6474        111.9344
  20501496.2144  -30328357.58649 -23587724.73147  20501493.5894   20501499.5774
      2745.1994       2139.1154
  21947187.5554  -21714216.60248 -14735565.89846  21947186.4914   21947191.4094
      1454.9404       1133.7214
  21235995.6974  -31441994.58849 -24141536.25847  21235993.4234   21235998.2654
      -659.4004       -513.8194
  24182407.1834  -27363838.50446 -20979817.18145  24182405.5604   24182412.9224
     -2259.6014      -1760.7364
  22259680.5244  -28478534.89948 -21831808.59246  22259678.9424   22259684.5684
     -1550.4914      -1208.1764
  20263057.3654  -40181659.25449 -30644115.68547  20263055.1894   20263057.6664
       395.3334        308.0514
 04 12 12  0 26 59.9990000  0  9G 5G17G13G10G30G24G 7G 4G 2
  21634190.1944  -25157749.91549 -19266203.85147  21634187.5314   21634192.4214
      -459.8204       -358.3014
  21156466.9444  -32095961.14849 -24710163.65647  21156465.1994   21156470.9314
      1711.8044       1333.8724
  24086029.9784  -10323833.68947  -7801808.70745  24086028.4594   24086031.5274
       125.1554         97.5194
  20485874.4714  -30410450.11149 -23651692.91147  20485872.1274   20485877.7744
      2727.7334       2125.5064
  21938939.4424  -21757568.21048 -14769346.35646  21938937.4384   21938942.1504
      1435.2964       1118.4124
  21239772.5994  -31422144.22349 -24126068.43647  21239770.9114   21239775.2314
