     2.10           OBSERVATION DATA    G (GPS)             RINEX VERSION / TYPE
teqc  2003Apr29                         20031029 00:18:20UTCPGM / RUN BY / DATE
Solaris 2.7|Ultra 2|cc SC5.0|=+-|*Sparc                     COMMENT
Linux 2.0.36|Pentium II|gcc -static|Linux|486/DX+           COMMENT
BIT 2 OF LLI FLAGS DATA COLLECTED UNDER A/S CONDITION       COMMENT
KOUR                                                        MARKER NAME
97301M210                                                   MARKER NUMBER
AUTOMATIC           ESA/ESOC                                OBSERVER / AGENCY
LP019995005         ASHTECH Z-XII3      CD00                REC # / TYPE / VERS
CR520014804         ASH701945C_M    NONE                    ANT # / TYPE
  3839591.4332 -5059567.5514   579956.9164                  APPROX POSITION XYZ
        0.0450        0.0000        0.0000                  ANTENNA: DELTA H/E/N
     1     1                                                WAVELENGTH FACT L1/2
     9    L1    L2    C1    P2    P1    D1    D2    S1    S2# / TYPES OF OBSERV
    30.0000                                                 INTERVAL
 SNR is mapped to RINEX snr flag value [1-9]                COMMENT
  L1: 1 -> 1;  90 -> 5; 210 -> 9                            COMMENT
  L2: 1 -> 1; 150 -> 5; 250 -> 9                            COMMENT
pseudorange smoothing corrections applied                   COMMENT
Checked by ROCK 1.0 [28.10.03-00:27]; status 2: file fixed  COMMENT
  2003    10    28     0     0    0.000000                  TIME OF FIRST OBS
    28                                                      # OF SATELLITES
   G01  1243  1243  1244  1174  1186  1243  1243  1243  1243PRN / # OF OBS
   G02  1138  1138  1138  1127  1130  1138  1138  1138  1138PRN / # OF OBS
   G03   818   817   816   800   802   818   817   818   817PRN / # OF OBS
   G04  1185  1185  1186  1107  1124  1185  1185  1185  1185PRN / # OF OBS
   G05   614   614   614   611   614   614   614   614   614PRN / # OF OBS
   G06   572   572   572   557   559   572   572   572   572PRN / # OF OBS
   G07   679   671   669   633   637   679   671   679   671PRN / # OF OBS
   G08  1259  1259  1260  1141  1154  1259  1259  1259  1259PRN / # OF OBS
   G09   656   655   655   644   649   656   655   656   655PRN / # OF OBS
   G10  1067  1067  1066  1012  1023  1067  1067  1067  1067PRN / # OF OBS
   G11   732   732   727   651   649   732   732   732   732PRN / # OF OBS
   G13  1231  1231  1231  1220  1223  1231  1231  1231  1231PRN / # OF OBS
   G14   656   656   656   644   647   656   656   656   656PRN / # OF OBS
   G15  1136  1136  1137  1120  1122  1136  1136  1136  1136PRN / # OF OBS
   G16  1062  1062  1063  1021  1022  1062  1062  1062  1062PRN / # OF OBS
   G17   575   575   574   546   547   575   575   575   575PRN / # OF OBS
   G18   627   627   627   611   612   627   627   627   627PRN / # OF OBS
   G20  1115  1115  1117  1025  1051  1115  1115  1115  1115PRN / # OF OBS
   G21   899   893   889   749   749   899   893   899   893PRN / # OF OBS
   G23   635   635   636   608   613   635   635   635   635PRN / # OF OBS
   G24   645   640   633   629   625   645   640   645   640PRN / # OF OBS
   G25   936   936   935   912   910   936   936   936   936PRN / # OF OBS
   G26   919   919   921   851   866   919   919   919   919PRN / # OF OBS
   G27  1222  1222  1220  1092  1139  1222  1222  1222  1222PRN / # OF OBS
   G28   767   767   767   679   703   767   767   767   767PRN / # OF OBS
   G29   709   709   710   694   698   709   709   709   709PRN / # OF OBS
   G30   626   626   626   626   626   626   626   626   626PRN / # OF OBS
   G31   860   859   859   817   827   860   859   860   859PRN / # OF OBS
Checked by ROCK 1.0 [29.10.03-00:19]; status 0: file OK     COMMENT
                                                            END OF HEADER
 03 10 28  0  0  0.0000000  0  8G27G 1G 8G13G 4G20G11G28
  -8444973.92048   2038917.98446  21554540.5664   21554551.0134   21554540.4344
     -1708.9994      -1331.6974        166.0004        175.0004
   3707689.21146   -522229.93845  24088296.1204   24088300.6974   24088295.4524
       549.2364        427.9794        124.0004        141.0004
  -5729271.73048    338752.20746  21811631.0794   21811645.0154   21811630.5964
      -647.7204       -504.7344        170.0004        187.0004
   4159354.73946   3245694.66445  24231247.3944   24231252.6144   24231247.4794
       843.6594        657.3934        123.0004        140.0004
  -3452950.74047   -113006.51145  23171301.6944   23171306.9084   23171277.5234
      1462.3234       1139.4794        137.0004        150.0004
 -10202927.40348  -7932344.20247  21244370.4964   21244376.4454   21244370.1164
      -652.1104       -508.1214        184.0004        200.0004
    519062.78946   4942143.14145  23455125.3494   23455139.1904   23455125.8534
     -2516.2274      -1960.7044        131.0004        138.0004
  -3185937.10247  -1406750.81146  22627115.9764   22627134.8314   22627115.7264
      3152.2924       2456.3354        148.0004        163.0004
 03 10 28  0  0 30.0000000  0  8G27G 1G 8G13G 4G20G11G28
  -8393599.06748   2078950.84046  21564316.8434   21564327.3644   21564316.6964
     -1716.0724      -1337.2094        165.0004        178.0004
   3691142.79546   -535123.23345  24085147.2334   24085152.0384   24085146.8924
       553.8624        431.5814        121.0004        138.0004
  -5709638.81648    354050.70346  21815367.0394   21815381.3544   21815366.5804
      -661.1074       -515.2024        168.0004        181.0004
   4133923.32446   3225878.10845  24226407.9974   24226413.0814   24226407.9484
       851.7754        663.7154        130.0004        146.0004
  -3496622.85846   -147036.99845  23162991.2364   23163003.7924   23162991.0374
      1449.0804       1129.1454        130.0004        149.0004
 -10183093.21648  -7916888.98847  21248144.7144   21248150.6034   21248144.3204
      -670.2084       -522.2314        183.0004        192.0004
    594506.66646   5000930.55445  23469481.8854   23469495.7174   23469482.1004
     -2513.3584      -1958.4854        129.0004        145.0004
  -3280421.04447  -1480374.67646  22609136.4054   22609154.4924   22609136.0484
      3146.6194       2451.9234        153.0004        170.0004
 03 10 28  0  1  0.0000000  0  8G27G 1G 8G13G 4G20G11G28
  -8342009.26647   2119151.34246  21574133.9574   21574144.5464   21574133.8104
     -1723.2124      -1342.7924        164.0004        178.0004
   3674456.37346   -548125.71945  24081971.7714   24081977.0164   24081971.5344
       558.5704        435.2474        121.0004        139.0004
  -5689606.42248    369661.16646  21819178.9414   21819193.5284   21819178.4444
      -674.2564       -525.4064        166.0004        176.0004
   4108247.48846   3205870.98645  24221521.8834   24221527.3024   24221521.9634
       859.9614        670.0934        126.0004        138.0004
  -3539898.15947   -180757.46146  23154756.3054   23154767.2614   23154756.4814
      1436.0104       1118.9584        150.0004        173.0004
 -10162720.90448  -7901014.58446  21252021.3654   21252027.2294   21252020.9874
      -688.1724       -536.2374        183.0004        187.0004
    669866.49547   5059652.57245  23483822.5914   23483836.8474   23483822.3844
     -2510.5434      -1956.2494        136.0004        148.0004
  -3374733.98447  -1553865.67346  22591189.3034   22591207.6884   22591188.9684
      3140.7654       2447.3454        152.0004        168.0004
 03 10 28  0  1 30.0000000  0  8G27G 1G 8G13G 4G20G11G28
  -8290208.16847   2159516.53346  21583991.1364   21584001.8864   21583990.9804
     -1730.3514      -1348.3474        164.0004        175.0004
   3657631.77146   -561235.83145  24078770.1354   24078775.1824   24078770.0504
       563.0554        438.7404        120.0004        138.0004
  -5669177.27348    385580.75446  21823066.1974   21823080.7074   21823065.7394
      -687.6114       -535.8634        167.0004        179.0004
   4082328.38046   3185674.39345  24216589.4564   24216594.6294   24216589.4504
       867.9004        676.2774        120.0004        135.0004
  -3582779.78947   -214171.54545  23146596.0974   23146609.6324   23146596.1134
      1422.9514       1108.7824        145.0004        161.0004
 -10141810.50348  -7884720.78347  21256000.4704   21256006.2084   21256000.0434
      -706.0274       -550.1684        184.0004        189.0004
    745141.12946   5118307.76845  23498146.8664   23498162.1974   23498146.7074
     -2507.6964      -1954.0394        132.0004        148.0004
  -3468872.21247  -1627220.11946  22573275.4674   22573293.0434   22573275.1484
      3135.0444       2442.8924        154.0004        170.0004
 03 10 28  0  2  0.0000000  0  8G27G 1G 8G13G 4G20G11G28
  -8238198.34047   2200044.31746  21593888.0644   21593898.6104   21593887.8574
     -1737.0944      -1353.5984        164.0004        174.0004
   3640670.85446   -574452.07545  24075542.7274   24075547.3664   24075542.5484
       567.6264        442.2994        123.0004        141.0004
  -5648351.79547    401810.72046  21827028.7094   21827043.3684   21827028.2574
      -700.3654       -545.8034        164.0004        173.0004
   4056166.90646   3165288.96145  24211610.9214   24211616.2014   24211610.9094
       876.1634        682.7204        125.0004        144.0004
  -3625267.44547   -247278.65546  23138510.8834   23138523.9394   23138510.9784
      1409.7594       1098.5264        149.0004        166.0004
 -10120361.91748  -7868007.54147  21260081.9524   21260087.6924   21260081.5544
      -723.8244       -564.0214        184.0004        200.0004
    820328.57946   5176895.14545  23512454.6344   23512470.4524   23512454.4824
     -2504.6774      -1951.6724        127.0004        134.0004
  -3562833.18847  -1700436.66546  22555395.2874   22555413.3134   22555395.1984
      3129.1424       2438.2844        153.0004        170.0004
 03 10 28  0  2 30.0000000  0  8G27G 1G 8G13G 4G20G11G28
  -8185983.14747   2240732.01546  21603823.9224   21603834.6034   21603823.7104
     -1743.6504      -1358.6984        164.0004        177.0004
   3623574.86246   -587773.67145  24072289.4164   24072294.2814   24072289.1364
       572.2184        445.8934        120.0004        137.0004
  -5627135.80847    418343.59946  21831065.2044   21831081.9384   21831064.9154
      -713.4424       -555.9464        164.0004        179.0004
   4029763.31546   3144714.72645  24206586.3794   24206592.0654   24206586.3404
       884.2904        689.0584        121.0004        139.0004
  -3667359.44347   -280077.55645  23130501.0634   23130514.4894   23130501.1224
      1396.6564       1088.2864        143.0004        145.0004
 -10098376.01948  -7850875.79947  21264265.7064   21264271.4704   21264265.3134
      -741.6644       -577.9224        184.0004        198.0004
    895428.45247   5235414.20946  23526745.7934   23526761.8614   23526745.8544
     -2501.6594      -1949.3454        156.0004        181.0004
  -3656613.98147  -1773512.52046  22537549.4664   22537566.8074   22537549.3384
      3123.1644       2433.6384        155.0004        169.0004
 03 10 28  0  3  0.0000000  0  8G27G 1G 8G13G 4G20G11G28
  -8133564.21447   2281578.54646  21613798.5184   21613808.9964   21613798.3154
     -1750.6444      -1364.1704        162.0004        174.0004
   3606345.96346   -601198.80545  24069010.7904   24069015.7524   24069010.5394
       576.4904        449.2084        118.0004        136.0004
  -5605530.26148    435180.19246  21835175.8984   21835192.0814   21835175.5484
      -726.5624       -566.1564        167.0004        181.0004
   4003119.42846   3123953.28945  24201516.3144   24201521.7044   24201516.1284
       892.1554        695.1824        131.0004        149.0004
  -3709058.68846   -312570.53145  23122565.8024   23122578.6974   23122566.1374
      1383.4334       1078.0114        133.0004        152.0004
 -10075851.82448  -7833324.41947  21268551.8934   21268557.6574   21268551.5224
      -759.6534       -591.9384        185.0004        205.0004
    970437.92047   5293862.93845  23541019.8494   23541034.9304   23541019.8584
     -2498.8004      -1947.1104        147.0004        156.0004
  -3750210.45547  -1846444.63246  22519738.7094   22519755.8494   22519738.5454
      3116.8314       2428.6744        153.0004        169.0004
 03 10 28  0  3 30.0000000  0  8G27G 1G 8G13G 4G20G11G28
  -8080945.46047   2322580.91946  21623811.0964   21623821.6184   21623810.9224
     -1757.3724      -1369.4064        163.0004        177.0004
   3588985.29946   -614726.60345  24065707.2064   24065711.7314   24065707.1624
       580.7304        452.5164        122.0004        140.0004
  -5583539.20948    452316.34946  21839359.9374   21839375.5434   21839359.5944
      -739.5864       -576.3074        168.0004        184.0004
   3976235.49246   3103004.88945  24196400.2364   24196405.4954   24196400.1164
       900.1264        701.3844        122.0004        134.0004
  -3750363.98046   -344756.37244  23114705.6004   23114717.8224   23114705.9714
      1370.2424       1067.7264        123.0004        131.0004
 -10052790.29648  -7815354.32447  21272940.3094   21272946.1324   21272939.9744
      -777.7804       -606.0724        184.0004        198.0004
   1045355.69946   5352240.05845  23555276.4994   23555291.1574   23555276.5204
     -2495.7814      -1944.7464        134.0004        151.0004
  -3843621.30647  -1919231.80646  22501963.2204   22501980.1454   22501962.9764
      3110.5674       2423.8044        157.0004        172.0004
 03 10 28  0  4  0.0000000  0  8G27G 1G 8G13G 4G20G11G28
  -8028129.05647   2363737.28446  21633861.2294   21633871.6564   21633861.0694
     -1763.7694      -1374.3704        163.0004        177.0004
   3571495.01746   -628355.53445  24062379.0424   24062383.9534   24062379.0084
       585.1264        455.9474        123.0004        142.0004
  -5561162.01348    469753.85046  21843617.6364   21843632.4894   21843617.2404
      -752.2774       -586.2184        167.0004        186.0004
   3949112.42446   3081870.00645  24191238.8614   24191244.3064   24191238.7204
       908.0214        707.5584        116.0004        133.0004
  -3791276.12446   -376636.23945  23106920.3024   23106933.2244   23106920.7474
      1357.2234       1057.6114        127.0004        149.0004
 -10029191.65448  -7796966.00347  21277431.0154   21277436.7544   21277430.6464
      -795.5704       -619.8814        185.0004        202.0004
   1120180.92346   5410545.02445  23569515.2894   23569529.8204   23569515.1764
     -2492.5844      -1942.2654        134.0004        143.0004
  -3936840.99647  -1991869.72545  22484223.9414   22484240.4844   22484223.7234
      3103.8844       2418.5764        150.0004        161.0004
 03 10 28  0  4 30.0000000  0  8G27G 1G 8G13G 4G20G11G28
  -7975119.28447   2405043.66846  21643948.2854   21643958.8814   21643948.1384
     -1770.2434      -1379.4194        162.0004        174.0004
   3553876.75446   -642084.06645  24059026.5994   24059031.1634   24059026.4444
       589.3964        459.2734        124.0004        142.0004
  -5538403.62348    487487.64447  21847947.9354   21847962.3004   21847947.5684
      -764.9674       -596.1214        167.0004        188.0004
   3921751.42546   3060549.79645  24186032.1644   24186037.2994   24186032.1984
       915.9764        713.7344        118.0004        139.0004
  -3831793.91446   -408208.72745  23099210.0364   23099221.9984   23099210.6424
      1344.0074       1047.2724        130.0004        154.0004
 -10005056.10848  -7778159.27246  21282023.8974   21282029.6034   21282023.5084
      -813.5514       -633.9024        183.0004        186.0004
   1194911.01146   5468775.66544  23583736.1064   23583751.5954   23583736.2604
     -2489.5144      -1939.8664        118.0004        128.0004
  -4029867.14846  -2064356.27645  22466521.1264   22466528.2174   22466521.1634
      3097.6884       2413.7264        127.0004        145.0004
 03 10 28  0  5  0.0000000  0  8G27G 1G 8G13G 4G20G11G28
  -7921917.89047   2446499.18946  21654071.8644   21654082.4234   21654071.7194
     -1776.4944      -1384.2864        161.0004        175.0004
   3536132.51446   -655910.74845  24055649.9054   24055654.4994   24055649.5974
       593.6094        462.5504        121.0004        139.0004
  -5515263.32948    505519.73746  21852351.0124   21852365.1494   21852350.6244
      -777.4374       -605.8094        167.0004        184.0004
   3894153.82546   3039045.21445  24180780.5574   24180785.6694   24180780.5384
       924.0344        720.0264        122.0004        137.0004
  -3871918.57246   -439474.59745  23091574.5564   23091586.4994   23091574.9624
      1330.9104       1037.0944        124.0004        134.0004
  -9980382.84248  -7758933.38447  21286719.1184   21286724.7484   21286718.7464
      -831.2744       -647.7654        183.0004        205.0004
   1269545.13846   5526931.38045  23597938.7794   23597953.9624   23597938.9994
     -2486.1354      -1937.2184        131.0004        140.0004
  -4122698.27445  -2136690.58944  22448855.1134                   22448851.7604
      3091.1754       2408.6564         98.0004        110.0004
 03 10 28  0  5 30.0000000  0  8G27G 1G 8G13G 4G20G11G28
  -7868527.30247   2488102.51846  21664231.5414   21664241.5954   21664231.4544
     -1782.9054      -1389.2864        162.0004        177.0004
   3518263.47246   -669834.75445  24052249.6194   24052254.2624   24052249.2874
       597.6094        465.6774        122.0004        140.0004
  -5491744.94747    523846.31646  21856825.9164   21856840.0364   21856825.5094
      -790.3514       -615.8874        164.0004        174.0004
   3866319.71946   3017356.18945  24175483.8354   24175489.2034   24175484.0304
       931.6614        725.9774        118.0004        134.0004
  -3911651.25047   -470435.68545  23084013.6894   23084027.7614   23084013.6274
      1317.8274       1026.9224        137.0004        159.0004
  -9955172.85348  -7739289.06747  21291516.5024   21291522.2074   21291516.0864
      -849.4104       -661.8834        183.0004        198.0004
   1344082.80946   5585012.25745  23612123.2754   23612137.4084   23612123.7134
     -2483.1184      -1934.8834        134.0004        145.0004
  -4215331.33244  -2208870.45144  22431226.5464                   22431210.1284
      3084.3274       2403.3014         73.0004        107.0004
 03 10 28  0  6  0.0000000  0  8G27G 1G 8G13G 4G20G11G28
  -7814951.07447   2529850.32546  21674426.5594   21674436.5974   21674426.4604
     -1788.9074      -1393.9524        163.0004        177.0004
   3500271.60246   -683854.42845  24048825.9594   24048830.7134   24048825.7424
       601.7034        468.8594        123.0004        141.0004
  -5467851.21548    542465.44546  21861372.3044   21861386.2824   21861371.8504
      -802.8074       -625.5674        166.0004        177.0004
   3838251.05646   2995484.56845  24170142.3444   24170147.2624   24170142.9664
       939.4874        732.0644        116.0004        135.0004
  -3950989.41756   -501089.04944  23076528.1654   23076534.5814   23076528.2004
      1304.2344       1016.2984        121.0004        121.0004
  -9929426.41548  -7719226.62347  21296415.8564   21296421.6924   21296415.4534
      -867.0704       -675.6484        184.0004        205.0004
   1418519.85746   5643014.53345  23626288.4994   23626303.5654   23626288.1484
     -2479.5784      -1932.1354        124.0004        145.0004
  -4307763.26844  -2280893.53544  22413636.0084
      3077.6814       2398.0924         65.0004        106.0004
 03 10 28  0  6 30.0000000  0  8G27G 1G 8G13G 4G20G11G28
  -7761192.28947   2571739.82246  21684656.4104   21684666.4874   21684656.2854
     -1795.0344      -1398.7074        163.0004        176.0004
   3482158.91246   -697968.30145  24045379.2904   24045383.7894   24045378.8154
       605.7814        472.0454        120.0004        136.0004
  -5443583.59448    561375.73946  21865989.8224   21866003.1464   21865989.4384
      -815.1144       -635.1404        166.0004        184.0004
   3809949.04246   2973431.25045  24164756.5634   24164761.4994   24164757.2154
       947.2614        738.1154        126.0004        143.0004
  -3989935.94546   -531437.77345  23069116.8144   23069119.2354   23069117.8774
      1291.5564       1006.4224        120.0004        141.0004
  -9903144.67848  -7698747.69647  21301417.0344   21301422.9064   21301416.6444
      -884.8654       -689.4574        184.0004        199.0004
   1492857.75046   5700939.70844  23640435.1074   23640448.7524   23640434.6964
     -2476.3024      -1929.5774        116.0004        131.0004
  -4399991.49244    -25710.43743  22396084.1624
      3070.7684       2392.8064         74.0004         74.0004
 03 10 28  0  7  0.0000000  0  8G27G 1G 8G13G 4G20G11G28
  -7707252.70447   2613770.37946  21694920.7984   21694930.4244   21694920.6804
     -1801.0724      -1403.4314        161.0004        173.0004
   3463927.03046   -712175.01345  24041910.0654   24041914.3884   24041909.6414
       609.6974        475.0924        125.0004        141.0004
  -5418945.88348    580573.94346  21870677.8134   21870691.1124   21870677.4354
      -827.3944       -644.7184        165.0004        176.0004
   3781413.57446   2951195.79445  24159326.3784   24159331.9324   24159326.9724
       955.0914        744.2384        117.0004        133.0004
  -4028490.60345   -561480.80644  23061780.1524                   23061779.7404
      1278.7234        996.4264         88.0004        108.0004
  -9876327.93948  -7677852.23247  21306520.1864   21306525.9454   21306519.8074
      -902.8734       -703.5244        182.0004        189.0004
   1567093.17347   5758785.08945  23654562.0644   23654576.3784   23654561.8174
     -2472.6564      -1926.7344        139.0004        156.0004
  -4492012.11744    -97406.86144  22378571.6154
      3064.0094       2387.0174         74.0004        106.0004
 03 10 28  0  7 30.0000000  0  8G27G 1G 8G13G 4G20G11G28
  -7653135.23047   2655939.61246  21705219.1134   21705228.7154   21705218.9274
     -1806.7794      -1407.8904        162.0004        176.0004
   3445577.87146   -726473.08145  24038418.3014   24038422.7314   24038418.0854
       613.6104        478.1384        123.0004        140.0004
  -5393939.08348    600059.95746  21875436.1984   21875449.1574   21875435.7554
      -839.4714       -654.1914        166.0004        184.0004
   3752646.75146   2928780.13045  24153852.2934   24153857.2684   24153852.7544
       962.8914        750.2934        120.0004        138.0004
  -4066652.49846   -591217.61245  23054518.1904   23054508.1724   23054515.9914
      1265.6474        986.2094        121.0004        149.0004
  -9848975.61148  -7656539.43846  21311725.3654   21311731.0404   21311724.9864
      -920.6714       -717.3994        181.0004        178.0004
   1641225.22546   5816549.54645  23668669.2874   23668684.7424   23668669.0254
     -2469.2014      -1924.0314        129.0004        142.0004
  -4583824.60144   -168933.60644  22361098.4764
      3056.8534       2381.4474         74.0004        109.0004
 03 10 28  0  8  0.0000000  0  8G27G 1G 8G13G 4G20G11G28
  -7598843.39247   2698244.87346  21715550.4784   21715560.0734   21715550.3444
     -1812.7434      -1412.5214        162.0004        175.0004
   3427112.78346   -740861.47245  24034904.4764   24034908.9804   24034904.3734
       617.2794        480.9964        125.0004        143.0004
  -5368567.39047    619829.81146  21880264.0994   21880278.0074   21880263.6954
      -852.0394       -663.9214        162.0004        175.0004
   3723648.27646   2906183.97745  24148334.0224   24148339.1914   24148334.4374
       970.3504        756.1114        120.0004        134.0004
  -4104423.96146   -620649.91845  23047330.5854   23047326.8864   23047329.2824
      1252.3664        975.8484        128.0004        144.0004
  -9821088.58348  -7634809.87746  21317032.3574   21317038.0614   21317031.9594
      -938.5744       -731.3114        182.0004        186.0004
   1715252.12746   5874232.20445  23682756.4464   23682771.2914   23682756.6294
     -2465.9244      -1921.4794        126.0004        138.0004
  -4675424.01744    -19648.29343  22343665.9124
      3049.6544       2376.3534         74.0004         74.0004
 03 10 28  0  8 30.0000000  0  8G27G 1G 8G13G 4G20G11G28
  -7544379.33447   2740684.18046  21725914.6764   21725924.5474   21725914.6004
     -1818.3444      -1416.8774        162.0004        175.0004
   3408533.95146   -755338.48945  24031369.0694   24031373.5494   24031368.9774
       621.2424        484.0884        125.0004        140.0004
  -5342831.14947    639883.96946  21885161.3684   21885174.8164   21885160.9814
      -864.0394       -673.2734        164.0004        178.0004
   3694420.46746   2883409.03545  24142772.2424   24142777.3274   24142772.4664
       978.1124        762.1684        133.0004        154.0004
  -4141803.59447   -649776.48546  23040217.4214   23040217.3584   23040216.5444
      1239.5284        965.8574        143.0004        163.0004
  -9792666.38648  -7612663.30147  21322441.2374   21322447.0394   21322440.8394
      -956.2624       -745.1204        182.0004        201.0004
   1789172.99746   5931832.38744  23696823.4864   23696837.9534   23696823.5804
     -2462.2154      -1918.5864        118.0004        127.0004
  -4766810.66544    -90845.65644  22326273.9804
      3042.6454       2370.1724         74.0004        108.0004
 03 10 28  0  9  0.0000000  0  8G27G 1G 8G13G 4G20G11G28
  -7489746.54847   2783255.01446  21736311.0344   21736320.7294   21736310.9284
     -1823.8464      -1421.1784        163.0004        179.0004
   3389842.50746   -769903.28345  24027812.2684   24027816.9474   24027812.0034
       624.9374        486.9634        127.0004        146.0004
  -5316734.24348    660219.27946  21890127.3854   21890140.6544   21890126.9664
      -875.5974       -682.2654        167.0004        181.0004
   3664963.11546   2860455.30445  24137166.7034   24137171.5614   24137166.9814
       985.7284        768.0994        126.0004        140.0004
  -4178793.92147   -678600.18245  23033178.2094   23033183.2614   23033177.7564
      1226.4524        955.6784        143.0004        161.0004
  -9763709.21648  -7590099.18147  21327951.9424   21327957.8414   21327951.5084
      -974.0974       -759.0464        182.0004        195.0004
   1862985.64546   5989348.18144  23710870.0794   23710885.0994   23710869.9034
     -2458.7034      -1915.8574        111.0004        122.0004
  -4857979.32344   -161864.48744  22308923.7384
      3035.3464       2364.4684         74.0004        107.0004
 03 10 28  0  9 30.0000000  0  8G27G 1G 8G13G 4G20G11G28
  -7434947.58947   2825955.21346  21746739.0034   21746748.8874   21746738.9664
     -1829.3964      -1425.4844        161.0004        174.0004
   3371041.01146   -784553.85445  24024234.5024   24024239.0954   24024234.2224
       628.5964        489.8174        125.0004        141.0004
  -5290278.08747    680834.17546  21895161.7354   21895175.4174   21895161.2104
      -887.6884       -691.6604        163.0004        169.0004
   3635278.89446   2837324.79445  24131517.9384   24131522.7514   24131518.3234
       993.3934        774.0694        128.0004        145.0004
  -4215393.84047   -707119.63445  23026213.4584   23026220.5554   23026213.1584
      1213.6944        945.7514        146.0004        158.0004
  -9734217.74548  -7567118.45747  21333564.1394   21333570.2404   21333563.7064
      -991.9054       -772.9124        181.0004        191.0004
   1936690.46546   6046780.12745  23724895.9494   23724911.4424   23724895.5344
     -2454.9324      -1912.9304        126.0004        146.0004
  -4948926.36544    -13557.78943  22291615.9244
      3027.6284       2359.1904         74.0004         74.0004
 03 10 28  0 10  0.0000000  0  8G27G 1G 8G13G 4G20G11G28
  -7379984.26347   2868783.67246  21757198.3114   21757208.0224   21757198.3024
     -1834.8734      -1429.7744        162.0004        176.0004
   3352131.31446   -799288.76645  24020636.1224   24020640.7244   24020635.8964
       632.0914        492.5414        125.0004        140.0004
  -5263465.55247    701726.50546  21900264.0424   21900279.7234   21900263.6524
      -899.6144       -701.0104        160.0004        184.0004
   3605368.34146   2814018.02345  24125826.1244   24125830.9294   24125826.4044
      1000.8954        779.9194        130.0004        144.0004
  -4251603.62447   -735335.18445  23019322.9434   23019332.1774   23019322.7964
      1200.5254        935.4674        137.0004        147.0004
  -9704193.11848  -7543722.51747  21339277.7074   21339283.8834   21339277.2844
     -1009.6364       -786.7444        182.0004        199.0004
   2010283.95646   6104125.16345  23738900.7774   23738916.4054   23738900.2034
     -2451.0504      -1909.8744        128.0004        139.0004
  -5039646.92944    -84247.88345  22274351.3304
      3020.3954       2353.4464         74.0004        136.0004
 03 10 28  0 10 30.0000000  0  8G27G 1G 8G13G 4G20G11G28
  -7324860.41747   2911737.25746  21767688.2564   21767697.9104   21767688.1444
     -1840.3034      -1434.0154        160.0004        172.0004
   3333114.72146   -814106.97845  24017017.3214   24017022.2164   24017017.2464
       635.4874        495.1874        128.0004        144.0004
  -5236298.37947    722895.80846  21905433.9754   21905448.4014   21905433.5854
      -911.6054       -710.3514        164.0004        176.0004
   3575232.39947   2790535.44745  24120091.2984   24120096.6914   24120091.6404
      1008.1204        785.5464        137.0004        156.0004
  -4287422.88046   -763245.81944  23012506.8134                   23012506.4064
      1187.4654        925.2154        111.0004        119.0004
  -9673636.21448  -7519911.92447  21345092.5064   21345098.7574   21345092.0834
     -1027.6384       -800.7754        182.0004        195.0004
   2083765.67446   6161382.89445  23752884.1894   23752901.4904   23752883.7224
     -2447.6504      -1907.2494        115.0004        133.0004
  -5130140.26444   -154758.64844  22257129.8714
      3012.4644       2347.2424         64.0004        106.0004
 03 10 28  0 11  0.0000000  0  8G27G 1G 8G13G 4G20G11G28
  -7269578.01047   2954814.85846  21778208.1984   21778217.7554   21778208.0714
     -1845.4754      -1438.0464        161.0004        176.0004
   3313993.48646   -829006.68645  24013378.8024   24013383.5254   24013378.6704
       638.9774        497.9054        129.0004        145.0004
  -5208777.59147    744341.31846  21910671.0334   21910684.7634   21910670.6004
      -923.1844       -719.4444        162.0004        175.0004
   3544871.88346   2766877.90345  24114313.9324   24114319.1894   24114314.1614
      1015.6904        791.4374        131.0004        147.0004
  -4322853.04445   -790853.08244  23005764.4954                   23005766.0754
      1174.3774        915.0734         92.0004        119.0004
  -9642547.07348  -7495686.63047  21351008.5744   21351014.8674   21351008.1424
     -1045.0724       -814.3314        183.0004        197.0004
   2157134.60846   6218553.35245  23766846.3074   23766861.9194   23766845.8424
     -2443.8904      -1904.3244        125.0004        139.0004
  -5220403.26144   -225089.88844  22239952.0994
      3004.9104       2341.3704         65.0004        110.0004
 03 10 28  0 11 30.0000000  0  8G27G 1G 8G13G 4G20G11G28
  -7214141.13147   2998012.50146  21788757.4664   21788767.3334   21788757.3354
     -1850.2914      -1441.7924        161.0004        175.0004
   3294769.23246   -843986.64045  24009720.5524   24009725.2554   24009720.4194
       642.7014        500.8144        127.0004        141.0004
  -5180909.24347    766057.41146  21915974.0344   21915988.7564   21915973.6044
      -934.5944       -728.2664        161.0004        178.0004
   3514288.16546   2743046.37445  24108493.9114   24108499.3444   24108494.1904
      1023.2354        797.3294        133.0004        147.0004
  -4357895.48446   -818157.71144  22999095.8994   22999091.7684   22999097.3164
      1161.7824        905.2674        110.0004        130.0004
  -9610926.76348  -7471047.54347  21357025.7684   21357032.0334   21357025.3264
     -1062.6734       -828.0374        183.0004        195.0004
   2230388.11346   6275633.56444  23780786.3064   23780803.1974   23780786.3254
     -2439.6654      -1901.0034        114.0004        125.0004
  -5310432.62546   -295239.97745  22222818.6694   22222868.6834
      2997.2674       2335.4684        125.0004        155.0004
 03 10 28  0 12  0.0000000  0  8G27G 1G 8G13G 4G20G11G28
  -7158552.32347   3041328.48346  21799335.6224   21799345.5644   21799335.4574
     -1855.4334      -1445.7864        161.0004        175.0004
   3275444.00246   -859045.25645  24006043.1824   24006047.6864   24006042.9574
       645.8404        503.2484        127.0004        142.0004
  -5152694.35947    788043.22046  21921342.9404   21921357.7014   21921342.5174
      -946.1704       -737.3064        164.0004        183.0004
   3483482.45647   2719041.72845  24102631.8334   24102637.3504   24102632.0574
      1030.5134        802.9994        135.0004        151.0004
  -4392550.95145   -845161.16644  22992500.9624                   22992499.0074
      1148.8354        895.1934         87.0004        113.0004
  -9578775.95548  -7445995.25747  21363143.9144   21363150.1124   21363143.5214
     -1080.4464       -841.8924        183.0004        200.0004
   2303526.08446   6332623.60844  23794704.3164   23794721.8814   23794704.8624
     -2435.9394      -1898.1214        106.0004        122.0004
  -5400226.20847   -365207.13846  22205730.0684   22205755.8344   22205745.0534
      2989.0774       2329.1054        156.0004        179.0004
 03 10 28  0 12 30.0000000  0  8G27G 1G 8G13G 4G20G11G28
  -7102814.33647   3084760.33946  21809942.3194   21809952.4094   21809942.1064
     -1860.3644      -1449.6334        160.0004        173.0004
   3256019.58446   -874181.06345  24002346.6954   24002351.2004   24002346.5184
       649.1654        505.8414        127.0004        142.0004
  -5124135.37347    810297.60446  21926777.3114   21926790.6644   21926776.9014
      -957.4594       -746.0734        161.0004        176.0004
   3452455.74246   2694864.92845  24096727.6304   24096732.8344   24096727.8684
      1037.9444        808.7934        131.0004        144.0004
  -4426819.43545   -871863.12844  22985979.4884
      1135.7704        884.9854         80.0004        113.0004
  -9546094.26148  -7420529.11547  21369363.1314   21369369.4264   21369362.7414
     -1098.1944       -855.7254        181.0004        196.0004
   2376545.80146   6389521.72145  23808599.7084   23808616.1664   23808599.5964
     -2431.9254      -1895.0164        124.0004        147.0004
  -5489781.43547   -434988.82346  22188686.8804   22188691.3184   22188682.1454
      2981.2614       2323.0184        161.0004        176.0004
 03 10 28  0 13  0.0000000  0  8G27G 1G 8G13G 4G20G11G28
  -7046928.91147   3128307.56846  21820576.9514   21820586.5564   21820576.7274
     -1865.5204      -1453.6554        160.0004        174.0004
   3236498.08846   -889392.60245  23998631.7764   23998636.5504   23998631.5694
       652.0764        508.1054        128.0004        143.0004
  -5095234.42847    832818.20545  21932276.8134   21932293.9904   21932276.3564
      -969.1704       -755.2174        150.0004        135.0004
   3421209.97246   2670517.71045  24090781.9154   24090786.4164   24090782.4414
      1044.9214        814.2084        132.0004        150.0004
  -4460700.05744   -898262.99144  22979531.7984
      1122.8034        874.8984         62.0004        108.0004
  -9512882.98848  -7394650.47647  21375683.1414   21375689.4304   21375682.7354
     -1116.0544       -869.6374        181.0004        197.0004
   2449447.80646   6446328.46445  23822472.8804   23822488.5204   23822472.5664
     -2428.2804      -1892.1574        122.0004        134.0004
  -5579094.10147   -504581.86446  22171690.0154   22171696.2984   22171686.2784
      2972.8424       2316.4184        158.0004        170.0004
 03 10 28  0 13 30.0000000  0  8G27G 1G 8G13G 4G20G11G28
  -6990899.83747   3171966.67646  21831238.8354   21831248.6794   21831238.6744
     -1869.7294      -1456.9494        160.0004        176.0004
   3216880.73146   -904678.80645  23994898.7294   23994903.3514   23994898.3384
       655.7794        510.9924        129.0004        146.0004
  -5065995.32747    855601.71446  21937840.6144   21937859.1394   21937840.3184
      -979.9754       -763.6184        156.0004        174.0004
   3389745.11746   2645999.68245  24084794.4214   24084799.4214   24084794.8404
      1052.7954        820.3584        127.0004        140.0004
  -4494195.56744    -14980.11843  22973157.4694
      1110.2964        865.1654         74.0004         74.0004
  -9479143.67848  -7368360.67747  21382103.6834   21382109.9844   21382103.2534
     -1133.2014       -882.9994        180.0004        193.0004
   2522227.99246   6503039.80345  23836322.8434   23836339.8814   23836322.5684
     -2423.6924      -1888.5534        127.0004        148.0004
  -5668161.72847   -573983.28346  22154739.6754   22154745.5404   22154736.6154
      2965.2404       2310.5024        156.0004        166.0004
 03 10 28  0 14  0.0000000  0  8G27G 1G 8G13G 4G20G11G28
  -6934728.20047   3215737.42646  21841927.8584   21841937.2574   21841927.7184
     -1874.4254      -1460.6184        158.0004        170.0004
   3197170.29946   -920037.54345  23991148.0844   23991152.6324   23991147.6154
       658.8054        513.3494        128.0004        143.0004
  -5036419.13747    878648.38046  21943468.6274   21943485.0344   21943468.2764
      -991.1774       -772.3424        157.0004        172.0004
   3358063.89247   2621312.81445  24078765.6714   24078771.0444   24078766.1314
      1059.9324        825.9234        140.0004        160.0004
  -4527303.31844    -40777.80745  22966856.7814
      1097.5474        855.2084         74.0004        159.0004
  -9444874.37148  -7341657.49447  21388625.0544   21388631.4514   21388624.6514
     -1150.8484       -896.7954        180.0004        198.0004
   2594888.83345   6559657.89544  23850150.1134                   23850147.7754
     -2419.7004      -1885.4414         97.0004        110.0004
  -5756980.88147   -643191.10446  22137836.6464   22137843.5014   22137834.1044
      2956.7384       2303.9074        161.0004        177.0004
 03 10 28  0 14 30.0000000  0  8G27G 1G 8G13G 4G20G11G28
  -6878418.62447   3259615.82746  21852643.0814   21852652.5984   21852642.8864
     -1879.1834      -1464.3204        160.0004        174.0004
   3177367.85646   -935467.90345  23987379.7574   23987384.3344   23987379.3534
       661.6554        515.5704        131.0004        147.0004
  -5006509.52347    901954.17446  21949160.2204   21949175.6414   21949159.6724
     -1002.5224       -781.2174        157.0004        174.0004
   3326166.28447   2596457.47145  24072695.8014   24072700.8974   24072696.2134
      1066.9394        831.3794        140.0004        155.0004
  -4560027.88747    -66277.11346  22960629.2134   22960666.3144   22960689.8454
      1084.5374        845.0854        148.0004        167.0004
  -9410078.38548  -7314544.04146  21395246.7534   21395253.1784   21395246.3294
     -1168.6014       -910.5714        180.0004        187.0004
   2667426.71344   6616180.20744  23863953.9394                   23863943.8844
     -2415.7544      -1882.3994         78.0004        109.0004
  -5845548.74347   -712203.39346  22120981.4224   22120988.7594   22120979.4754
      2948.0404       2297.0864        160.0004        175.0004
                            4  1
RINEX FILE SPLICE; other post-header comments skipped       COMMENT
 03 10 28  0 15  0.0000000  0  8G27G 1G 8G13G 4G20G11G28
  -6821973.85647   3303599.25446  21863383.9454   21863393.8044   21863383.7094
     -1883.6334      -1467.7814        159.0004        173.0004
   3157475.69646   -950968.15245  23983594.3874   23983599.0044   23983594.0104
       664.5944        517.8604        134.0004        150.0004
  -4976268.41747    925519.06646  21954914.7854   21954931.3414   21954914.2774
     -1013.3604       -789.6184        152.0004        174.0004
   3294053.97147   2571434.85145  24066585.1264   24066590.1294   24066585.4834
      1074.0304        836.9014        140.0004        151.0004
  -4592368.52447    -91477.42345  22954474.8624   22954488.7434   22954536.7504
      1071.5364        834.9634        145.0004        156.0004
  -9374755.10248  -7287019.80747  21401968.7684   21401975.2394   21401968.3434
     -1186.1544       -924.2484        181.0004        191.0004
   2739840.06144   6672605.44144  23877734.0954
     -2411.5924      -1879.1454         72.0004        109.0004
  -5933864.30447   -781018.67045  22104174.1294   22104183.6834   22104172.5904
      2939.7544       2290.6554        150.0004        149.0004
 03 10 28  0 15 30.0000000  0  8G27G 1G 8G13G 4G20G11G28
  -6765395.61747   3347686.71046  21874150.1134   21874159.9874   21874149.8714
     -1888.3464      -1471.4694        158.0004        172.0004
   3137495.78346   -966536.85545  23979792.2844   23979797.0024   23979791.9134
       667.3344        519.9984        133.0004        147.0004
  -4945698.32747    949339.71446  21960731.9454   21960746.8234   21960731.5304
     -1024.3814       -798.2244        162.0004        182.0004
   3261728.20947   2546246.00345  24060433.7064   24060438.7364   24060434.0844
      1080.9944        842.3394        140.0004        155.0004
  -4624324.12947   -116377.43145  22948393.7144   22948402.8864   22948393.5354
      1058.8234        825.0464        143.0004        160.0004
  -9338904.87948  -7259084.65847  21408791.0744   21408797.5914   21408790.6604
     -1203.8404       -938.0694        182.0004        202.0004
   2812128.75444     17375.84843  23891490.4564
     -2407.4864      -1875.9644         74.0004         74.0004
  -6021923.99046   -849634.99544  22087415.7944                   22087412.6834
      2930.9804       2283.8234        115.0004        106.0004
 03 10 28  0 16  0.0000000  0  8G27G 1G 8G13G 4G20G11G28
  -6708687.04047   3391876.35546  21884940.9374   21884950.2464   21884940.7634
     -1892.4304      -1474.6644        156.0004        172.0004
   3117429.86846   -982172.65145  23975973.8154   23975978.5464   23975973.2944
       670.2464        522.2704        130.0004        145.0004
  -4914802.82247    973413.83646  21966611.2134   21966625.6354   21966610.7304
     -1035.3374       -806.7364        160.0004        170.0004
   3229190.44247   2520891.88545  24054242.0764   24054247.1964   24054242.5264
      1088.0574        847.8334        137.0004        151.0004
  -4655897.73547   -140979.99645  22942385.1674   22942396.4714   22942384.8574
      1045.8944        814.9724        145.0004        161.0004
  -9302529.22548  -7230740.02647  21415713.3134   21415719.9474   21415712.9114
     -1221.3624       -951.7234        181.0004        189.0004
   2884290.91144     73606.16844  23905222.9134
     -2403.3364      -1872.7324         74.0004        106.0004
  -6109724.91246   -918050.21745  22070707.0304   22070730.1644   22070701.4244
      2922.1504       2276.9464        133.0004        162.0004
 03 10 28  0 16 30.0000000  0  8G27G 1G 8G13G 4G20G11G28
  -6651852.24247   3436163.93444  21895755.7944   21895770.7264   21895755.4954
     -1896.6864      -1477.9584        138.0004        126.0004
   3097279.97446   -997873.81145  23972139.4354   23972144.0374   23972138.9864
       672.9804        524.3964        130.0004        146.0004
  -4883582.88847    997740.92846  21972552.1364   21972565.6084   21972551.7434
     -1045.9714       -815.0174        164.0004        179.0004
   3196441.65247   2495373.37245  24048010.0714   24048015.1284   24048010.5434
      1095.1464        853.3624        137.0004        152.0004
  -4687089.05047   -165285.08345  22936449.6774   22936461.8894   22936448.9964
      1033.3074        805.1614        136.0004        160.0004
  -9265628.72748  -7201986.21047  21422735.3684   21422742.0964   21422734.9294
     -1238.7214       -965.2344        181.0004        192.0004
   2956324.99044    129736.62944  23918930.8884
     -2398.9744      -1869.3024         74.0004        107.0004
  -6197265.85946   -986263.38444  22054048.0684                   22054045.7444
      2913.7274       2270.4134        111.0004        109.0004
 03 10 28  0 17  0.0000000  0  8G27G 1G 8G13G 4G20G11G28
  -6594893.20046   3480548.23944  21906594.3734                   21906591.6394
     -1900.7854      -1481.1704        106.0004        112.0004
   3077047.93546  -1013638.89745  23968289.2604   23968293.8324   23968288.9874
       675.6014        526.4394        131.0004        147.0004
  -4852041.07147   1022319.03046  21978554.4354   21978567.4864   21978554.0034
     -1056.9724       -823.6594        163.0004        178.0004
   3163483.21846   2469691.45945  24041738.3924   24041743.6404   24041738.8234
      1101.9904        858.6854        133.0004        147.0004
  -4717898.44847   -189292.13245  22930586.6704   22930597.9424   22930586.2724
      1020.3674        795.0894        135.0004        146.0004
  -9228205.02748  -7172825.00947  21429856.8824   21429863.6584   21429856.4774
     -1256.3274       -978.9634        180.0004        190.0004
   3028231.64144     12579.74543  23932614.5374
     -2394.6464      -1865.9604         74.0004         74.0004
  -6284543.55645  -1054271.52144  22037439.7554                   22037443.8614
      2904.9194       2263.5724         82.0004         99.0004
 03 10 28  0 17 30.0000000  0  8G27G 1G 8G13G 4G20G11G28
  -6537812.69845   3525027.43944  21917456.0064                   21917452.6194
     -1904.5244      -1484.0844         88.0004        114.0004
   3056736.12746  -1029466.20945  23964424.0304   23964428.7824   23964423.7724
       678.5084        528.7074        132.0004        147.0004
  -4820179.94947   1047146.66346  21984617.3044   21984629.8124   21984616.8674
     -1067.1594       -831.5894        164.0004        178.0004
   3130316.47246   2443847.30045  24035426.9704   24035432.2534   24035427.4764
      1109.1364        864.2724        129.0004        139.0004
  -4748325.92147   -213001.22946  22924796.2264   22924807.3894   22924795.9794
      1008.1344        785.5434        153.0004        163.0004
  -9190257.55548  -7143255.43547  21437078.1134   21437084.8994   21437077.6954
     -1273.4804       -992.3134        180.0004        191.0004
   3100008.09644     68510.14444  23946273.1454
     -2390.4064      -1862.7374         74.0004        107.0004
  -6371550.79645  -1122069.18844  22020883.3304
      2896.0284       2256.6304         88.0004        116.0004
 03 10 28  0 18  0.0000000  0  8G27G 1G 8G13G 4G20G11G28
  -6480614.68144   3569598.34144  21928340.1194
     -1908.6354      -1487.2864         69.0004        110.0004
   3036345.93046  -1045354.63145  23960543.9184   23960548.5904   23960543.5784
       680.9764        530.6324        132.0004        148.0004
  -4788004.70447   1072218.43546  21990739.8974   21990753.5044   21990739.5334
     -1077.5714       -839.6664        161.0004        173.0004
   3096942.49946   2417841.44345  24029076.1494   24029081.8914   24029076.4704
      1115.9584        869.5774        123.0004        142.0004
  -4778373.78947   -236414.82846  22919078.0044   22919089.7734   22919078.1794
       995.4324        775.6534        161.0004        172.0004
  -9151787.80548  -7113278.68147  21444398.6534   21444405.5124   21444398.2474
     -1291.0114      -1005.9894        180.0004        191.0004
   3171655.51744    124341.14744  23959907.1584
     -2385.8364      -1859.1684         74.0004        113.0004
  -6458286.04644    -15188.03643  22004379.0744
      2886.9104       2249.5394         74.0004         74.0004
 03 10 28  0 18 30.0000000  0  8G27G 1G 8G13G 4G20G11G28
  -6423299.64544     30892.76543  21939246.6014
     -1912.4824      -1490.2464         74.0004         74.0004
   3015879.62546  -1061302.36445  23956649.2104   23956654.0154   23956648.9544
       683.3174        532.4604        130.0004        145.0004
  -4755516.09747   1097533.79146  21996922.1724   21996937.4894   21996921.6174
     -1088.1524       -847.8674        158.0004        174.0004
   3063362.75046   2391675.36945  24022686.1274   24022691.6554   24022686.5324
      1122.6784        874.8284        127.0004        143.0004
  -4808042.91146   -259533.43744  22913432.0084                   22913431.4514
       982.5434        765.6324        124.0004        113.0004
  -9112797.24748  -7082896.26847  21451818.2474   21451825.1364   21451817.8224
     -1308.3834      -1019.5144        181.0004        189.0004
   3243167.41644      7915.31943  23973515.1594
     -2381.5944      -1855.7884         74.0004         74.0004
  -6544743.81344    -82559.51645  21987927.7464   21987830.5714
      2876.9674       2241.8974         64.0004        139.0004
 03 10 28  0 19  0.0000000  0  8G27G 1G 8G13G 4G20G11G28
  -6365872.23647     75641.51246  21950174.6674   21950121.9774
     -1916.1194      -1493.0654        135.0004        169.0004
   2995338.87346  -1077308.13645  23952740.4464   23952745.0304   23952740.2574
       685.9644        534.5154        131.0004        147.0004
  -4722715.20447   1123092.94944  22003163.9794   22003173.6824   22003163.3364
     -1098.4104       -855.9194        145.0004        128.0004
   3029578.76046   2365350.16445  24016257.3204   24016262.8104   24016257.6144
      1129.4924        880.1224        125.0004        140.0004
  -4837331.74945   -282355.77144  22907858.2494                   22907856.1924
       970.1044        755.9154         93.0004        109.0004
  -9073286.35548  -7052108.41446  21459336.8404   21459343.7084   21459336.4364
     -1325.8104      -1033.1634        179.0004        187.0004
   3314546.31644     63529.08944  23987098.1244
     -2377.3054      -1851.7584         74.0004        101.0004
  -6630925.10844   -149717.54444  21971528.7854
      2868.4914       2235.3164         67.0004        112.0004
 03 10 28  0 19 30.0000000  0  8G27G 1G 8G13G 4G20G11G28
  -6308334.30447    120475.96346  21961123.7864   21961071.2464   21961114.7784
     -1919.7064      -1495.8704        154.0004        171.0004
   2974725.54846  -1093370.47145  23948817.8774   23948822.4484   23948817.6604
       688.3474        536.3774        132.0004        148.0004
  -4689606.41847   1148892.68346  22009464.1014   22009460.5454   22009459.7134
     -1108.5814       -863.8444        143.0004        173.0004
   2995591.24246   2338866.33945  24009789.7674   24009795.2334   24009789.9354
      1136.2944        885.4244        126.0004        142.0004
  -4866244.10044   -304884.70144  22902356.1804                   22902349.4344
       957.5704        746.1514         74.0004        109.0004
  -9033256.61048  -7020915.93947  21466954.1434   21466961.0174   21466953.7364
     -1342.9254      -1046.4594        180.0004        199.0004
   3385788.07644    119021.90144  24000654.8564
     -2372.5504      -1848.0894         74.0004        121.0004
  -6716827.51944   -216658.32944  21955182.9364
      2858.8694       2227.7904         62.0004        105.0004
 03 10 28  0 20  0.0000000  0  8G27G 1G 8G13G 4G20G11G28
  -6250688.31547    165394.64646  21972093.5634   21972102.5794   21972084.5704
     -1923.4144      -1498.7664        156.0004        171.0004
   2954042.03546  -1109487.59345  23944881.7484   23944886.6324   23944881.5444
       690.5344        538.0804        133.0004        149.0004
  -4656192.40447   1174930.22446  22015822.2384   22015824.2594   22015819.2884
     -1118.9084       -871.8874        157.0004        180.0004
   2961401.71846   2312224.98345  24003283.8234   24003289.4714   24003283.7704
      1142.9364        890.6144        130.0004        141.0004
  -4894778.97544     -1672.44143  22896925.9924
       944.8884        736.3184         74.0004         74.0004
  -8992708.41448  -6989319.61647  21474670.0394   21474676.9284   21474669.6214
     -1360.2954      -1059.9984        180.0004        194.0004
   3456896.65744      3210.21343  24014186.2564
     -2368.1144      -1845.2594         74.0004         74.0004
  -6802443.61644   -283376.07644  21938891.7794
      2849.1744       2220.2504         74.0004        115.0004
 03 10 28  0 20 30.0000000  0  7G27G 1G 8G13G 4G20G28
  -6192936.61847    210395.95246  21983083.3364   21983091.6144   21983082.9834
     -1926.8334      -1501.4004        154.0004        166.0004
   2933290.61946  -1125657.59645  23940932.8174   23940937.8004   23940932.5834
       692.7674        539.8194        134.0004        150.0004
  -4622476.35047   1201202.59646  22022237.8304   22022242.7924   22022235.6204
     -1129.0104       -879.7514        163.0004        177.0004
   2927012.70746   2285428.12145  23996739.7164   23996745.5094   23996739.9484
      1149.5254        895.7344        122.0004        134.0004
  -4922936.58644    -23613.57645  22891567.6734
       932.2824        726.4574         74.0004        143.0004
  -8951643.15148  -6957320.79247  21482484.3334   21482491.1954   21482483.9574
     -1377.5354      -1073.4304        180.0004        200.0004
  -6887770.55244    -49344.99845  21922655.3244
      2839.3724       2212.5104         74.0004        152.0004
 03 10 28  0 21  0.0000000  0  8G27G 1G 8G13G 4G20G11G28
  -6135082.30747    255476.98646  21994092.6894   21994101.8374   21994092.5014
     -1930.2594      -1504.1134        154.0004        167.0004
   2912472.99947  -1141879.19745  23936971.4134   23936976.2824   23936971.2384
       695.0294        541.5824        136.0004        152.0004
  -4588459.37547   1227709.88446  22028710.7604   22028717.1554   22028709.0634
     -1138.9014       -887.4944        163.0004        182.0004
   2892424.70746   2258476.56545  23990158.0884   23990162.9524   23990158.3664
      1156.1754        900.9134        125.0004        142.0004
  -4950718.98846    -45262.22445  22886280.7034   22886362.8094
       919.8624        716.7654        116.0004        153.0004
  -8910060.94048  -6924918.76847  21490397.0854   21490403.9194   21490396.6564
     -1394.6204      -1086.7194        182.0004        204.0004
     40562.97644     14271.652 3                  24038307.120
     -2359.7914      -1838.798          74.0004         74.000
  -6972809.96844   -115607.78844  21906473.2924
      2829.7984       2204.9744         74.0004        114.0004
 03 10 28  0 21 30.0000000  0  8G27G 1G 8G13G 4G20G11G28
  -6077128.59847    300635.65746  22005120.9174   22005129.7974   22005120.8464
     -1933.3654      -1506.5174        156.0004        170.0004
   2891591.15647  -1158150.81745  23932997.7494   23933002.5154   23932997.6164
       697.1524        543.2374        135.0004        150.0004
  -4554147.27847   1254446.24146  22035239.8964   22035248.3434   22035238.4634
     -1148.5484       -894.9504        164.0004        183.0004
   2857639.03846   2231370.85745  23983538.6894   23983543.7284   23983538.9314
      1162.7874        906.0714        126.0004        143.0004
  -4978127.15147    -66619.10345  22881065.0314   22881145.9734   22881083.7954
       907.2714        706.9594        141.0004        158.0004
  -8867963.90448  -6892115.62046  21498407.7694   21498414.8674   21498407.3934
     -1411.8384      -1100.1514        176.0004        182.0004
    119525.47144     75800.358 5                  24053281.161
     -2354.6804      -1834.633          74.0004        134.000
  -7057555.55844   -181641.50144  21890347.1254
      2819.9394       2197.3004         74.0004        110.0004
 03 10 28  0 22  0.0000000  0  8G27G 1G 8G13G 4G20G11G28
  -6019077.41947    345870.56246  22016167.6864   22016176.2484   22016167.5514
     -1936.6944      -1509.1184        152.0004        163.0004
   2870646.92646  -1174471.04645  23929012.2604   23929016.9684   23929012.1204
       699.2604        544.8814        133.0004        148.0004
  -4519539.79647   1281413.27246  22041825.2954   22041833.2164   22041824.2854
     -1158.2794       -902.5494        162.0004        183.0004
   2822657.17146   2204112.18045  23976881.8264   23976887.0314   23976882.0714
      1169.3854        911.2114        129.0004        146.0004
  -5005161.31047    -87684.62646  22875920.4434   22875931.4354   22875939.6964
       895.0214        697.4134        146.0004        166.0004
  -8825354.06648  -6858913.36647  21506516.0934   21506522.9914   21506515.6754
     -1428.7264      -1113.2454        179.0004        205.0004
    181865.74344    124376.771 4                  24065103.778
     -2350.4924      -1831.525          72.0004        115.000
  -7142004.61544   -247444.08344  21874277.2314
      2810.1484       2189.6614         65.0004        113.0004
 03 10 28  0 22 30.0000000  0  7G27G 1G 8G13G 4G20G28
  -5960931.56447    391179.49846  22027232.4054   22027240.8764   22027232.3054
     -1939.7844      -1511.5314        155.0004        170.0004
   2849642.87846  -1190837.89045  23925015.3614   23925020.0664   23925015.1564
       700.9874        546.2244        133.0004        148.0004
  -4484640.25547   1308607.56546  22048466.3884   22048475.7404   22048465.5204
     -1168.1734       -910.3384        161.0004        180.0004
   2787480.74846   2176701.98645  23970187.8624   23970193.1234   23970188.0724
      1175.7754        916.1964        134.0004        151.0004
  -5031822.45647   -108459.72245  22870847.0244   22870859.8834   22870847.8774
       882.5564        687.6864        135.0004        151.0004
  -8782231.33448  -6825311.76147  21514722.0604   21514728.8984   21514721.6654
     -1445.8244      -1126.6374        178.0004        190.0004
  -7226158.53344     -1647.41543  21858263.3834
      2800.2864       2182.0374         74.0004         74.0004
 03 10 28  0 23  0.0000000  0  8G27G 1G 8G13G 4G20G11G28
  -5902694.66747    436559.09546  22038314.4404   22038323.4174   22038314.2674
     -1942.8144      -1513.8874        155.0004        169.0004
   2828580.57646  -1207250.04345  23921007.4764   23921011.8474   23921007.0844
       703.0034        547.7924        134.0004        150.0004
  -4449451.91947   1336027.09446  22055162.3874   22055172.0054   22055161.6754
     -1177.8804       -917.8234        162.0004        172.0004
   2752111.05846   2149141.22445  23963457.2204   23963462.3614   23963457.6094
      1182.1174        921.1214        134.0004        152.0004
  -5058112.46647   -128945.57845  22865844.2224   22865856.2274   22865844.8844
       869.5284        677.5624        142.0004        145.0004
  -8738596.09848  -6791310.46046  21523025.6314   21523032.4014   21523025.2174
     -1463.0614      -1140.0534        178.0004        187.0004
     29640.80344     11441.042 3                  24091212.264
     -2341.0504      -1824.203          74.0004         74.000
  -7310014.63244    -66990.71846  21842306.3374
      2789.8084       2173.9364         74.0004        171.0004
 03 10 28  0 23 30.0000000  0  8G27G 1G 8G13G 4G20G11G28
  -5844368.82147    482007.73646  22049413.4354   22049422.6884   22049413.2004
     -1945.7224      -1516.1494        153.0004        167.0004
   2807462.86647  -1223705.35645  23916988.9094   23916993.4054   23916988.5714
       704.8714        549.2534        135.0004        151.0004
  -4413974.01747   1363673.32346  22061913.4304   22061923.9214   22061912.8274
     -1187.2194       -925.1424        161.0004        177.0004
   2716550.21446   2121431.57345  23956690.1444   23956695.3314   23956690.6024
      1188.5844        926.1704        131.0004        147.0004
  -5084029.28647   -149140.07745  22860912.4804   22860923.8594   22860912.9264
       857.8234        668.4254        140.0004        157.0004
  -8694449.19848  -6756910.16746  21531426.4494   21531433.4784   21531426.0774
     -1479.9204      -1153.0984        179.0004        183.0004
