     2.10           OBSERVATION DATA    G (GPS)             RINEX VERSION / TYPE
teqc  2002Mar14     Ole Bjerregaard Hans20031029 00:10:46UTCPGM / RUN BY / DATE
Linux 2.0.36|Pentium II|gcc -static|Linux|486/DX+           COMMENT
     2              OBSERVATION DATA    G (GPS)             COMMENT
CCRINEXO V2.3.0 UX  KMS                 29-OCT-03 01:06     COMMENT
CONCATENATED OBSERVATION FILES                              COMMENT
teqc  2001Nov28                         20031028  0:59:     COMMENT
MSWin2000|IAx86-PII|wcl386 11.0|MSWin95/98/NT/2000|486/DX+  COMMENT
BIT 2 OF LLI FLAGS DATA COLLECTED UNDER A/S CONDITION       COMMENT
 SNR is mapped to RINEX snr flag value [1-9]                COMMENT
  L1: 1 -> 1;  90 -> 5; 210 -> 9                            COMMENT
  L2: 1 -> 1; 150 -> 5; 250 -> 9                            COMMENT
QAQ1                                                        MARKER NAME
43007M001                                                   MARKER NUMBER
KMS                 KMS                                     OBSERVER / AGENCY
ZR20012301          ASHTECH UZ-12       CJ00                REC # / TYPE / VERS
13301               ASH701941.B     SCIS                    ANT # / TYPE
  2170942.1800 -2251829.9500  5539988.2900                  APPROX POSITION XYZ
        0.1206        0.0000        0.0000                  ANTENNA: DELTA H/E/N
     1     1                                                WAVELENGTH FACT L1/2
     9    C1    L1    L2    P1    P2    D1    D2    S1    S2# / TYPES OF OBSERV
    30.0000                                                 INTERVAL
  2003    10    28     0     0    0.0000000     GPS         TIME OF FIRST OBS
                                                            END OF HEADER
 03 10 28  0  0  0.0000000  1  8G 7G 9G11G14G20G23G28G31
  22443164.5694  -13300354.94543 -10355979.83942  22443163.0114   22443167.3014
      2728.1044       2125.8034         53.0004         46.0004
  23838809.6304   -6879117.03643  -5350311.83742  23838808.8254   23838815.1474
      1150.2174        896.2794         45.0004         41.0004
  20508770.3984  -16479879.14044 -12824927.90742  20508769.4544   20508771.9864
      -737.1834       -574.4254         57.0004         52.0004
  24285763.5074   -7102765.68843  -5512624.83742  24285763.4424   24285767.1584
      1681.0144       1309.8804         45.0004         39.0004
  23150199.2164  -12756311.74743  -9931026.46942  23150198.3784   23150201.7444
      3432.2884       2674.5054         49.0004         43.0004
  24543045.0054   -5971143.31843  -4647445.47942  24543044.1814   24543050.8644
     -2706.5064      -2108.9704         45.0004         40.0004
  20990059.9554  -20240256.78344 -15762708.08142  20990058.6584   20990062.0054
      -416.0504       -324.1874         57.0004         51.0004
  23522653.7374    1676689.94543   1320942.28942  23522652.4004   23522656.1394
     -3656.8454      -2849.4804         47.0004         42.0004
 03 10 28  0  0 30.0000000  0  8G 7G 9G11G14G20G23G28G31
  22427609.4754  -13382094.90243 -10419673.29142  22427608.4134   22427612.7184
      2720.5554       2119.9044         53.0004         46.0004
  23832301.1594   -6913323.21743  -5376966.11142  23832300.3164   23832305.9024
      1129.3614        880.0274         46.0004         40.0004
  20513024.6174  -16457522.26244 -12807506.95842  20513023.7434   20513026.4654
      -754.0944       -587.6094         57.0004         52.0004
  24276212.9554   -7152957.34843  -5551735.13742  24276212.6594   24276213.7044
      1664.0994       1296.7074         45.0004         39.0004
  23130630.6054  -12859147.21743 -10011157.96442  23130628.7784   23130632.9014
      3422.6024       2666.9624         49.0004         43.0004
  24558528.1004   -5889783.97943  -4584048.57642  24558527.2604   24558531.7234
     -2717.9944      -2117.9224         47.0004         40.0004
  20992490.8234  -20227481.96544 -15752753.68942  20992489.5774   20992492.7664
      -436.3854       -340.0444         57.0004         51.0004
  23543542.2224    1786459.09543   1406476.66742  23543539.7304   23543544.9494
     -3661.7994      -2853.3424         47.0004         41.0004
 03 10 28  0  1  0.0000000  0  8G 7G 9G11G14G20G23G28G31
  22412097.9974  -13463612.91243 -10483193.85242  22412096.2044   22412101.3074
      2713.3244       2114.2764         53.0004         46.0004
  23825910.2814   -6946910.81043  -5403138.21642  23825909.4864   23825914.1394
      1108.9364        864.0994         47.0004         41.0004
  20517374.0954  -16434666.57044 -12789697.32242  20517372.8804   20517375.5884
      -770.3434       -600.2644         57.0004         52.0004
  24266757.7634   -7202642.43243  -5590450.70142  24266757.4344   24266761.2114
      1647.4664       1283.7434         44.0004         39.0004
  23111115.1804  -12961701.34243 -10091070.24842  23111112.9944   23111116.6824
      3413.5894       2659.9304         49.0004         43.0004
  24574071.3134   -5808102.22443  -4520400.42542  24574070.3544   24574075.6924
     -2727.9814      -2125.6914         46.0004         40.0004
  20995036.1474  -20214106.63044 -15742331.34642  20995035.0274   20995037.9754
      -456.1034       -355.4054         57.0004         51.0004
  23564456.8314    1896365.29843   1492117.84742  23564455.1084   23564459.9734
     -3665.8304      -2856.4994         47.0004         42.0004
 03 10 28  0  1 30.0000000  0  8G 7G 9G11G14G20G23G28G31
  22396628.1704  -13544904.65543 -10546538.06642  22396626.8734   22396630.7154
      2706.0874       2108.6444         53.0004         46.0004
  23819637.1714   -6979876.62343  -5428825.91842  23819635.7404   23819638.3674
      1088.6574        848.2904         46.0004         41.0004
  20521818.6074  -16411310.57744 -12771497.84542  20521817.4224   20521820.2494
      -786.7414       -613.0344         57.0004         52.0004
  24257400.6314   -7251816.50743  -5628768.16742  24257400.1724   24257401.6724
      1630.7164       1270.6944         45.0004         39.0004
  23091653.8974  -13063968.93643 -10170759.26242  23091653.0004   23091656.2754
      3404.1654       2652.5734         49.0004         43.0004
  24589675.1134   -5726097.87343  -4456500.94042  24589674.7794   24589680.7564
     -2738.9344      -2134.2434         45.0004         40.0004
  20997696.0974  -20200128.47344 -15731439.27142  20997694.9934   20997697.9194
      -475.8994       -370.8284         57.0004         51.0004
  23585398.5634    2006409.17943   1577866.28442  23585397.0344   23585400.0724
     -3670.4884      -2860.1264         48.0004         42.0004
 03 10 28  0  2  0.0000000  0  8G 7G 9G11G14G20G23G28G31
  22381201.9574  -13625967.16443 -10609703.59042  22381200.3174   22381205.7824
      2698.1194       2102.4244         52.0004         47.0004
  23813483.2414   -7012217.38643  -5454026.47142  23813481.6884   23813487.2864
      1067.5744        831.8724         47.0004         41.0004
  20526358.5464  -16387453.43444 -12752907.86142  20526357.5704   20526359.8894
      -803.7024       -626.2644         57.0004         52.0004
  24248140.8934   -7300475.58743  -5666684.25842  24248140.6314   24248144.4154
      1613.2724       1257.0904         44.0004         39.0004
  23072248.3154  -13165945.57243 -10250221.54642  23072247.0184   23072251.6554
      3394.3434       2644.9144         49.0004         43.0004
  24605343.4564   -5643771.78643  -4392350.87142  24605341.8804   24605346.6854
     -2749.7504      -2142.6564         47.0004         41.0004
  21000471.1234  -20185545.91244 -15720076.24342  21000469.7094   21000472.9844
      -496.3074       -386.7354         57.0004         51.0004
  23606364.4554    2116591.02643   1663722.23542  23606363.2904   23606367.3404
     -3674.9874      -2863.6344         47.0004         42.0004
 03 10 28  0  2 30.0000000  0  8G 7G 9G11G14G20G23G28G31
  22365820.1214  -13706802.99043 -10672692.60442  22365818.3494   22365822.8884
      2690.5504       2096.5384         53.0004         47.0004
  23807446.6314   -7043936.00043  -5478742.27642  23807445.4414   23807450.8964
      1046.7804        815.6844         46.0004         41.0004
  20530992.8334  -16363100.20044 -12733931.32342  20530991.4804   20530994.1254
      -820.1564       -639.0834         57.0004         52.0004
  24238979.0014   -7348621.71543  -5704200.68542  24238976.7154   24238981.7104
      1596.3284       1243.8884         44.0004         39.0004
  23052898.6314  -13267632.36543 -10329457.99442  23052897.2224   23052899.6994
      3384.5354       2637.2774         49.0004         43.0004
  24621068.3394   -5561129.87443  -4327954.63442  24621067.2104   24621071.3134
     -2759.9864      -2150.6584         45.0004         39.0004
  21003359.9084  -20170363.21344 -15708245.58042  21003359.0544   21003362.0134
      -516.2404       -402.2684         57.0004         51.0004
  23627355.3594    2226905.25243   1749681.36542  23627353.3824   23627359.2134
     -3679.5474      -2867.1674         47.0004         41.0004
 03 10 28  0  3  0.0000000  0  8G 7G 9G11G14G20G23G28G31
  22350480.7974  -13787408.32843 -10735501.99442  22350479.4484   22350484.2284
      2683.0914       2090.7054         53.0004         47.0004
  23801529.3954   -7075029.29143  -5502970.86742  23801527.9334   23801533.6784
      1026.0464        799.5184         46.0004         41.0004
  20535721.4844  -16338249.69344 -12714567.29842  20535720.4364   20535723.2704
      -836.5374       -651.8524         57.0004         52.0004
  24229915.1434   -7396250.79843  -5741314.31042  24229914.5014   24229918.7004
      1578.8784       1230.2954         45.0004         39.0004
  23033604.1624  -13369024.21643 -10408464.62642  23033601.7074   23033606.8104
      3374.8164       2629.7214         50.0004         43.0004
  24636855.1854   -5478172.31343  -4263312.36042  24636854.0014   24636857.8614
     -2770.2004      -2158.6074         46.0004         39.0004
  21006364.0434  -20154578.10244 -15695945.50742  21006362.8444   21006366.0284
      -536.0934       -417.7334         57.0004         51.0004
  23648374.1244    2337352.45443   1835744.10542  23648373.3904   23648376.4094
     -3684.0384      -2870.7044         48.0004         41.0004
 03 10 28  0  3 30.0000000  0  8G 7G 9G11G14G20G23G28G31
  22335186.3714  -13867781.61943 -10798130.50042  22335185.0444   22335190.4334
      2675.2624       2084.6174         53.0004         47.0004
  23795732.3624   -7105495.91943  -5526711.03842  23795730.8114   23795736.0764
      1005.0804        783.1614         47.0004         41.0004
  20540544.9364  -16312902.86344 -12694816.52942  20540543.8784   20540546.3824
      -853.1194       -664.7684         57.0004         52.0004
  24220951.3014   -7443360.66443  -5778023.31142  24220949.4804   24220953.5244
      1561.8614       1217.0354         44.0004         39.0004
  23014366.4724  -13470118.29543 -10487239.22242  23014365.6574   23014369.2124
      3364.8174       2621.9334         50.0004         43.0004
  24652700.4264   -5394901.68643  -4198426.25742  24652700.2384   24652706.2904
     -2780.6404      -2166.7264         44.0004         40.0004
  21009482.3704  -20138191.04644 -15683176.38742  21009481.2404   21009484.3504
      -556.2564       -433.4454         57.0004         51.0004
  23669415.6414    2447931.07243   1921909.23842  23669415.3514   23669418.8314
     -3688.1844      -2873.9264         47.0004         41.0004
 03 10 28  0  4  0.0000000  0  8G 7G 9G11G14G20G23G28G31
  22319935.8794  -13947920.93343 -10860576.67242  22319934.0734   22319940.1434
      2667.2474       2078.3754         52.0004         47.0004
  23790055.0434   -7135334.57843  -5549962.02242  23790053.8124   23790057.9054
       984.0134        766.7584         47.0004         41.0004
  20545462.7774  -16287060.00644 -12674679.22542  20545461.6434   20545464.1994
      -869.8734       -677.8284         57.0004         52.0004
  24212085.2184   -7489948.82443  -5814325.81142  24212083.8364   24212088.6584
      1543.9174       1203.0574         45.0004         39.0004
  22995186.2624  -13570911.06543 -10565779.02042  22995185.3164   22995188.0884
      3354.5104       2613.9064         50.0004         43.0004
  24668606.6254   -5311319.38943  -4133297.25742  24668604.4484   24668610.5434
     -2791.5214      -2175.2034         47.0004         41.0004
  21012715.2914  -20121201.71244 -15669937.95342  21012714.3054   21012717.0084
      -576.5244       -449.2444         57.0004         51.0004
  23690482.8844    2558639.98643   2008175.90842  23690482.2304   23690485.0274
     -3692.6454      -2877.3784         47.0004         41.0004
 03 10 28  0  4 30.0000000  0  8G 7G 9G11G14G20G23G28G31
  22304730.3434  -14027829.02143 -10922842.67842  22304728.7734   22304734.0604
      2659.7804       2072.5564         53.0004         47.0004
  23784494.7964   -7164548.11143  -5572725.82242  23784493.2824   23784498.8794
       963.4824        750.7754         46.0004         41.0004
  20550473.7764  -16260726.59844 -12654159.68142  20550472.7084   20550475.4064
      -885.8064       -690.2434         57.0004         52.0004
  24203319.5754   -7536017.65743  -5850223.75042  24203318.3734   24203321.5014
      1526.9064       1189.8014         45.0004         39.0004
  22976063.3274  -13671404.29543 -10644085.41842  22976061.1194   22976065.4684
      3344.7744       2606.3324         50.0004         44.0004
  24684568.9084   -5227432.55443  -4067930.99342  24684567.6484   24684571.4284
     -2801.1924      -2182.7504         45.0004         40.0004
  21016062.1344  -20103614.59844 -15656233.71942  21016061.0234   21016063.8294
      -596.1114       -464.4974         57.0004         51.0004
  23711574.4404    2669473.36643   2094539.56142  23711573.0274   23711577.5814
     -3696.2934      -2880.2334         47.0004         41.0004
 03 10 28  0  5  0.0000000  0  8G 7G 9G11G14G20G23G28G31
  22289569.5834  -14107498.62643 -10984922.86342  22289568.4314   22289573.4394
      2651.9084       2066.4074         53.0004         47.0004
  23779054.5544   -7193129.66643  -5594997.19242  23779053.4324   23779061.1124
       942.3334        734.2904         46.0004         41.0004
  20555579.2584  -16233897.68144 -12633254.03342  20555577.9674   20555580.6644
      -902.2424       -703.0444         57.0004         52.0004
  24194653.6634   -7581558.99943  -5885710.57342  24194651.2934   24194654.5364
      1509.2544       1176.0504         45.0004         39.0004
  22956998.5814  -13771589.10843 -10722151.49042  22956997.1224   22957001.0644
      3334.5734       2598.3824         50.0004         43.0004
  24700591.5644   -5143237.33343  -4002324.27142  24700589.8344   24700594.1054
     -2811.2304      -2190.5754         44.0004         38.0004
  21019523.5674  -20085424.16044 -15642059.36542  21019522.4154   21019525.5594
      -616.1384       -480.1064         57.0004         51.0004
  23732689.9194    2780435.57243   2181003.60342  23732689.8984   23732692.3964
     -3700.5544      -2883.5544         47.0004         41.0004
 03 10 28  0  5 30.0000000  0  8G 7G 9G11G14G20G23G28G31
  22274454.1164  -14186929.86643 -11046817.36242  22274453.0734   22274458.6404
      2643.8304       2060.1234         53.0004         47.0004
  23773737.3444   -7221079.68943  -5616776.39842  23773736.1804   23773742.3324
       921.4214        718.0104         47.0004         41.0004
  20560778.2604  -16206575.95844 -12611964.37342  20560777.1654   20560779.8474
      -918.7324       -715.8984         57.0004         52.0004
  24186087.3734   -7626572.43443  -5920785.93242  24186085.9884   24186090.4984
      1491.8444       1162.4674         45.0004         40.0004
  22937993.0294  -13871464.35643 -10799976.34442  22937990.6754   22937995.5564
      3324.1004       2590.2254         50.0004         43.0004
  24716671.3024   -5058737.87743  -3936480.59242  24716669.9664   24716675.0364
     -2821.4374      -2198.5154         45.0004         40.0004
  21023099.8434  -20066632.33444 -15627416.39842  21023098.3844   21023101.8344
      -636.2384       -495.7644         57.0004         51.0004
  23753828.6994    2891523.37143   2267565.51842  23753827.3314   23753832.0424
     -3704.8444      -2886.9064         45.0004         41.0004
 03 10 28  0  6  0.0000000  0  8G 7G 9G11G14G20G23G28G31
  22259384.0674  -14266123.97543 -11108527.07342  22259382.7264   22259387.9954
      2635.8914       2053.9474         53.0004         47.0004
  23768538.7374   -7248400.36743  -5638065.41342  23768536.4994   23768542.1464
       900.2674        701.5114         46.0004         41.0004
  20566070.5834  -16178765.32044 -12590293.74442  20566069.4024   20566072.0434
      -935.1124       -728.6584         57.0004         52.0004
  24177622.4324   -7671059.14243  -5955450.86142  24177620.7704   24177624.4544
      1473.9704       1148.5474         46.0004         40.0004
  22919045.9724  -13971029.96643 -10877559.92642  22919044.4284   22919047.3384
      3313.7094       2582.0794         50.0004         43.0004
  24732808.3564   -4973939.36543  -3870403.86642  24732806.7304   24732813.0354
     -2831.6374      -2206.4584         46.0004         41.0004
  21026789.5994  -20047241.93344 -15612307.00542  21026788.3224   21026790.9694
      -656.2314       -511.3474         57.0004         51.0004
  23774990.2494    3002732.45243   2354221.93142  23774989.3934   23774994.5894
     -3709.1914      -2890.2764         46.0004         41.0004
 03 10 28  0  6 30.0000000  0  8G 7G 9G11G14G20G23G28G31
  22244360.3994  -14345075.14543 -11170047.47942  22244359.6104   22244364.5204
      2627.3064       2047.2564         54.0004         47.0004
  23763460.3414   -7275085.90343  -5658859.34642  23763459.4954   23763464.0224
       878.3184        684.4084         47.0004         41.0004
  20571456.3104  -16150462.50944 -12568239.60142  20571455.2874   20571457.8914
      -951.9824       -741.8074         57.0004         52.0004
  24169258.1044   -7715012.90643  -5989700.46242  24169256.8894   24169260.2654
      1455.7934       1134.3954         46.0004         40.0004
  22900159.7854  -14070278.77543 -10954896.63642  22900158.7314   22900163.0774
      3302.6864       2573.5434         50.0004         44.0004
  24749001.2144   -4888839.78843  -3804092.65042  24749000.4744   24749006.5244
     -2842.0224      -2214.5514         44.0004         39.0004
  21030593.9054  -20027249.53244 -15596728.51642  21030592.6074   21030595.5934
      -676.8464       -527.4114         57.0004         50.0004
  23796176.3134    3114065.39143   2440974.83942  23796175.7364   23796180.0764
     -3713.3384      -2893.5134         46.0004         41.0004
 03 10 28  0  7  0.0000000  0  8G 7G 9G11G14G20G23G28G31
  22229382.4404  -14423786.72843 -11231381.15642  22229381.3114   22229386.6124
      2619.6454       2041.2914         54.0004         47.0004
  23758502.3194   -7301140.54543  -5679161.54942  23758500.5394   23758506.7804
       857.9544        668.5314         47.0004         41.0004
  20576934.6654  -16121673.65344 -12545806.72042  20576933.6844   20576936.2754
      -967.7214       -754.0694         57.0004         52.0004
  24160994.8814   -7758437.12243  -6023537.50242  24160992.6934   24160996.0804
      1438.7844       1121.1324         45.0004         39.0004
  22881333.4224  -14169212.96743 -11031988.19042  22881331.9934   22881335.4544
      3292.5824       2565.6484         51.0004         44.0004
  24765251.9514   -4803446.52943  -3737552.56642  24765251.8584   24765255.0894
     -2851.4274      -2221.8894         46.0004         39.0004
  21034511.9744  -20006660.24744 -15580684.93142  21034510.6424   21034513.7744
      -696.3694       -542.6274         57.0004         51.0004
  23817386.2894    3225515.64843   2527819.20642  23817384.9464   23817388.4934
     -3716.8904      -2896.2704         47.0004         41.0004
 03 10 28  0  7 30.0000000  0  8G 7G 9G11G14G20G23G28G31
  22214450.4374  -14502254.10443 -11292524.53742  22214448.7574   22214454.2394
      2611.3954       2034.8614         53.0004         47.0004
  23753664.7924   -7326559.93243  -5698968.68442  23753663.8454   23753669.6824
       836.6154        651.9044         46.0004         41.0004
  20582506.2154  -16092396.13944 -12522993.07142  20582504.8684   20582507.4934
      -984.1154       -766.8384         57.0004         52.0004
  24152831.8724   -7801326.09143  -6056957.47342  24152831.2634   24152835.1584
      1421.0124       1107.2954         44.0004         39.0004
  22862567.8324  -14267826.44543 -11108829.84042  22862566.0914   22862569.5714
      3281.6624       2557.1304         51.0004         44.0004
  24781558.8624   -4717758.54843  -3670782.70442  24781555.9154   24781561.4844
     -2861.1014      -2229.4344         46.0004         40.0004
  21038543.9584  -19985471.00144 -15564173.84442  21038542.6954   21038546.1024
      -716.2984       -558.1494         57.0004         51.0004
  23838615.9084    3337085.06743   2614756.41442  23838615.3244   23838619.5244
     -3720.7584      -2899.2904         46.0004         41.0004
 03 10 28  0  8  0.0000000  0  8G 7G 9G11G14G20G23G28G31
  22199565.5784  -14580475.82543 -11353476.53042  22199564.5234   22199568.4664
      2603.7504       2028.8924         54.0004         47.0004
  23748948.3634   -7351343.55643  -5718280.41842  23748947.9984   23748954.0914
       815.8064        635.6974         46.0004         41.0004
  20588170.1354  -16062631.66144 -12499799.97242  20588168.8574   20588171.6114
      -999.8594       -779.1104         57.0004         51.0004
  24144772.7874   -7843678.26943  -6089959.12442  24144771.2174   24144774.9524
      1403.3294       1093.5044         45.0004         39.0004
  22843863.4324  -14366116.61843 -11185419.56442  22843862.5384   22843865.8264
      3271.2944       2549.0594         51.0004         44.0004
  24797919.0234   -4631778.66343  -3603785.59942  24797917.9924   24797922.0584
     -2870.5614      -2236.7934         45.0004         39.0004
  21042690.2344  -19963682.52944 -15547195.82442  21042689.3134   21042692.3324
      -735.9044       -573.4304         57.0004         50.0004
  23859870.6784    3448771.79343   2701785.00342  23859869.2224   23859871.8454
     -3724.2454      -2902.0124         47.0004         41.0004
 03 10 28  0  8 30.0000000  0  8G 7G 9G11G14G20G23G28G31
  22184727.4954  -14658451.59443 -11414236.88542  22184726.9724   22184731.1454
      2595.1544       2022.2004         54.0004         48.0004
  23744353.2684   -7375491.73343  -5737097.08842  23744352.1364   23744358.4134
       794.5164        619.0954         47.0004         41.0004
  20593926.4204  -16032382.15544 -12476228.93042  20593925.1844   20593927.8074
     -1016.3144       -791.9364         57.0004         52.0004
  24136816.1034   -7885493.15343  -6122542.18342  24136815.3054   24136819.0814
      1384.9224       1079.1624         45.0004         39.0004
  22825221.5674  -14464081.46043 -11261755.79442  22825220.0354   22825224.0304
      3259.9414       2540.2284         50.0004         44.0004
  24814335.7404   -4545509.97943  -3536563.32242  24814335.4954   24814340.3174
     -2880.0534      -2244.1844         45.0004         39.0004
  21046950.3734  -19941296.24244 -15529751.96942  21046949.1494   21046952.1314
      -756.0524       -589.1344         57.0004         50.0004
  23881144.9674    3560573.42243   2788903.15242  23881143.6614   23881147.7004
     -3728.3764      -2905.2194         46.0004         41.0004
 03 10 28  0  9  0.0000000  0  8G 7G 9G11G14G20G23G28G31
  22169935.9704  -14736178.74643 -11474803.50242  22169934.3404   22169939.7444
      2586.6884       2015.5964         54.0004         47.0004
  23739878.3634   -7399003.05243  -5755417.71942  23739878.7644   23739884.1614
       773.0434        602.3554         47.0004         42.0004
  20599774.9104  -16001647.86244 -12452280.13642  20599773.7364   20599776.3324
     -1032.5514       -804.5924         57.0004         52.0004
  24128962.1564   -7926767.77743  -6154704.26442  24128960.5824   24128964.1254
      1366.7994       1065.0424         45.0004         40.0004
  22806641.4234  -14561717.33643 -11337835.67442  22806640.6924   22806643.8044
      3249.0874       2531.7624         50.0004         44.0004
  24830806.7974   -4458954.28243  -3469117.57242  24830804.9404   24830811.2444
     -2890.1444      -2252.0494         45.0004         40.0004
  21051324.2824  -19918311.71144 -15511841.94842  21051323.1134   21051325.8444
      -776.1614       -604.8054         57.0004         50.0004
  23902441.5534    3672489.13843   2876110.22642  23902440.1894   23902445.3344
     -3732.4744      -2908.4134         46.0004         40.0004
 03 10 28  0  9 30.0000000  0  8G 7G 9G11G14G20G23G28G31
  22155191.2314  -14813656.35543 -11535175.67142  22155190.7294   22155196.4404
      2578.1724       2008.9584         53.0004         47.0004
  23735526.4914   -7421876.25943  -5773240.92942  23735526.4704   23735531.4134
       751.4744        585.5724         47.0004         41.0004
  20605715.2954  -15970430.14044 -12427954.64742  20605714.3744   20605717.0144
     -1048.8704       -817.3044         57.0004         51.0004
  24121210.7124   -7967500.88843  -6186444.38142  24121209.6304   24121214.0854
      1348.1704       1050.5194         46.0004         40.0004
  22788125.3464  -14659022.15643 -11413657.59142  22788123.0884   22788128.5614
      3237.4234       2522.6754         51.0004         44.0004
  24847332.4364   -4372114.08743  -3401450.03842  24847330.4234   24847337.1504
     -2899.8214      -2259.6004         46.0004         40.0004
  21055811.5554  -19894729.91844 -15493466.52942  21055810.5234   21055813.4984
      -796.2694       -620.4694         57.0004         51.0004
  23923760.2954    3784517.09743   2963404.72542  23923757.7494   23923763.1574
     -3736.3764      -2911.4794         46.0004         40.0004
 03 10 28  0 10  0.0000000  0  8G 7G 9G11G14G20G23G28G31
  22140497.8144  -14890880.48543 -11595350.31442  22140496.1714   22140501.0094
      2569.6464       2002.3294         54.0004         48.0004
  23731296.0364   -7444108.87643  -5790565.03042  23731295.6934   23731300.5054
       730.3364        569.1064         47.0004         41.0004
  20611748.0664  -15938728.11344 -12403251.77542  20611746.9504   20611749.6964
     -1064.8814       -829.7784         57.0004         52.0004
  24113563.0044   -8007688.26643  -6217759.18942  24113562.0994   24113565.8464
      1330.2414       1036.5624         45.0004         40.0004
  22769672.4364  -14755990.69243 -11489217.45342  22769672.0784   22769675.3704
      3226.3264       2514.0214         50.0004         44.0004
  24863911.7414   -4284989.73843  -3333561.13342  24863909.1344   24863914.3984
     -2908.8814      -2266.6524         45.0004         39.0004
  21060413.1934  -19870549.05244 -15474624.30542  21060412.0044   21060414.8744
      -816.1604       -635.9634         57.0004         50.0004
  23945099.5114    3896657.89043   3050787.15942  23945098.5834   23945103.1134
     -3739.8204      -2914.1444         46.0004         40.0004
 03 10 28  0 10 30.0000000  0  8G 7G 9G11G14G20G23G28G31
  22125849.4934  -14967856.11543 -11655331.30042  22125847.6234   22125852.8144
      2561.7444       1996.1574         53.0004         48.0004
  23727185.5034   -7465706.32243  -5807394.25142  23727184.5964   23727191.1484
       709.0894        552.5314         47.0004         41.0004
  20617871.5404  -15906549.05844 -12378177.18542  20617870.3844   20617873.1174
     -1080.5804       -842.0104         57.0004         51.0004
  24106018.9044   -8047334.76843  -6248652.52742  24106017.6724   24106021.2284
      1312.5944       1022.7924         46.0004         40.0004
  22751283.5514  -14852626.40343 -11564517.98442  22751282.0244   22751286.5054
      3215.5784       2505.6494         50.0004         44.0004
  24880543.0644   -4197589.58043  -3265457.21642  24880541.2024   24880547.4714
     -2918.0204      -2273.7664         46.0004         39.0004
  21065127.0514  -19845776.01144 -15455320.64942  21065126.0344   21065129.0074
      -835.6564       -651.1554         57.0004         50.0004
  23966459.3864    4008903.69743   3138251.41542  23966457.9654   23966463.6414
     -3743.3294      -2916.8784         46.0004         40.0004
 03 10 28  0 11  0.0000000  0  8G 7G 9G11G14G20G23G28G31
  22111250.1734  -15044574.86443 -11715112.10342  22111249.0484   22111253.6564
      2553.0244       1989.3644         54.0004         48.0004
  23723198.1584   -7486660.83443  -5823722.45642  23723197.3284   23723201.8324
       687.9544        536.0764         46.0004         41.0004
  20624086.7594  -15873887.31944 -12352726.47642  20624085.7664   20624088.4964
     -1096.6424       -854.5264         57.0004         51.0004
  24098579.3724   -8086431.49143  -6279117.47442  24098577.7914   24098580.2644
      1294.1494       1008.4374         46.0004         40.0004
  22732959.8714  -14948919.67443 -11639551.68142  22732958.4944   22732961.9564
      3204.2244       2496.7964         51.0004         44.0004
  24897228.1414   -4109909.17043  -3197134.95342  24897227.6594   24897233.3934
     -2927.3404      -2281.0404         45.0004         40.0004
  21069955.7044  -19820404.31244 -15435550.50542  21069954.2864   21069957.3244
      -855.6384       -666.7304         57.0004         50.0004
  23987839.7924    4121259.74343   3225801.58542  23987837.4234   23987842.5444
     -3747.0084      -2919.7444         46.0004         40.0004
 03 10 28  0 11 30.0000000  0  8G 7G 9G11G14G20G23G28G31
  22096699.0624  -15121040.20443 -11774695.48842  22096698.1224   22096702.8304
      2544.8424       1982.9904         53.0004         48.0004
  23719333.2914   -7506976.57443  -5839552.87542  23719332.3774   23719336.5044
       666.7334        519.5424         47.0004         41.0004
  20630392.6764  -15840749.20144 -12326904.55542  20630391.5654   20630394.3044
     -1112.3154       -866.7344         57.0004         51.0004
  24091242.7924   -8124981.98843  -6309156.81142  24091241.7044   24091244.3914
      1275.9164        994.2264         45.0004         40.0004
  22714699.8244  -15044873.07143 -11714320.53242  22714698.6584   22714702.4174
      3192.9694       2488.0154         51.0004         44.0004
  24913965.8774   -4021956.19743  -3128600.36542  24913964.4914   24913969.9594
     -2936.2874      -2288.0144         45.0004         40.0004
  21074896.2204  -19794439.67144 -15415318.32842  21074895.0944   21074898.1324
      -875.1714       -681.9544         57.0004         50.0004
  24009241.2204    4233719.45343   3313432.48542  24009239.8654   24009243.8134
     -3750.1514      -2922.2174         46.0004         40.0004
 03 10 28  0 12  0.0000000  0  8G 7G 9G11G14G20G23G28G31
  22082197.9654  -15197246.98043 -11834077.41842  22082196.0774   22082200.7444
      2536.0534       1976.1444         54.0004         48.0004
  23715588.6804   -7526649.26043  -5854882.12042  23715587.9744   23715592.2684
       645.2214        502.7704         46.0004         41.0004
  20636789.7334  -15807132.19044 -12300709.47542  20636788.6824   20636791.6764
     -1128.3044       -879.1974         57.0004         51.0004
  24084011.5904   -8162980.77443  -6338766.21942  24084011.1494   24084015.1834
      1257.5994        979.9454         45.0004         40.0004
  22696507.1294  -15140479.83243 -11788819.29042  22696505.8224   22696510.2974
      3181.4204       2479.0324         51.0004         44.0004
  24930753.8084   -3933729.11943  -3059852.11142  24930752.7174   24930759.0724
     -2944.9554      -2294.7714         43.0004         38.0004
  21079950.5274  -19767879.07044 -15394621.76842  21079949.5534   21079952.1504
      -895.1214       -697.4944         57.0004         50.0004
  24030660.1744    4346285.03143   3401145.89942  24030659.2424   24030663.0554
     -3753.7774      -2925.0044         46.0004         40.0004
 03 10 28  0 12 30.0000000  0  8G 7G 9G11G14G20G23G28G31
  22067745.8284  -15273195.80943 -11893258.32142  22067743.6974   22067748.0234
      2526.8534       1968.9714         54.0004         48.0004
  23711966.6064   -7545680.76343  -5869711.85642  23711965.4384   23711972.3604
       623.0534        485.4734         47.0004         41.0004
  20643277.6074  -15773039.68244 -12274143.87442  20643276.2524   20643279.1074
     -1144.7174       -891.9894         57.0004         51.0004
  24076886.8684   -8200428.57043  -6367946.28942  24076884.9134   24076886.7694
      1238.5554        965.1094         46.0004         40.0004
  22678379.2414  -15235739.37243 -11863047.47842  22678378.1524   22678381.2224
      3169.0954       2469.4134         51.0004         44.0004
  24947595.0654   -3845232.73843  -2990893.96042  24947594.5804   24947598.6624
     -2954.5854      -2302.2674         45.0004         38.0004
  21085117.7434  -19740725.36744 -15373463.05042  21085116.7564   21085119.4454
      -915.4524       -713.3414         57.0004         50.0004
  24052101.1134    4458952.57443   3488938.78142  24052100.2784   24052104.1344
     -3757.4364      -2927.8734         46.0004         40.0004
 03 10 28  0 13  0.0000000  0  8G 7G 9G11G14G20G23G28G31
  22053342.3254  -15348883.83043 -11952236.00542  22053340.9244   22053344.9324
      2518.6644       1962.6024         54.0004         48.0004
  23708467.8524   -7564068.76743  -5884040.09142  23708466.5864   23708471.3124
       602.2544        469.2714         46.0004         41.0004
  20649855.6104  -15738471.57444 -12247207.68142  20649854.4614   20649857.2524
     -1160.0394       -903.9314         57.0004         51.0004
  24069865.6894   -8237322.17243  -6396694.50242  24069864.2724   24069867.4254
      1220.6184        951.1344         46.0004         40.0004
  22660319.6884  -15330647.78443 -11937002.06942  22660318.3034   22660320.7864
      3157.8414       2460.6554         51.0004         44.0004
  24964487.2044   -3756468.06943  -2921726.79642  24964485.4574   24964491.3584
     -2963.3324      -2309.0894         45.0004         40.0004
  21090398.1244  -19712977.63944 -15351841.45442  21090397.0744   21090399.9704
      -934.7404       -728.3754         57.0004         50.0004
  24073560.7574    4571721.95543   3576811.00242  24073559.8414   24073562.8674
     -3760.6894      -2930.4054         46.0004         40.0004
 03 10 28  0 13 30.0000000  0  8G 7G 9G11G14G20G23G28G31
  22038989.5824  -15424309.85543 -12011009.55742  22038987.4714   22038992.0084
      2509.6174       1955.5404         54.0004         48.0004
  23705090.4114   -7581813.18443  -5897866.92742  23705089.3324   23705094.8384
       580.4054        452.2444         47.0004         41.0004
  20656523.8174  -15703429.11344 -12219901.86642  20656523.0374   20656525.5244
     -1176.2114       -916.5294         57.0004         51.0004
  24062950.6234   -8273660.43843  -6425010.06942  24062950.6634   24062952.6434
      1201.5054        936.2374         47.0004         40.0004
  22642326.5954  -15425202.45443 -12010681.01642  22642324.8414   22642328.8434
      3145.6784       2451.1684         51.0004         45.0004
  24981426.4194   -3667437.72443  -2852352.77442  24981425.8044   24981433.8434
     -2972.4814      -2316.2034         42.0004         38.0004
  21095791.3154  -19684636.95344 -15329757.80242  21095790.0384   21095793.0164
      -954.7934       -744.0004         57.0004         50.0004
  24095038.3844    4684591.53543   3664761.30842  24095037.7564   24095040.2754
     -3764.2464      -2933.1864         45.0004         40.0004
 03 10 28  0 14  0.0000000  0  8G 7G 9G11G14G20G23G28G31
  22024685.6224  -15499475.13943 -12069579.88042  22024683.9544   22024689.1114
      2501.1224       1948.9164         54.0004         48.0004
  23701837.3624   -7598916.26843  -5911193.98642  23701835.9354   23701842.0894
       559.4914        435.9644         47.0004         41.0004
  20663281.7044  -15667916.23144 -12192229.49442  20663280.7094   20663283.2594
     -1191.5174       -928.4544         57.0004         51.0004
  24056140.2934   -8309444.61743  -6452893.80842  24056139.6744   24056143.2434
      1183.6454        922.3274         47.0004         41.0004
  22624400.1164  -15519403.55243 -12084084.43742  22624398.7124   22624402.8084
      3134.2314       2442.2554         51.0004         45.0004
  24998421.4184   -3578147.13543  -2782775.96142  24998419.5644   24998424.5814
     -2980.6104      -2322.5524         46.0004         39.0004
  21101296.0974  -19655706.88544 -15307214.90342  21101295.1164   21101298.2304
      -974.0784       -759.0224         57.0004         50.0004
  24116534.1404    4797556.66843   3752786.05042  24116532.8534   24116538.2254
     -3766.9794      -2935.3064         44.0004         40.0004
 03 10 28  0 14 30.0000000  0  8G 7G 9G11G14G20G23G28G31
  22010433.5084  -15574373.74443 -12127942.42142  22010431.6794   22010435.9484
      2492.0824       1941.8864         55.0004         48.0004
  23698704.8484   -7615372.88343  -5924017.27042  23698704.3284   23698710.6134
       537.6144        418.8994         47.0004         42.0004
  20670129.7424  -15631929.82544 -12164188.13742  20670128.8354   20670131.4214
     -1207.5464       -940.9424         57.0004         51.0004
  24049438.0034   -8344668.42643  -6480340.89042  24049436.8174   24049439.4774
      1164.6274        907.5144         47.0004         40.0004
  22606543.0904  -15613243.72343 -12157206.62642  22606542.0894   22606545.1704
      3121.9014       2432.6524         51.0004         45.0004
  25015462.7174   -3488594.22943  -2712994.69142  25015461.4494   25015465.1834
     -2989.4984      -2329.4734         46.0004         39.0004
  21106914.6134  -19626183.54644 -15284209.71442  21106913.3434   21106916.2814
      -994.0364       -774.5714         57.0004         50.0004
  24138050.5234    4910620.30443   3840887.53242  24138048.2784   24138052.9754
     -3770.4504      -2938.0054         44.0004         40.0004
 03 10 28  0 15  0.0000000  0  8G 7G 9G11G14G20G23G28G31
  21996231.2574  -15649005.86743 -12186097.31442  21996230.0674   21996234.0484
      2483.2314       1934.9874         54.0004         48.0004
  23695696.1574   -7631184.45243  -5936337.90242  23695695.1774   23695700.9084
       516.5184        402.4864         47.0004         42.0004
  20677067.0504  -15595472.95544 -12135780.18242  20677066.3654   20677069.0134
     -1223.0584       -953.0304         57.0004         51.0004
  24042841.3534   -8379332.21243  -6507351.63642  24042840.4304   24042843.2604
      1146.1694        893.1014         46.0004         40.0004
  22588754.7964  -15706722.05643 -12230046.86442  22588753.2434   22588757.1194
      3109.9014       2423.2944         52.0004         45.0004
  25032552.0254   -3398782.57043  -2643011.72442  25032550.7154   25032556.9234
     -2997.8854      -2335.9964         42.0004         38.0004
  21112644.8214  -19596069.53444 -15260744.25842  21112643.6584   21112646.5284
     -1013.7114       -789.9054         57.0004         50.0004
  24159583.4234    5023779.23743   3929063.26542  24159582.3594   24159585.1604
     -3773.4214      -2940.3204         45.0004         39.0004
 03 10 28  0 15 30.0000000  0  8G 7G 9G11G14G20G23G28G31
  21982079.5014  -15723370.21743 -12244043.54442  21982078.1264   21982083.0584
      2473.8434       1927.6644         54.0004         48.0004
  23692810.9344   -7646350.57043  -5948155.59242  23692810.0864   23692814.5234
       494.3044        385.1624         48.0004         42.0004
  20684094.1884  -15558547.43844 -12107007.04842  20684093.0724   20684095.7234
     -1239.0804       -965.5184         57.0004         51.0004
  24036351.8884   -8413434.60443  -6533924.89442  24036351.3434   24036354.2504
      1126.9794        878.1814         46.0004         40.0004
  22571035.5734  -15799836.38343 -12302603.45842  22571033.6764   22571037.6514
      3097.3384       2413.5054         51.0004         45.0004
  25049692.6174   -3308715.10843  -2572829.47242  25049689.0954   25049696.1914
     -3007.0814      -2343.1814         44.0004         39.0004
  21118487.6824  -19565365.95244 -15236819.40242  21118486.3454   21118489.4504
     -1033.6814       -805.4724         57.0004         50.0004
  24181135.1874    5137031.61643   4017311.82642  24181133.9344   24181138.4864
     -3777.1404      -2943.2264         45.0004         40.0004
 03 10 28  0 16  0.0000000  0  8G 7G 9G11G14G20G23G28G31
  21967980.9384  -15797463.82643 -12301778.82142  21967979.0044   21967983.6464
      2465.5034       1921.1624         54.0004         48.0004
  23690048.3244   -7660869.55343  -5959469.15442  23690045.5164   23690051.2624
       473.5074        368.9734         47.0004         41.0004
  20691209.9594  -15521152.34744 -12077868.01442  20691208.9864   20691211.4184
     -1254.1664       -977.2754         57.0004         51.0004
  24029969.3784   -8446972.59443  -6560058.36342  24029969.0594   24029972.2904
      1108.6324        863.8624         46.0004         40.0004
  22553386.1234  -15892581.91443 -12374872.68742  22553384.6434   22553388.2054
      3085.4344       2404.2414         51.0004         45.0004
  25066880.2044   -3218392.75343  -2502448.47342  25066879.1174   25066883.5444
     -3014.7424      -2349.1494         46.0004         39.0004
  21124442.7724  -19534071.90544 -15212434.45042  21124441.7064   21124444.4014
     -1052.8024       -820.3684         57.0004         50.0004
  24202703.1394    5250377.57343   4105633.27242  24202702.0524   24202708.2844
     -3779.4244      -2945.0034         44.0004         40.0004
 03 10 28  0 16 30.0000000  0  8G 7G 9G11G14G20G23G28G31
  21953931.2144  -15871287.47543 -12359303.71542  21953930.3124   21953935.0684
      2455.7854       1913.6074         54.0004         48.0004
  23687407.8554   -7674742.99943  -5970279.67242  23687406.6974   23687412.6844
       451.1814        351.5664         47.0004         41.0004
  20698414.6924  -15483291.81444 -12048366.28942  20698413.5744   20698416.0794
     -1270.2384       -989.7984         57.0004         51.0004
  24023694.8164   -8479947.00843  -6585752.66542  24023693.6534   24023697.2314
      1089.0814        848.6264         46.0004         40.0004
  22535808.2504  -15984958.75943 -12446854.62542  22535806.3854   22535810.4044
      3072.5494       2394.1784         52.0004         45.0004
  25084114.9134   -3127820.14043  -2431872.49942  25084114.3254   25084119.1364
     -3024.0224      -2356.3794         44.0004         38.0004
  21130509.4174  -19502190.40943 -15187591.73142  21130508.2594   21130511.2954
     -1073.0314       -836.1324         56.0004         50.0004
  24224289.4004    5363813.15143   4194024.61442  24224289.0774   24224292.9934
     -3783.3414      -2948.0434         44.0004         39.0004
 03 10 28  0 17  0.0000000  0  8G 7G 9G11G14G20G23G28G31
  21939936.0194  -15944838.08443 -12416615.89542  21939934.4574   21939939.1494
      2447.5454       1907.1814         55.0004         48.0004
  23684890.6474   -7687969.20743  -5980585.91442  23684890.4514   23684895.1614
       430.6024        335.5374         47.0004         41.0004
  20705707.8974  -15444965.25944 -12018501.44042  20705707.0774   20705709.4694
     -1284.9424      -1001.2484         57.0004         51.0004
  24017528.0844   -8512355.06643  -6611005.67342  24017527.0204   24017531.4454
      1071.2614        834.7664         46.0004         41.0004
  22518299.4594  -16076962.64143 -12518545.93142  22518298.7334   22518302.6924
      3060.9664       2385.1744         51.0004         45.0004
  25101397.6764   -3036998.21543  -2361102.16842  25101397.5024   25101402.3704
     -3031.0234      -2361.8394         45.0004         38.0004
  21136688.2104  -19469720.90444 -15162290.82442  21136686.9874   21136690.1714
     -1091.6674       -850.6474         57.0004         50.0004
  24245892.3904    5477338.29943   4282485.71742  24245891.6574   24245895.7904
     -3785.2784      -2949.5704         44.0004         39.0004
 03 10 28  0 17 30.0000000  0  8G 7G 9G11G14G20G23G28G31
  21925992.0274  -16018115.43343 -12473715.13242  21925990.2014   21925995.1374
      2438.1554       1899.8714         54.0004         48.0004
  23682497.3034   -7700548.96843  -5990388.44342  23682496.5954   23682499.9494
       408.7544        318.5284         47.0004         41.0004
  20713089.3074  -15406175.34944 -11988275.54042  20713088.5974   20713091.1164
     -1300.5464      -1013.4074         57.0004         51.0004
  24011468.1564   -8544196.44043  -6635817.08442  24011467.5914   24011471.4464
      1051.9914        819.7354         46.0004         41.0004
  22500863.6044  -16168591.84143 -12589945.29042  22500862.2794   22500865.8724
      3048.3214       2375.3204         52.0004         45.0004
  25118727.7944   -2945930.86243  -2290140.64842  25118726.4844   25118732.4134
     -3039.4474      -2368.3974         46.0004         39.0004
  21142978.1984  -19436665.55543 -15136533.43442  21142977.3184   21142980.3384
     -1111.4444       -866.0494         56.0004         50.0004
  24267513.0934    5590950.19543   4371014.43742  24267511.3654   24267515.3064
     -3788.4404      -2952.0304         44.0004         39.0004
 03 10 28  0 18  0.0000000  0  8G 7G 9G11G14G20G23G28G31
  21912099.8424  -16091117.88743 -12530600.16742  21912098.4944   21912103.2464
      2429.0984       1892.8014         55.0004         48.0004
  23680225.9164   -7712481.21043  -5999686.13942  23680225.2074   23680230.7264
       387.2424        301.7324         47.0004         41.0004
  20720559.0154  -15366923.09344 -11957689.37642  20720557.8384   20720560.6734
     -1315.8044      -1025.2994         57.0004         51.0004
  24005517.4694   -8575469.52943  -6660185.68542  24005516.5404   24005520.6484
      1033.2304        805.1134         46.0004         41.0004
  22483498.5794  -16259843.63843 -12661050.57142  22483496.8084   22483501.7464
      3035.6454       2365.4454         51.0004         45.0004
  25136103.8534   -2854620.15143  -2218989.44442  25136102.1104   25136107.2874
     -3047.4054      -2374.6004         45.0004         38.0004
  21149380.2854  -19403024.93144 -15110319.99542  21149378.7834   21149382.2464
     -1130.8074       -881.1554         57.0004         50.0004
  24289148.5154    5704647.50543   4459609.69642  24289147.5944   24289151.7454
     -3790.9044      -2953.9584         45.0004         40.0004
 03 10 28  0 18 30.0000000  0  8G 7G 9G11G14G20G23G28G31
  21898260.8204  -16163843.09043 -12587269.14942  21898259.0654   21898263.5504
      2419.2634       1885.1434         54.0004         48.0004
  23678078.9914   -7723765.49543  -6008479.06242  23678078.3084   23678081.3934
       365.0144        284.4364         46.0004         41.0004
  20728115.9484  -15327209.35844 -11926743.61042  20728115.1444   20728117.7314
     -1331.7024      -1037.6904         57.0004         51.0004
  23999674.8084   -8606172.35143  -6684109.92642  23999673.5724   23999677.4354
      1013.7314        789.9134         46.0004         40.0004
  22466206.6424  -16350714.74643 -12731859.20742  22466205.2614   22466208.5104
      3022.4094       2355.1244         52.0004         45.0004
  25153524.5834   -2763067.69943  -2147649.86342  25153524.1244   25153530.0714
     -3055.9724      -2381.2674         44.0004         38.0004
  21155893.1724  -19368799.40244 -15083650.77342  21155891.6834   21155895.0264
     -1150.8374       -896.7614         57.0004         50.0004
  24310800.2284    5818429.47343   4548270.93642  24310798.6874   24310804.1874
     -3794.3294      -2956.6144         44.0004         40.0004
 03 10 28  0 19  0.0000000  0  8G 7G 9G11G14G20G23G28G31
  21884474.4964  -16236288.70443 -12643720.25942  21884473.5404   21884478.0714
      2410.5624       1878.3534         55.0004         48.0004
  23676053.7944   -7734400.73243  -6016766.27342  23676052.1544   23676058.2114
       343.9234        268.0144         46.0004         41.0004
  20735761.0354  -15287034.32044 -11895438.37742  20735760.0984   20735762.6414
     -1346.4514      -1049.1854         57.0004         51.0004
  23993941.9794   -8636302.58343  -6707588.01942  23993940.6654   23993943.6304
       995.3924        775.6224         46.0004         40.0004
  22448988.1534  -16441201.62243 -12802368.44342  22448986.1674   22448990.3334
      3010.2314       2345.6204         52.0004         45.0004
  25170992.1594   -2671275.30543  -2076123.30242  25170991.4394   25170996.0164
     -3063.1944      -2386.9024         44.0004         38.0004
  21162516.7874  -19333988.93643 -15056525.76142  21162515.8474   21162519.0714
     -1169.6624       -911.4264         56.0004         50.0004
  24332467.8304    5932295.23443   4636997.45142  24332466.7534   24332470.3534
     -3796.5294      -2958.3334         43.0004         39.0004
 03 10 28  0 19 30.0000000  0  8G 7G 9G11G14G20G23G28G31
  21870742.0354  -16308454.63543 -12699953.43742  21870740.6414   21870744.9904
      2401.3774       1871.2024         55.0004         48.0004
  23674154.9844   -7744388.16143  -6024548.77542  23674153.9514   23674157.8044
       322.5784        251.3754         48.0004         41.0004
  20743493.2934  -15246400.97844 -11863776.02642  20743492.5134   20743494.9734
     -1361.5964      -1060.9844         57.0004         51.0004
  23988316.9664   -8665860.37543  -6730620.06042  23988315.8934   23988319.1874
       976.0474        760.5684         47.0004         41.0004
  22431841.9134  -16531303.00543 -12872577.28542  22431840.9084   22431844.8614
      2997.4234       2335.6424         52.0004         46.0004
  25188505.0654   -2579246.62143  -2004412.66142  25188502.1634   25188508.3944
     -3071.0174      -2392.9994         42.0004         38.0004
  21169252.2724  -19298595.70244 -15028946.63142  21169251.0754   21169254.4024
     -1189.0184       -926.5094         57.0004         50.0004
  24354152.5194    6046242.08343   4725787.17242  24354151.7664   24354154.6434
     -3798.8394      -2960.1344         44.0004         38.0004
 03 10 28  0 20  0.0000000  0  8G 7G 9G11G14G20G23G28G31
  21857062.4484  -16380340.55943 -12755968.43142  21857061.1954   21857065.8934
      2391.0974       1863.1914         55.0004         49.0004
  23672377.1214   -7753728.35643  -6031826.82042  23672376.5954   23672381.8124
       300.3544        234.0584         47.0004         41.0004
  20751312.4524  -15205311.73944 -11831758.42942  20751311.2564   20751313.9904
     -1377.5844      -1073.4394         57.0004         51.0004
  23982800.8374   -8694845.43843  -6753205.81442  23982801.0314   23982803.2724
       955.9904        744.9214         46.0004         41.0004
  22414770.1924  -16621017.30243 -12942484.51342  22414768.5104   22414772.3274
      2983.7154       2324.9694         52.0004         46.0004
  25206061.8724   -2486985.49043  -1932520.99742  25206060.5564   25206067.6034
     -3079.3754      -2399.5024         43.0004         38.0004
  21176097.8694  -19262622.11243 -15000915.26142  21176096.6894   21176099.8174
     -1209.1464       -942.2004         56.0004         50.0004
  24375850.4994    6160267.19743   4814637.87342  24375848.9624   24375853.4764
     -3802.6094      -2963.0704         45.0004         39.0004
 03 10 28  0 20 30.0000000  0  8G 7G 9G11G14G20G23G28G31
  21843437.5734  -16451942.80543 -12811762.37842  21843435.6574   21843439.9354
      2381.8964       1856.0294         55.0004         49.0004
  23670722.9044   -7762419.18143  -6038598.90742  23670723.1994   23670727.8854
       278.6704        217.1524         47.0004         41.0004
  20759218.5464  -15163765.53944 -11799384.75942  20759217.3084   20759219.8824
     -1392.5904      -1085.1374         57.0004         51.0004
  23977394.3524   -8723254.51543  -6775342.72842  23977393.5484   23977398.9414
       937.1034        730.2174         46.0004         41.0004
  22397772.4514  -16710339.83743 -13012086.46942  22397771.3604   22397775.3524
      2970.6874       2314.8054         52.0004         46.0004
  25223662.8684   -2394491.75743  -1860447.95242  25223661.7014   25223667.5094
     -3087.0974      -2405.5324         44.0004         39.0004
  21183054.5134  -19226066.74944 -14972430.57242  21183053.0994   21183056.2974
     -1228.2754       -957.0964         57.0004         50.0004
  24397564.5094    6274371.06943   4903549.95642  24397562.1944   24397566.6744
     -3804.8074      -2964.7894         45.0004         40.0004
 03 10 28  0 21  0.0000000  0  8G 7G 9G11G14G20G23G28G31
  21829864.9824  -16523261.66343 -12867335.48642  21829863.6604   21829869.2144
      2371.8154       1848.1694         55.0004         49.0004
  23669193.0314   -7770462.26743  -6044866.23042  23669191.8554   23669196.9604
       256.6544        199.9874         48.0004         42.0004
  20767210.5804  -15121765.76444 -11766657.64842  20767209.4324   20767212.1414
     -1408.1864      -1097.2914         57.0004         51.0004
  23972099.0594   -8751088.18943  -6797031.30242  23972097.5144   23972101.1724
       917.6064        715.0094         46.0004         41.0004
  22380849.0154  -16799269.83543 -13081382.54942  22380848.1234   22380851.8024
      2957.1354       2304.2594         52.0004         46.0004
  25241307.0004   -2301770.01843  -1788197.26342  25241305.5214   25241312.8074
     -3095.4254      -2412.0184         44.0004         38.0004
  21190120.7074  -19188932.52243 -14943494.82142  21190119.3924   21190122.9734
     -1248.0754       -972.5264         56.0004         50.0004
  24419289.5394    6388550.47643   4992520.87942  24419287.9254   24419294.4504
     -3807.6534      -2966.9964         43.0004         39.0004
 03 10 28  0 21 30.0000000  0  8G 7G 9G11G14G20G23G28G31
  21816349.1384  -16594291.57543 -12922683.45742  21816347.9304   21816352.1944
      2362.8394       1841.1744         55.0004         49.0004
  23667786.1874   -7777853.29243  -6050625.40842  23667785.9294   23667790.8864
       235.4614        183.4654         47.0004         41.0004
  20775289.5354  -15079309.80044 -11733575.07142  20775288.7334   20775291.2584
     -1422.8284      -1108.7024         57.0004         51.0004
  23966912.2244   -8778340.77643  -6818267.05942  23966911.6764   23966915.0064
       898.7164        700.3134         46.0004         41.0004
  22364002.9444  -16887800.65143 -13150367.58842  22364001.7114   22364005.0694
      2944.2034       2294.1934         52.0004         46.0004
  25258995.5884   -2208818.30743  -1715767.39942  25258994.7354   25258999.0614
     -3101.8564      -2417.0304         42.0004         38.0004
  21197297.7704  -19151216.48243 -14914105.70042  21197296.7134   21197299.6164
     -1266.9154       -987.2094         56.0004         50.0004
  24441033.9034    6502808.08243   5081552.70742  24441032.5074   24441038.2394
     -3809.8644      -2968.7304         44.0004         39.0004
 03 10 28  0 22  0.0000000  0  8G 7G 9G11G14G20G23G28G31
  21802886.9904  -16665034.80643 -12977808.06442  21802885.5924   21802890.2674
      2353.0234       1833.5204         55.0004         49.0004
  23666502.6404   -7784595.93943  -6055879.40542  23666502.0914   23666506.9054
       213.5594        166.4094         46.0004         41.0004
  20783454.9204  -15036402.50544 -11700140.80942  20783453.6314   20783456.3314
     -1438.0364      -1120.5524         57.0004         51.0004
  23961836.5484   -8805015.10943  -6839052.25542  23961835.5374   23961838.9714
       879.0114        684.9584         47.0004         41.0004
  22347230.9144  -16975933.34243 -13219042.38942  22347229.4944   22347234.4124
      2930.7734       2283.7144         52.0004         46.0004
  25276726.0584   -2115642.75243  -1643163.09242  25276725.0584   25276730.3174
     -3110.1764      -2423.5184         43.0004         38.0004
  21204584.6854  -19112923.59443 -14884267.09742  21204583.4324   21204586.4494
     -1286.3854      -1002.3714         56.0004         50.0004
  24462790.3904    6617138.35343   5170641.22142  24462789.9394   24462793.0504
     -3812.6254      -2970.8814         44.0004         39.0004
 03 10 28  0 22 30.0000000  0  8G 7G 9G11G14G20G23G28G31
  21789479.6864  -16735489.49743 -13032707.82242  21789478.1144   21789483.3384
      2343.8004       1826.3344         55.0004         49.0004
  23665343.1294   -7790689.77843  -6060627.75442  23665342.1294   23665347.2164
       192.5934        150.0624         47.0004         41.0004
  20791705.2504  -14993045.04444 -11666355.76942  20791704.4434   20791706.9594
     -1452.5494      -1131.8524         57.0004         51.0004
  23956870.2504   -8831109.53443  -6859385.60742  23956869.4124   23956872.5944
       860.3844        670.4124         47.0004         40.0004
  22330537.0264  -17063664.83443 -13287404.57242  22330535.7444   22330539.0244
      2917.8604       2273.6584         53.0004         46.0004
  25294498.6614   -2022245.98143  -1570386.53242  25294498.4874   25294504.8524
     -3116.6974      -2428.5874         44.0004         39.0004
  21211981.3814  -19074054.29843 -14853979.35642  21211979.8734   21211983.0614
     -1305.1134      -1016.9664         56.0004         50.0004
  24484560.1454    6731540.16043   5259785.45642  24484558.2194   24484563.2244
     -3814.2454      -2972.1334         44.0004         39.0004
 03 10 28  0 23  0.0000000  0  8G 7G 9G11G14G20G23G28G31
  21776128.7644  -16805651.01343 -13087379.14342  21776127.2084   21776131.4744
      2334.3024       1818.9514         55.0004         49.0004
  23664307.2814   -7796132.01843  -6064868.43042  23664306.8504   23664312.2364
       171.0314        133.2764         47.0004         41.0004
  20800041.9634  -14949235.81644 -11632218.69142  20800041.0294   20800043.5874
     -1467.4274      -1143.4474         57.0004         51.0004
  23952016.6164   -8856619.69243  -6879263.64242  23952014.9884   23952017.5774
       841.0634        655.3814         47.0004         40.0004
  22313918.8574  -17150989.65843 -13355449.87442  22313917.8794   22313921.8234
      2904.5084       2263.2504         52.0004         46.0004
  25312314.3524   -1928626.96443  -1497436.83342  25312313.2654   25312318.8224
     -3123.9274      -2434.2244         44.0004         39.0004
  21219487.9014  -19034606.89243 -14823241.15642  21219486.6654   21219489.9984
     -1324.1634      -1031.8154         56.0004         50.0004
  24506344.9444    6846015.04343   5348986.62842  24506344.1044   24506346.9514
     -3816.9354      -2974.2434         43.0004         38.0004
 03 10 28  0 23 30.0000000  0  8G 7G 9G11G14G20G23G28G31
  21762832.7464  -16875521.18543 -13141823.45542  21762831.3094   21762835.8654
      2324.0214       1810.9244         55.0004         49.0004
  23663395.4504   -7800925.81943  -6068603.87642  23663394.6654   23663399.7004
       148.8284        115.9804         47.0004         41.0004
  20808463.7344  -14904979.66644 -11597733.36942  20808462.6294   20808465.3524
     -1482.7624      -1155.4024         57.0004         51.0004
  23947273.1094   -8881547.87143  -6898688.15342  23947272.2914   23947275.0974
       821.1384        639.8574         46.0004         40.0004
  22297379.5374  -17237908.50743 -13423178.82542  22297378.0704   22297381.6364
      2890.3924       2252.2644         53.0004         46.0004
  25330170.2384   -1834791.20343  -1424318.20742  25330169.9984   25330175.3144
     -3131.5024      -2440.1374         43.0004         38.0004
  21227103.8354  -18994585.46443 -14792055.65642  21227102.3644   21227105.5334
     -1343.6434      -1046.9944         56.0004         50.0004
  24528141.2964    6960558.25543   5438241.00342  24528140.8154   24528144.8624
     -3819.2874      -2976.0674         43.0004         38.0004
 03 10 28  0 24  0.0000000  0  8G 7G 9G11G14G20G23G28G31
  21749592.4434  -16945098.84843 -13196039.79942  21749591.1834   21749596.1484
      2314.5564       1803.5574         55.0004         49.0004
