     2              OBSERVATION DATA    G (GPS)             RINEX VERSION / TYPE
ASRINEXO V2.9.5 LH  TAU                 05-MAY- 0 03:41     PGM / RUN BY / DATE
                                                            COMMENT
BIT 2 OF LLI (+4) FLAGS DATA COLLECTED UNDER "AS" CONDITION COMMENT
RAMO                                                        MARKER NAME
20703S001                                                   MARKER NUMBER
SW                  TAU                                     OBSERVER / AGENCY
03223               ASHTECH Z-XII3      CD00                REC # / TYPE / VERS
CR15925             ASH700936D_M                            ANT # / TYPE
  4514721.9622  3133507.7843  3228024.6102                  APPROX POSITION XYZ
        0.0000        0.0000        0.0000                  ANTENNA: DELTA H/E/N
     1     1                                                WAVELENGTH FACT L1/2
     5    C1    L1    L2    P1    P2                        # / TYPES OF OBSERV
    30                                                      INTERVAL
  2000     5     4     0     1    0.000000                  TIME OF FIRST OBS
                                                            END OF HEADER
 00  5  4  0  1  0.0000000  0 10 10 26 27 08 19 07 13 31 18 02
  21910856.550   -18677938.554 8 -14536500.09147  21910856.140    21910866.3674
  24035197.841    -6800975.663 7  -5290284.36745  24035198.090    24035207.6684
  21574043.648   -19190051.488 8 -14232571.69847  21574043.670    21574051.2854
  20790621.681   -18908752.644 9 -13759622.51947  20790621.532    20790629.0004
  24284243.554    -4473081.104 7  -3240099.99245  24284243.687    24284253.5324
  23756068.895    -6908102.541 8  -3341333.25945  23756068.635    23756088.4654
  20557116.260   -26519438.242 9 -20655541.17548  20557116.814    20557122.7264
  24706743.959     -897872.805 7   -589204.14245  24706743.698    24706752.5084
  23169579.745   -10319016.482 8  -8032812.18145  23169579.934    23169591.9654
  20811041.580   -22084470.793 9 -14135602.47248  20811041.356    20811049.7374
 00  5  4  0  1 30.0000000  0 10 10 26 27 08 19 07 13 31 18 02
  21915798.301   -18651969.770 8 -14516264.79447  21915797.919    21915808.1814
  24017488.519    -6894036.979 7  -5362799.60645  24017488.839    24017498.5954
  21579886.955   -19159344.517 8 -14208644.19347  21579886.965    21579894.6304
  20795933.869   -18880836.684 9 -13737869.82247  20795933.765    20795941.2514
  24296930.887    -4406410.036 7  -3188148.53845  24296930.845    24296940.6714
  23738829.441    -6998696.046 7  -3411925.51045  23738829.310    23738849.0234
  20558139.468   -26514061.172 9 -20651351.25348  20558140.036    20558145.9544
  24718250.391     -837407.689 7   -542088.41445  24718249.602    24718258.6034
  23187333.270   -10225722.042 8  -7960115.49745  23187333.502    23187345.6764
  20809313.784   -22093550.356 9 -14142677.40148  20809313.552    20809321.8954
 00  5  4  0  2  0.0000000  0 10 10 26 27 08 19 07 13 31 18 02
  21920839.713   -18625477.290 8 -14495621.41047  21920839.319    21920849.5964
  23999787.161    -6987056.703 7  -5435282.41445  23999787.692    23999797.2784
  21585753.510   -19128515.428 8 -14184621.52847  21585753.564    21585761.2224
  20801275.236   -18852767.847 9 -13715997.99647  20801275.097    20801282.5614
  24309626.167    -4339697.107 7  -3136164.42645  24309625.876    24309635.8764
  23721592.709    -7089275.078 7  -3482506.47045  23721592.514    23721612.4614
  20559248.098   -26508235.267 9 -20646811.59148  20559248.668    20559254.6214
  24729844.132     -776479.492 7   -494611.84645  24729843.915    24729852.8794
  23205134.183   -10132178.682 8  -7887224.83845  23205134.380    23205146.6434
  20807660.932   -22102235.749 9 -14149445.18348  20807660.696    20807669.0444
 00  5  4  0  2 30.0000000  0 10 10 26 27 08 19 07 13 31 18 02
  21925980.533   -18598462.595 8 -14474571.11247  21925980.100    21925990.4414
  23982094.153    -7080033.349 7  -5507731.64945  23982094.521    23982104.1504
  21591643.369   -19097564.220 8 -14160503.71347  21591643.406    21591651.0484
  20806645.531   -18824546.554 9 -13694007.37747  20806645.409    20806652.8624
  24322329.163    -4272942.449 7  -3084147.84545  24322328.792    24322339.0554
  23704359.122    -7179837.235 7  -3553074.26445  23704359.053    23704379.1874
  20560442.327   -26501959.775 9 -20641921.59648  20560442.862    20560448.8084
  24741525.519     -715090.424 7   -446776.16645  24741525.828    24741534.9424
  23222982.064   -10038387.792 8  -7814141.33245  23222982.403    23222994.6904
  20806082.960   -22110528.020 9 -14155906.64748  20806082.729    20806091.0414
 00  5  4  0  3  0.0000000  0 10 10 26 27 08 19 07 13 31 18 02
  21931220.286   -18570927.764 8 -14453115.51547  21931219.872    21931230.2954
  23964409.877    -7172965.232 7  -5580145.97745  23964410.273    23964419.5214
  21597556.451   -19066490.766 8 -14136290.63347  21597556.513    21597564.1304
  20812044.792   -18796172.990 9 -13671898.10047  20812044.711    20812052.1564
  24335040.216    -4206146.185 7  -3032098.85045  24335039.632    24335049.9934
  23687129.440    -7270379.832 8  -3623626.83945  23687129.331    23687149.4834
  20561722.234   -26495233.921 9 -20636680.67148  20561722.756    20561728.7144
  24753294.614     -653242.324 7   -398582.76645  24753295.071    24753304.2064
  23240876.862    -9944351.016 8  -7740866.21345  23240877.185    23240889.6414
  20804579.554   -22118428.277 9 -14162062.63648  20804579.330    20804587.6244
 00  5  4  0  3 30.0000000  0 10 10 26 27 08 19 07 13 31 18 02
  21936558.725   -18542874.374 8 -14431255.85447  21936558.306    21936568.7964
  23946734.426    -7265850.776 7  -5652524.18845  23946734.990    23946743.7834
  21603492.720   -19035295.032 8 -14111982.28147  21603492.833    21603500.5164
  20817472.955   -18767647.845 9 -13649670.71747  20817472.843    20817480.2684
  24347759.186    -4139308.182 7  -2980017.30045  24347758.507    24347768.9144
  23669904.069    -7360900.445 8  -3694162.23745  23669903.897    23669924.0834
  20563087.868   -26488057.150 9 -20631088.38548  20563088.430    20563094.4354
  24765150.738     -590937.252 7   -350033.29445  24765151.143    24765160.4314
  23258818.211    -9850069.741 8  -7667400.58245  23258818.485    23258831.1564
  20803150.599   -22125937.218 9 -14167913.70748  20803150.389    20803158.6504
 00  5  4  0  4  0.0000000  0 10 10 26 27 08 19 07 13 31 18 02
  21941995.575   -18514304.234 8 -14408993.51747  21941995.143    21942005.6514
  23929068.163    -7358688.147 7  -5724864.86745  23929068.731    23929077.3044
  21609452.381   -19003976.782 8 -14087578.46747  21609452.458    21609460.2064
  20822929.868   -18738971.535 9 -13627325.53547  20822929.786    20822937.1684
  24360486.029    -4072428.113 7  -2927902.94545  24360485.486    24360495.6324
  23652683.370    -7451396.157 8  -3764678.20745  23652683.098    23652703.2074
  20564539.499   -26480428.443 9 -20625143.94048  20564540.075    20564546.1104
  24777093.863     -528176.757 7   -301128.90645  24777094.004    24777103.1364
  23276805.883    -9755545.609 8  -7593745.72945  23276806.152    23276818.7694
  20801795.976   -22133055.702 9 -14173460.51948  20801795.757    20801803.9844
 00  5  4  0  4 30.0000000  0 10 10 26 27 08 19 07 13 31 18 02
  21947530.476   -18485218.604 8 -14386329.49847  21947530.091    21947540.5524
  23911411.360    -7451475.519 8  -5797166.55745  23911411.944    23911420.4634
  21615435.364   -18972535.723 8 -14063078.94747  21615435.445    21615443.2234
  20828415.590   -18710143.925 9 -13604862.45947  20828415.478    20828422.8874
  24373220.878    -4005505.542 7  -2875755.46245  24373220.520    24373230.5514
  23635467.730    -7541864.328 8  -3835172.71345  23635467.436    23635487.5754
  20566077.415   -26472346.582 9 -20618846.39148  20566078.000    20566084.0444
  24789123.418     -464962.459 7   -251870.96445  24789123.336    24789132.3124
  23294839.542    -9660780.159 8  -7519902.84645  23294839.697    23294852.2834
  20800515.514   -22139784.430 9 -14178703.62748  20800515.293    20800523.4884
 00  5  4  0  5  0.0000000  0 10 10 26 27 08 19 07 13 31 18 02
  21953163.261   -18455618.589 8 -14363264.66647  21953162.871    21953173.3694
  23893764.320    -7544210.271 7  -5869427.25845  23893765.040    23893773.7934
  21621441.894   -18940971.130 8 -14038483.17247  21621441.987    21621449.7584
  20833930.186   -18681164.705 9 -13582281.24947  20833930.040    20833937.4824
  24385963.876    -3938539.288 7  -2823573.91945  24385963.808    24385973.7104
  23618257.939    -7632301.531 8  -3905643.03545  23618257.641    23618277.7724
  20567701.843   -26463810.272 9 -20612194.72448  20567702.436    20567708.4484
  24801239.007     -401295.584 7   -202260.36645  24801239.099    24801247.3944
  23312918.813    -9565774.612 8  -7445872.88945  23312918.882    23312931.4794
  20799309.143   -22146123.661 9 -14183643.24148  20799308.938    20799317.1204
 00  5  4  0  5 30.0000000  0 10 10 26 27 08 19 07 13 31 18 02
  21958893.572   -18425505.940 8 -14339800.38547  21958893.204    21958903.7364
  23876127.791    -7636890.704 7  -5941645.65445  23876128.480    23876137.7044
  21627472.067   -18909282.628 8 -14013790.83747  21627472.152    21627479.8764
  20839473.520   -18652034.135 9 -13559582.09247  20839473.373    20839480.8194
  24398715.071    -3871529.447 7  -2771358.44845  24398715.311    24398725.3264
  23601054.736    -7722704.986 8  -3976087.10245  23601054.420    23601074.3464
  20569412.933   -26454818.760 9 -20605188.34748  20569413.501    20569419.4494
  24813440.329     -337178.159 7   -152298.64745  24813440.193    24813448.4474
  23331043.458    -9470530.114 8  -7371656.73245  23331043.525    23331056.1334
  20798176.704   -22152074.357 9 -14188280.08848  20798176.482    20798184.6804
 00  5  4  0  6  0.0000000  0 10 10 26 27 08 19 07 13 31 18 02
  21964721.054   -18394882.905 8 -14315938.39447  21964720.650    21964731.1994
  23858501.754    -7729515.555 8  -6013820.73645  23858502.482    23858512.0554
  21633525.814   -18877470.521 8 -13989002.18647  21633525.852    21633533.5414
  20845045.527   -18622753.218 9 -13536765.79247  20845045.375    20845052.7574
  24411474.661    -3804476.340 7  -2719109.26045  24411475.067    24411485.1984
  23583858.262    -7813072.652 8  -4046503.24345  23583857.915    23583877.7664
  20571210.726   -26445371.740 9 -20597827.03048  20571211.237    20571217.1804
  24825726.660     -272612.689 7   -101987.75345  24825726.388    24825734.9424
  23349212.973    -9375048.935 8  -7297256.14645  23349213.125    23349225.8124
  20797117.961   -22157637.905 9 -14192615.26648  20797117.735    20797125.9034
 00  5  4  0  6 30.0000000  0 10 10 26 27 08 19 07 13 31 18 02
  21970645.363   -18363750.835 8 -14291679.74447  21970644.929    21970655.5064
  23840886.698    -7822082.548 7  -6085950.73745  23840887.417    23840897.3444
  21639603.137   -18845534.109 8 -13964116.67547  21639603.155    21639610.9004
  20850646.191   -18593321.622 9 -13513832.07947  20850646.038    20850653.3694
  24424242.604    -3737379.105 7  -2666825.68345  24424243.238    24424253.3394
  23566669.040    -7903401.327 8  -4116888.91345  23566668.755    23566688.7594
  20573095.347   -26435467.869 9 -20590109.72748  20573095.862    20573101.8374
  24838098.237     -207600.458 7    -51328.79145  24838097.873    24838106.6584
  23367427.592    -9279331.591 8  -7222671.56245  23367427.816    23367440.5034
  20796132.859   -22162814.540 9 -14196648.95248  20796132.627    20796140.7994
 00  5  4  0  7  0.0000000  0 10 10 26 27 08 19 07 13 31 18 02
  21976666.094   -18332111.974 8 -14267026.18847  21976665.671    21976676.2564
  23823282.847    -7914590.264 7  -6158034.53345  23823283.614    23823293.8464
  21645704.077   -18813473.426 8 -13939134.33947  21645704.101    21645711.8624
  20856275.387   -18563740.006 9 -13490781.46647  20856275.221    20856282.5564
  24437018.775    -3670238.050 7  -2614507.99345  24437019.604    24437029.9334
  23549487.824    -7993688.592 8  -4187242.37945  23549487.519    23549507.4924
  20575066.976   -26425106.580 9 -20582036.00648  20575067.527    20575073.5444
  24850554.310     -142143.638 7      -323.41145  24850554.039    24850562.4954
  23385686.733    -9183380.350 8  -7147904.72545  23385686.975    23385699.7274
  20795221.065   -22167605.692 9 -14200382.26248  20795220.838    20795229.0114
 00  5  4  0  7 30.0000000  0 10 10 26 27 08 19 07 13 31 18 02
  21982783.046   -18299967.716 8 -14241978.81847  21982782.626    21982793.1794
  23805690.984    -8007036.712 7  -6230070.58845  23805691.682    23805701.6554
  21651828.719   -18781288.398 8 -13914055.10547  21651828.751    21651836.4274
  20861933.093   -18534008.623 9 -13467614.14847  20861932.924    20861940.2084
  24449803.598    -3603052.930 7  -2562155.95945  24449804.393    24449814.8744
  23532314.988    -8083931.795 7  -4257561.50945  23532314.688    23532334.4734
  20577125.785   -26414287.284 9 -20573605.39048  20577126.352    20577132.3804
  24863094.245      -76244.223 7     51026.85845  24863094.109    24863102.3814
  23403990.183    -9087197.042 8  -7072957.06145  23403990.423    23404003.2014
  20794382.456   -22172012.434 9 -14203816.03048  20794382.229    20794390.4054
 00  5  4  0  8  0.0000000  0 10 10 26 27 08 19 07 13 31 18 02
  21988995.660   -18267320.765 8 -14216539.73947  21988995.245    21989005.8224
  23788111.056    -8099420.708 8  -6302057.96745  23788111.633    23788121.3164
  21657976.989   -18748979.113 8 -13888879.04347  21657977.014    21657984.6324
  20867619.182   -18504128.067 9 -13444330.59147  20867619.028    20867626.2764
  24462597.024    -3535823.689 7  -2509769.54445  24462597.785    24462608.0824
  23515150.842    -8174128.534 7  -4327844.34945  23515150.611    23515170.4554
  20579271.894   -26403009.543 9 -20564817.54348  20579272.466    20579278.4724
  24875717.619       -9904.531 7    102720.23545  24875717.790    24875726.1444
  23422337.456    -8990783.500 8  -6997830.00145  23422337.602    23422350.5714
  20793616.755   -22176035.960 9 -14206951.18848  20793616.529    20793624.7344
 00  5  4  0  8 30.0000000  0 10 10 26 27 08 19 07 13 31 18 02
  21995303.686   -18234172.382 8 -14190709.94547  21995303.268    21995313.8704
  23770543.393    -8191739.783 8  -6373994.76445  23770543.835    23770553.1244
  21664149.124   -18716544.637 8 -13863605.43047  21664149.142    21664156.6994
  20873333.707   -18474098.111 9 -13420930.62447  20873333.532    20873340.8024
  24475398.835    -3468549.893 7  -2457348.38145  24475399.544    24475409.8114
  23497996.146    -8264275.661 7  -4398088.55045  23497995.868    23498015.6914
  20581505.451   -26391272.277 9 -20555671.63048  20581506.010    20581512.0144
  24888425.032       56874.024 7    154755.57345  24888425.182    24888433.6724
  23440728.326    -8894140.290 8  -6922523.97845  23440728.501    23440741.5374
  20792923.913   -22179676.767 9 -14209788.13148  20792923.698    20792931.8714
 00  5  4  0  9  0.0000000  0 10 10 26 27 08 19 07 13 31 18 02
  22001706.902   -18200523.861 8 -14164490.43447  22001706.495    22001717.1094
  23752988.183    -8283991.678 8  -6445879.17645  23752988.639    23752997.8564
  21670345.074   -18683984.354 8 -13838233.78947  21670345.082    21670352.7174
  20879076.620   -18443918.751 9 -13397414.25047  20879076.476    20879083.7874
  24488209.217    -3401230.812 7  -2404891.89645  24488210.145    24488220.2324
  23480851.462    -8354370.025 7  -4468291.64145  23480851.316    23480871.0144
  20583826.647   -26379074.201 9 -20546166.63948  20583827.203    20583833.1944
  24901216.075      124089.802 7    207131.59645  24901216.007    24901224.4724
  23459162.601    -8797268.864 8  -6847040.13445  23459162.689    23459175.9094
  20792303.799   -22182935.411 9 -14212327.27948  20792303.558    20792311.6794
 00  5  4  0  9 30.0000000  0 10 10 26 27 08 19 07 13 31 18 02
  22008204.820   -18166377.578 8 -14137883.05447  22008204.407    22008215.0474
  23735446.043    -8376174.520 7  -6517709.81845  23735446.633    23735455.7244
  21676564.971   -18651298.242 8 -13812764.10647  21676565.006    21676572.6754
  20884847.984   -18413590.056 9 -13373781.50247  20884847.821    20884855.1964
  24501028.341    -3333866.557 7  -2352400.21045  24501029.171    24501039.2714
  23463717.350    -8444409.041 8  -4538451.57345  23463717.177    23463736.9334
  20586235.658   -26366414.801 9 -20536302.17048  20586236.245    20586242.2194
  24914089.605      191740.595 7    259846.56845  24914089.435    24914098.0354
  23477639.959    -8700170.972 7  -6771379.80545  23477639.948    23477653.3954
  20791756.171   -22185812.904 9 -14214569.43048  20791755.957    20791764.0444
 00  5  4  0 10  0.0000000  0 10 10 26 27 08 19 07 13 31 18 02
  22014797.201   -18131734.871 8 -14110888.84547  22014796.773    22014807.4644
  23717917.488    -8468286.509 8  -6589485.26245  23717918.157    23717926.9914
  21682808.991   -18618486.007 8 -13787196.14547  21682808.964    21682816.6754
  20890647.693   -18383112.341 9 -13350032.63647  20890647.546    20890654.9654
  24513856.128    -3266456.660 7  -2299872.95645  24513856.740    24513866.8894
  23446594.482    -8534389.728 8  -4608566.04845  23446594.270    23446613.8964
  20588732.625   -26353293.173 9 -20526077.52548  20588733.207    20588739.1844
  24927044.882      259824.621 7    312899.16945  24927045.136    24927053.9384
  23496159.834    -8602848.554 7  -6695544.54845  23496159.867    23496173.5394
  20791280.932   -22188310.061 9 -14216515.21848  20791280.716    20791288.7944
 00  5  4  0 10 30.0000000  0 10 10 26 27 08 19 07 13 31 18 02
  22021483.591   -18096597.968 8 -14083509.56347  22021483.184    22021493.9174
  23700402.885    -8560325.848 8  -6661204.10445  23700403.592    23700412.1804
  21689076.954   -18585547.435 8 -13761529.73547  21689076.964    21689084.6964
  20896475.717   -18352485.903 9 -13326167.88747  20896475.581    20896483.0234
  24526692.590    -3199000.954 7  -2247310.01545  24526693.113    24526703.2734
  23429483.039    -8624309.582 8  -4678633.10545  23429482.878    23429502.4674
  20591317.638   -26339708.841 9 -20515492.33048  20591318.217    20591324.2214
  24940082.282      328339.796 7    366287.70045  24940083.099    24940091.9394
  23514722.279    -8505303.193 8  -6619535.55345  23514722.405    23514736.2244
  20790877.789   -22190428.212 9 -14218165.67248  20790877.585    20790885.6444
 00  5  4  0 11  0.0000000  0 10 10 26 27 08 19 07 13 31 18 02
  22028263.572   -18060969.170 8 -14055746.99247  22028263.151    22028273.9524
  23682902.316    -8652290.726 7  -6732864.92145  23682903.087    23682911.7944
  21695369.174   -18552482.299 8 -13735764.70247  21695369.138    21695376.8184
  20902332.002   -18321710.942 9 -13302187.39647  20902331.877    20902339.3544
  24539537.657    -3131499.327 7  -2194711.35945  24539538.072    24539548.4394
  23412383.543    -8714165.962 8  -4748650.68445  23412383.435    23412403.1294
  20593990.768   -26325661.354 9 -20504546.24048  20593991.366    20593997.3774
  24953201.992      397284.253 7    420010.72645  24953202.847    24953211.3804
  23533327.137    -8407536.086 8  -6543353.79845  23533327.206    23533340.9794
  20790546.632   -22192168.359 9 -14219521.58148  20790546.414    20790554.4814
 00  5  4  0 11 30.0000000  0 10 10 26 27 08 19 07 13 31 18 02
  22035136.859   -18024850.056 8 -14027602.36447  22035136.472    22035147.3314
  23665416.452    -8744178.908 7  -6804465.99845  23665417.163    23665426.0274
  21701685.505   -18519290.131 8 -13709900.68247  21701685.466    21701693.1104
  20908216.529   -18290787.613 9 -13278091.30447  20908216.403    20908223.8694
  24552391.685    -3063951.219 7  -2142076.46645  24552392.043    24552402.4324
  23395296.790    -8803955.898 8  -4818616.48545  23395296.634    23395316.3954
  20596752.232   -26311149.781 9 -20493238.52248  20596752.805    20596758.8514
  24966403.507      466655.770 7    474066.52045  24966403.898    24966412.0964
  23551973.848    -8309548.678 8  -6467000.37645  23551973.947    23551987.7034
  20790287.205   -22193531.328 9 -14220583.58648  20790287.004    20790295.0814
 00  5  4  0 12  0.0000000  0 10 10 26 27 08 19 07 13 31 18 02
  22042102.594   -17988245.656 8 -13999079.57847  22042102.190    22042113.0254
  23647944.998    -8835991.847 8  -6876008.42645  23647945.679    23647954.6454
  21708025.324   -18485973.738 8 -13683939.86747  21708025.317    21708033.0364
  20914128.699   -18259719.179 9 -13253882.12947  20914128.550    20914135.9994
  24565253.960    -2996359.908 7  -2089407.89445  24565254.258    24565264.6774
  23378222.867    -8893679.709 8  -4888530.76045  23378222.594    23378242.0934
  20599601.536   -26296176.520 9 -20481571.04548  20599602.092    20599608.1604
  24979685.160      536449.227 7    528451.11845  24979685.094    24979693.3634
  23570661.702    -8211346.209 8  -6390479.39945  23570661.709    23570675.4164
  20790098.809   -22194521.326 9 -14221354.96148  20790098.574    20790106.6684
 00  5  4  0 12 30.0000000  0 10 10 26 27 08 19 07 13 31 18 02
  22049160.917   -17951154.240 8 -13970177.31147  22049160.533    22049171.4344
  23630489.058    -8927723.939 8  -6947487.85945  23630489.642    23630498.7134
  21714389.593   -18452529.012 8 -13657879.04547  21714389.611    21714397.3604
  20920069.023   -18228502.389 9 -13229557.35647  20920068.878    20920076.2734
  24578125.210    -2928721.263 7  -2036702.45145  24578125.557    24578135.8934
  23361162.564    -8983331.126 8  -4958388.63845  23361162.305    23361181.5644
  20602539.534   -26280737.453 9 -20469540.60248  20602540.078    20602546.1434
  24993047.312      606666.150 7    583165.70245  24993046.674    24993055.2424
  23589390.884    -8112926.083 8  -6313788.84945  23589390.903    23589404.6524
  20789981.868   -22195135.466 9 -14221833.46148  20789981.655    20789989.7524
 00  5  4  0 13  0.0000000  0  9 10 26 27 08 19 07 13 18 02
  22056311.600   -17913577.644 8 -13940896.98947  22056311.214    22056322.1434
  23613048.899    -9019372.877 8  -7018902.50145  23613049.416    23613058.4964
  21720778.451   -18418955.462 8 -13631717.85547  21720778.448    21720786.2004
  20926037.644   -18197136.812 9 -13205116.64747  20926037.496    20926044.8664
  24591005.624    -2861034.306 7  -1983959.34645  24591005.841    24591016.3034
  23344116.349    -9072907.010 7  -5028187.64345  23344116.156    23344135.4814
  20605566.297   -26264831.611 9 -20457146.44648  20605566.863    20605572.9154
  23608161.075    -8014290.095 8  -6236930.03945  23608161.050    23608174.8434
  20789936.369   -22195374.523 9 -14222019.68848  20789936.147    20789944.1984
 00  5  4  0 13 30.0000000  0  9 10 26 27 08 19 07 13 18 02
  22063554.187   -17875517.979 8 -13911240.23747  22063553.809    22063564.7384
  23595624.937    -9110936.697 8  -7090250.82345  23595625.449    23595634.3584
  21727191.861   -18385252.789 8 -13605456.03647  21727191.858    21727199.6084
  20932034.503   -18165622.815 9 -13180560.28047  20932034.364    20932041.7354
  24603895.231    -2793299.195 7  -1931178.71845  24603895.418    24603905.8084
  23327084.964    -9162404.556 8  -5097925.59945  23327084.936    23327104.3104
  20608682.005   -26248458.468 9 -20444388.15948  20608682.576    20608688.6154
  23626971.894    -7915439.793 8  -6159904.28245  23626972.006    23626985.8904
  20789961.947   -22195239.772 9 -14221914.63748  20789961.719    20789969.7974
 00  5  4  0 14  0.0000000  0  9 10 26 27 08 19 07 13 18 02
  22070888.229   -17836977.429 8 -13881208.77347  22070887.892    22070898.9104
  23578217.291    -9202413.955 8  -7161531.68845  23578217.870    23578226.6064
  21733629.815   -18351420.993 8 -13579093.59547  21733629.831    21733637.5744
  20938059.580   -18133960.915 8 -13155888.65947  20938059.413    20938066.7704
  24616793.869    -2725516.013 7  -1878360.64545  24616794.188    24616804.4604
  23310069.363    -9251821.373 8  -5167600.65645  23310069.275    23310088.5404
  20611886.674   -26231617.802 9 -20431265.57148  20611887.237    20611893.2494
  23645822.895    -7816377.235 7  -6082713.11945  23645823.267    23645837.3554
  20790058.432   -22194732.567 9 -14221519.36748  20790058.222    20790066.3014
 00  5  4  0 14 30.0000000  0  9 10 26 27 08 19 07 13 18 02
  22078313.360   -17797958.889 8 -13850804.85247  22078312.972    22078323.9824
  23560826.561    -9293803.023 8  -7232743.84445  23560827.040    23560835.6444
  21740092.311   -18317460.321 8 -13552630.74347  21740092.337    21740100.0764
  20944112.597   -18102151.798 8 -13131102.33047  20944112.463    20944119.8764
  24629701.430    -2657685.130 7  -1825505.38145  24629701.943    24629712.1054
  23293069.717    -9341155.334 8  -5237211.14945  23293069.484    23293088.4244
  20615180.300   -26214309.554 9 -20417778.62648  20615180.857    20615186.8784
  23664714.032    -7717104.332 7  -6005358.06545  23664714.388    23664728.8504
  20790225.517   -22193854.516 9 -14220835.12248  20790225.277    20790233.3464
 00  5  4  0 15  0.0000000  0  9 10 26 27 08 19 07 13 18 02
  22085829.080   -17758464.283 8 -13820029.96347  22085828.669    22085839.6954
  23543452.752    -9385102.059 8  -7303885.85445  23543453.178    23543461.7444
  21746579.437   -18283370.288 8 -13526067.08147  21746579.447    21746587.1834
  20950193.684   -18070195.451 9 -13106201.27247  20950193.563    20950200.9814
  24642618.314    -2589805.993 7  -1772612.54745  24642618.850    24642629.1424
  23276086.115    -9430403.424 7  -5306754.73745  23276085.872    23276104.6274
  20618563.064   -26196533.084 9 -20403926.83748  20618563.635    20618569.6384
  23683645.073    -7617622.571 7  -5927840.26245  23683645.373    23683660.0514
  20790462.935   -22192606.547 9 -14219862.63148  20790462.712    20790470.7484
 00  5  4  0 15 30.0000000  0  9 10 26 27 08 19 07 13 18 02
  22093434.962   -17718495.611 8 -13788885.69047  22093434.553    22093445.6464
  23526096.346    -9476309.074 8  -7374956.17345  23526096.833    23526105.3874
  21753091.190   -18249150.720 8 -13499402.48547  21753091.208    21753098.9674
  20956302.813   -18038092.141 9 -13081185.69747  20956302.664    20956310.0624
  24655544.265    -2521878.434 7  -1719681.96045  24655544.822    24655555.3104
  23259119.395    -9519562.950 8  -5376229.29945  23259119.068    23259137.7074
  20622034.996   -26178288.049 9 -20389709.92548  20622035.542    20622041.5494
  23702615.826    -7517933.856 8  -5850161.21845  23702615.909    23702630.5804
  20790770.486   -22190989.935 9 -14218602.88448  20790770.269    20790778.2964
 00  5  4  0 16  0.0000000  0  9 10 26 27 08 19 07 13 18 02
  22101130.526   -17678055.460 8 -13757374.03147  22101130.145    22101141.3174
  23508757.789    -9567422.345 8  -7445953.45545  23508758.316    23508766.7974
  21759627.688   -18214801.445 8 -13472636.81847  21759627.683    21759635.3864
  20962439.726   -18005842.065 9 -13056055.75947  20962439.635    20962447.1004
  24668479.641    -2453902.333 7  -1666713.52345  24668480.357    24668490.8184
  23242169.916    -9608631.434 8  -5445632.94345  23242169.522    23242188.0584
  20625596.191   -26159574.044 9 -20375127.58248  20625596.727    20625602.7154
  23721625.494    -7418040.248 8  -5772322.54445  23721625.420    23721640.0794
  20791148.004   -22189005.876 9 -14217056.82348  20791147.808    20791155.7784
 00  5  4  0 16 30.0000000  0  9 10 26 27 08 19 07 13 18 02
  22108915.621   -17637144.848 8 -13725495.77547  22108915.246    22108926.4654
  23491437.784    -9658439.114 8  -7516875.54245  23491438.386    23491446.7314
  21766189.072   -18180321.297 8 -13445769.17147  21766189.071    21766196.7674
  20968604.690   -17973444.755 8 -13030811.09247  20968604.597    20968612.0904
  24681424.371    -2385876.755 7  -1613706.57745  24681425.175    24681435.5124
  23225238.492    -9697605.291 8  -5514962.84645  23225238.033    23225256.4454
  20629246.799   -26140389.857 9 -20360178.86348  20629247.349    20629253.3384
  23740673.827    -7317942.509 8  -5694324.79345  23740673.723    23740688.3734
  20791595.383   -22186654.854 9 -14215224.82048  20791595.168    20791603.0734
 00  5  4  0 17  0.0000000  0  9 10 26 27 08 19 07 13 18 02
  22116789.765   -17595766.384 8 -13693252.96147  22116789.375    22116800.6544
  23474136.714    -9749357.467 8  -7587720.96245  23474137.292    23474145.5724
  21772775.204   -18145710.162 8 -13418799.45747  21772775.281    21772783.0664
  20974797.636   -17940900.470 8 -13005451.90147  20974797.570    20974805.0484
  24694378.645    -2317801.659 7  -1560661.01545  24694379.547    24694389.6064
  23208325.536    -9786481.794 8  -5584216.89445  23208325.152    23208343.4934
  20632986.957   -26120735.131 9 -20344863.49248  20632987.520    20632993.5054
  23759760.651    -7217642.252 8  -5616169.25645  23759760.649    23759775.3874
  20792112.340   -22183938.024 9 -14213107.76248  20792112.110    20792119.9854
 00  5  4  0 17 30.0000000  0  9 10 26 27 08 19 07 13 18 02
  22124752.415   -17553923.193 8 -13660648.01247  22124752.003    22124763.2574
  23456854.667    -9840176.352 8  -7658488.85445  23456855.167    23456863.4294
  21779386.465   -18110968.408 8 -13391727.96947  21779386.474    21779394.2634
  20981018.409   -17908210.253 8 -12979978.99747  20981018.313    20981025.7964
  24707342.299    -2249677.579 7  -1507577.32245  24707343.092    24707353.2144
  23191431.515    -9875259.094 8  -5653393.63246  23191431.197    23191449.4994
  20636816.534   -26100610.262 9 -20329181.77848  20636817.109    20636823.1134
  23778885.461    -7117142.143 8  -5537857.99745  23778885.599    23778900.3814
  20792698.561   -22180857.415 9 -14210707.24148  20792698.334    20792706.1744
 00  5  4  0 18  0.0000000  0  9 10 26 27 08 19 07 13 18 02
  22132803.180   -17511616.846 8 -13627682.16647  22132802.779    22132814.0594
  23439591.845    -9930893.329 8  -7729177.34445  23439592.308    23439600.7274
  21786022.515   -18076095.598 8 -13364554.35847  21786022.541    21786030.3464
  20987266.931   -17875373.821 8 -12954392.15947  20987266.828    20987274.3324
  24720315.444    -2181503.988 7  -1454455.02345  24720316.142    24720326.3914
  23174556.947    -9963933.991 8  -5722490.59846  23174556.598    23174574.8784
  20640735.764   -26080014.514 9 -20313133.14648  20640736.365    20640742.3754
  23798048.071    -7016443.538 7  -5459392.05845  23798048.273    23798063.1694
  20793353.786   -22177413.703 9 -14208023.78148  20793353.571    20793361.4634
 00  5  4  0 18 30.0000000  0  9 10 26 27 08 19 07 13 18 02
  22140941.732   -17468849.186 8 -13594356.85847  22140941.335    22140952.6194
  23422348.751   -10021505.799 8  -7799784.41045  23422349.275    23422357.7754
  21792683.756   -18041090.562 8 -13337277.70447  21792683.769    21792691.5404
  20993543.389   -17842390.754 8 -12928691.06147  20993543.272    20993550.8034
  24733297.968    -2113280.210 7  -1401293.63645  24733298.704    24733308.9394
  23157702.472   -10052503.172 8  -5791505.20446  23157702.216    23157720.4714
  20644744.769   -26058946.992 9 -20296716.89648  20644745.380    20644751.3824
  23817248.185    -6915547.560 7  -5380772.33245  23817248.432    23817263.5884
  20794078.031   -22173607.505 9 -14205057.86848  20794077.810    20794085.7054
 00  5  4  0 19  0.0000000  0  9 10 26 27 08 19 07 13 18 02
  22149167.575   -17425622.432 8 -13560673.80847  22149167.201    22149178.5064
  23405125.871   -10112011.871 8  -7870308.55645  23405126.399    23405134.9304
  21799370.321   -18005953.082 8 -13309897.85547  21799370.250    21799377.9634
  20999847.792   -17809261.012 9 -12902875.67047  20999847.698    20999855.2014
  24746290.079    -2045005.752 7  -1348092.74845  24746290.790    24746301.1134
  23140868.594   -10140963.906 8  -5860435.30646  23140868.401    23140886.5264
  20648843.638   -26037407.210 9 -20279932.65248  20648844.243    20648850.2704
  23836485.481    -6814456.323 7  -5302000.44245  23836485.773    23836501.1734
  20794871.051   -22169440.116 9 -14201810.50548  20794870.811    20794878.7304
 00  5  4  0 19 30.0000000  0  9 10 26 27 08 19 07 13 18 02
  22157480.360   -17381938.652 8 -13526634.63647  22157480.006    22157491.3864
  23387923.613   -10202409.436 8  -7940748.16945  23387924.118    23387932.5254
  21806081.908   -17970682.574 8 -13282414.34647  21806081.944    21806089.6914
  21006180.110   -17775984.849 9 -12876946.18147  21006179.994    21006187.4174
  24759291.891    -1976680.371 7  -1294852.22445  24759292.479    24759302.8294
  23124055.969   -10229313.153 8  -5929278.52746  23124055.810    23124073.8534
  20653032.442   -26015394.939 9 -20262780.23448  20653033.033    20653039.0954
  23855759.782    -6713171.306 7  -5223077.54245  23855759.840    23855775.6694
  20795732.577   -22164912.598 9 -14198282.51948  20795732.344    20795740.2594
 00  5  4  0 20  0.0000000  0  9 10 26 27 08 19 07 13 18 02
  22165879.658   -17337800.710 8 -13492241.58247  22165879.261    22165890.7174
  23370742.258   -10292696.823 8  -8011101.90145  23370742.733    23370751.2094
  21812818.874   -17935279.293 8 -13254827.37947  21812818.950    21812826.7004
  21012540.157   -17742562.543 8 -12850902.81447  21012540.021    21012547.4224
  24772303.363    -1908304.513 7  -1241572.35045  24772304.080    24772314.2984
  23107265.066   -10317548.770 8  -5998033.20146  23107264.854    23107282.8064
  20657311.190   -25992909.944 9 -20245259.46048  20657311.791    20657317.8654
  23875070.823    -6611694.316 7  -5144005.07945  23875070.661    23875086.5184
  20796662.357   -22160026.451 9 -14194475.09048  20796662.140    20796669.9944
 00  5  4  0 20 30.0000000  0  9 10 26 27 08 19 07 13 18 02
  22174364.930   -17293210.584 8 -13457496.17247  22174364.546    22174376.0374
  23353582.370   -10382871.943 8  -8081368.16445  23353582.861    23353591.2594
  21819581.331   -17899742.674 8 -13227136.51447  21819581.378    21819589.0794
  21018927.930   -17708994.240 8 -12824745.69047  21018927.819    21018935.2074
  24785324.575    -1839877.756 7  -1188252.80245  24785325.286    24785335.3374
  23090496.383   -10405667.709 8  -6066696.94946  23090496.062    23090513.9464
  20661679.982   -25969951.861 9 -20227370.04848  20661680.566    20661686.6404
  23894418.020    -6510027.245 7  -5064784.47545  23894417.709    23894433.5034
  20797660.128   -22154782.995 9 -14190389.23948  20797659.890    20797667.7404
 00  5  4  0 21  0.0000000  0  9 10 26 27 08 19 07 13 18 02
  22182935.827   -17248171.001 8 -13422400.52547  22182935.433    22182946.9444
  23336444.368   -10472932.809 8  -8151545.40245  23336444.915    23336453.0214
  21826369.099   -17864072.475 8 -13199341.56147  21826369.199    21826376.8804
  21025343.528   -17675280.089 8 -12798474.91647  21025343.428    21025350.7914
  24798355.557    -1771399.556 7  -1134893.17945  24798356.205    24798366.3494
  23073750.373   -10493667.277 8  -6135267.67146  23073750.016    23073767.8174
  20666138.828   -25946520.560 9 -20209111.89148  20666139.389    20666145.5004
  23913800.801    -6408171.820 7  -4985417.13445  23913800.460    23913816.4294
  20798725.681   -22149183.357 9 -14186025.84048  20798725.442    20798733.2844
 00  5  4  0 21 30.0000000  0  9 10 26 27 08 19 07 13 18 02
  22191591.749   -17202684.135 8 -13386956.35347  22191591.361    22191602.9034
  23319328.621   -10562877.345 8  -8221631.97345  23319329.124    23319337.0594
  21833182.476   -17828268.240 8 -13171442.16047  21833182.522    21833190.2184
  21031786.795   -17641420.314 8 -12772090.66547  21031786.717    21031794.1044
  24811396.277    -1702870.198 7  -1081493.70045  24811396.868    24811406.9634
  23057027.499   -10581544.672 8  -6203743.17846  23057027.133    23057044.8564
  20670687.774   -25922615.626 9 -20190484.67048  20670688.330    20670694.4624
  23933218.879    -6306129.776 8  -4905904.40045  23933218.816    23933234.8784
  20799858.754   -22143228.672 9 -14181385.78248  20799858.538    20799866.3794
 00  5  4  0 22  0.0000000  0  9 10 26 27 08 19 07 13 18 02
  22200332.490   -17156751.988 8 -13351165.20647  22200332.109    22200343.6434
  23302235.470   -10652703.412 8  -8291626.23045  23302235.928    23302243.7354
  21840021.476   -17792329.295 8 -13143437.79747  21840021.478    21840029.2134
  21038257.836   -17607414.592 8 -12745592.69547  21038257.757    21038265.1514
  24824446.975    -1634288.961 7  -1028053.81745  24824447.582    24824457.8004
  23040328.507   -10669296.826 8  -6272121.11446  23040328.203    23040345.8384
  20675326.990   -25898236.460 9 -20171487.91648  20675327.559    20675333.6764
  23952672.242    -6203902.492 8  -4826247.30045  23952672.478    23952688.6294
  20801059.257   -22136919.870 9 -14176469.78948  20801059.037    20801066.8484
 00  5  4  0 22 30.0000000  0  9 10 26 27 08 19 07 13 18 02
  22209157.478   -17110376.946 8 -13315028.95547  22209157.100    22209168.7094
  23285164.967   -10742408.683 8  -8361526.36546  23285165.426    23285173.5274
  21846886.019   -17756255.297 8 -13115328.19747  21846886.145    21846893.8764
  21044756.703   -17573262.943 8 -12718981.01847  21044756.598    21044764.0124
  24837507.516    -1565655.282 7   -974573.04545  24837508.111    24837518.3844
  23023653.928   -10756920.904 8  -6340399.18146  23023653.668    23023671.1124
  20680056.459   -25873382.823 9 -20152121.43648  20680057.024    20680063.1464
  23972160.835    -6101491.844 7  -4746447.29445  23972161.116    23972177.2734
  20802326.886   -22130258.212 9 -14171278.84248  20802326.669    20802334.4914
 00  5  4  0 23  0.0000000  0  9 10 26 27 08 19 07 13 18 02
  22218066.281   -17063561.332 8 -13278549.39847  22218065.893    22218077.6044
  23268117.794   -10831991.113 8  -8431330.80046  23268118.257    23268126.7344
  21853776.476   -17720045.760 8 -13087112.98647  21853776.575    21853784.3004
  21051283.244   -17538965.411 8 -12692255.65947  21051283.150    21051290.6194
  24850578.134    -1496969.114 7   -921051.36345  24850578.632    24850588.9304
  23007004.160   -10844414.059 8  -6408575.24546  23007003.973    23007021.3364
  20684876.244   -25848054.593 9 -20132385.14448  20684876.818    20684882.9504
  23991684.310    -5998899.411 7  -4666505.62245  23991684.332    23991700.5454
  20803661.465   -22123244.861 9 -14165813.85548  20803661.245    20803669.0214
 00  5  4  0 23 30.0000000  0  9 10 26 27 08 19 07 13 18 02
  22227058.522   -17016307.385 8 -13241728.28147  22227058.148    22227069.8424
  23251094.344   -10921448.694 8  -8501037.91946  23251094.843    23251103.6404
  21860692.838   -17683700.381 8 -13058791.92547  21860692.917    21860700.6364
  21057837.563   -17504522.156 8 -12665416.75547  21057837.492    21057844.9664
  24863658.693    -1428229.978 7   -867488.45445  24863659.227    24863669.7074
  22990379.830   -10931773.614 8  -6476647.18046  22990379.692    22990397.0304
  20689786.468   -25822251.357 9 -20112278.71748  20689787.038    20689793.1354
  24011241.627    -5896127.299 7  -4586423.92245  24011241.533    24011257.9154
  20805062.664   -22115881.188 9 -14160075.88748  20805062.445    20805070.2094
 00  5  4  0 24  0.0000000  0  9 10 26 27 08 19 07 13 18 02
  22236133.781   -16968617.187 8 -13204567.22546  22236133.415    22236145.1004
  23234095.187   -11010779.079 8  -8570645.93746  23234095.670    23234104.5954
  21867635.120   -17647218.383 8 -13030364.40447  21867635.241    21867642.9634
  21064419.713   -17469932.781 8 -12638463.99047  21064419.626    21064427.0804
  24876749.564    -1359437.677 7   -813884.15045  24876750.134    24876760.5354
  22973781.561   -11018996.349 8  -6544612.48646  22973781.373    22973798.6944
  20694787.159   -25795972.574 9 -20091801.73548  20694787.736    20694793.8194
  24030832.677    -5793176.816 7  -4506203.21945  24030832.640    24030849.3164
  20806530.366   -22108168.082 9 -14154065.63348  20806530.159    20806537.9124
 00  5  4  0 24 30.0000000  0  9 10 26 27 08 19 07 13 18 02
  22245291.476   -16920493.865 8 -13167068.67646  22245291.085    22245302.7584
  23217120.671   -11099980.382 8  -8640153.36746  23217121.202    23217130.0624
  21874603.481   -17610599.599 8 -13001830.30147  21874603.567    21874611.2994
  21071029.634   -17435197.870 9 -12611397.81247  21071029.530    21071036.8894
  24889850.623    -1290591.985 7   -760238.22745  24889850.925    24889861.3594
  22957209.890   -11106079.745 8  -6612469.19846  22957209.636    22957226.9344
  20699878.304   -25769218.490 9 -20070954.39148  20699878.872    20699884.9694
  24050457.417    -5690049.951 7  -4425845.08645  24050457.273    24050474.3024
  20808064.276   -22100107.069 9 -14147784.27948  20808064.067    20808071.8184
 00  5  4  0 25  0.0000000  0  9 10 26 27 08 19 07 13 18 02
  22254531.110   -16871939.799 8 -13129234.48246  22254530.699    22254542.4154
  23200171.241   -11189050.746 8  -8709558.76546  23200171.735    23200180.4174
  21881597.790   -17573843.879 8 -12973189.49147  21881597.905    21881605.6804
  21077667.210   -17400317.374 9 -12584218.19247  21077667.105    21077674.4124
  24902961.829    -1221693.046 7   -706550.76945  24902961.740    24902972.3784
  22940665.096   -11193021.302 8  -6680215.37046  22940664.859    22940682.1374
  20705059.831   -25741989.137 9 -20049736.71048  20705060.385    20705066.5104
  24070115.325    -5586748.220 7  -4345350.65745  24070115.305    24070132.4784
  20809664.126   -22091699.679 9 -14141233.02448  20809663.919    20809671.6694
 00  5  4  0 25 30.0000000  0  9 10 26 27 08 19 07 13 18 02
  22263852.247   -16822957.242 8 -13091066.40146  22263851.856    22263863.6534
  23183247.279   -11277987.920 8  -8778860.36346  23183247.691    23183256.0924
  21888618.316   -17536950.613 8 -12944441.49947  21888618.435    21888626.2314
  21084332.410   -17365291.402 8 -12556925.20647  21084332.321    21084339.6154
  24916083.376    -1152740.289 7   -652821.38145  24916083.084    24916093.5504
  22924147.957   -11279817.935 8  -6747848.61546  22924147.703    22924164.8594
  20710331.892   -25714284.174 9 -20028148.42148  20710332.455    20710338.5934
  24089805.931    -5483273.706 7  -4264721.57045  24089806.263    24089823.4684
  20811329.721   -22082947.022 9 -14134412.72748  20811329.496    20811337.2194
 00  5  4  0 26  0.0000000  0  9 10 26 27 08 19 07 13 18 02
  22273254.392   -16773549.027 8 -13052566.65246  22273254.027    22273265.8764
  23166348.950   -11366789.907 8  -8848056.63746  23166349.280    23166357.5264
  21895665.162   -17499919.641 8 -12915586.19747  21895665.236    21895672.9974
  21091025.332   -17330119.977 8 -12529518.88547  21091025.247    21091032.5154
  24929215.075    -1083733.898 7   -599050.15945  24929214.733    24929225.1154
  22907658.964   -11366466.980 8  -6815366.83046  22907658.649    22907675.6224
  20715694.467   -25686103.446 9 -20006189.40548  20715695.053    20715701.2104
  24109529.260    -5379628.354 8  -4183959.35645  24109529.649    24109546.8794
  20813060.735   -22073850.347 9 -14127324.36848  20813060.498    20813068.2404
 00  5  4  0 26 30.0000000  0  9 10 26 27 08 19 07 13 18 02
  22282737.187   -16723717.204 8 -13013736.82446  22282736.842    22282748.7474
  23149476.521   -11455454.411 8  -8917145.75746  23149476.950    23149485.1424
  21902738.266   -17462750.271 8 -12886623.05747  21902738.340    21902746.1244
  21097745.896   -17294802.988 8 -12501999.13547  21097745.804    21097753.1394
  24942356.935    -1014673.164 7   -545236.61545  24942356.546    24942366.8244
  22891198.486   -11452965.503 8  -6882767.72546  22891198.154    22891214.9534
  20721147.644   -25657446.685 9 -19983859.45848  20721148.238    20721154.4234
  24129284.959    -5275813.733 7  -4103065.22945  24129285.362    24129302.5404
  20814856.980   -22064410.874 9 -14119968.89748  20814856.745    20814864.4524
 00  5  4  0 27  0.0000000  0  9 10 26 27 08 19 07 13 18 02
  22292300.225   -16673463.852 8 -12974578.52946  22292299.872    22292311.8484
  23132630.675   -11543979.027 8  -8986125.89046  23132631.173    23132639.3434
  21909837.829   -17425441.923 8 -12857551.62347  21909837.905    21909845.6564
  21104494.149   -17259340.344 8 -12474365.89347  21104494.073    21104501.4234
  24955509.215     -945557.417 7   -491380.18345  24955509.130    24955519.0114
  22874767.212   -11539310.514 8  -6950048.99346  22874766.900    22874783.5544
  20726691.452   -25628313.635 9 -19961158.37448  20726692.060    20726698.2654
  24149072.625    -5171831.198 8  -4022040.24945  24149072.855    24149090.1474
  20816718.312   -22054629.605 9 -14112347.09148  20816718.076    20816725.7714
 00  5  4  0 27 30.0000000  0  9 10 26 27 08 19 07 13 18 02
  22301942.922   -16622791.839 8 -12935094.00346  22301942.536    22301954.5714
  23115811.920   -11632361.771 8  -9054995.48546  23115812.306    23115820.6094
  21916963.842   -17387994.273 8 -12828371.63547  21916963.951    21916971.6854
  21111270.211   -17223731.854 8 -12446619.00247  21111270.132    21111277.5124
  24968672.033     -876386.713 7   -437480.96445  24968672.037    24968681.9444
  22858365.681   -11625499.253 8  -7017208.48846  22858365.384    22858381.8854
  20732325.847   -25598704.330 9 -19938086.18448  20732326.489    20732332.6974
  24168891.720    -5067682.917 8  -3940886.09445  24168891.953    24168909.2574
  20818644.303   -22044508.177 9 -14104460.22448  20818644.063    20818651.7464
 00  5  4  0 28  0.0000000  0  9 10 26 27 08 19 07 13 18 02
  22311664.900   -16571703.535 8 -12895285.10247  22311664.486    22311676.5304
  23099020.492   -11720600.345 8  -9123752.75046  23099020.891    23099029.3714
  21924116.572   -17350406.689 8 -12799082.61047  21924116.670    21924124.3764
  21118073.995   -17187977.460 8 -12418758.42047  21118073.921    21118081.3614
  24981845.199     -807160.822 7   -383538.70444  24981844.899    24981855.3204
  22841994.308   -11711528.664 8  -7084243.80946  22841994.048    22842010.4904
  20738050.976   -25568618.402 9 -19914642.59948  20738051.606    20738057.8214
  24188742.052    -4963370.224 7  -3859603.79445  24188742.292    24188759.5724
  20820634.864   -22034047.513 9 -14096309.02048  20820634.635    20820642.3104
 00  5  4  0 28 30.0000000  0  9 10 26 27 08 19 07 13 18 02
  22321465.612   -16520201.422 8 -12855153.75346  22321465.171    22321477.2104
  23082256.884   -11808692.662 8  -9192396.03746  23082257.356    23082265.7974
  21931296.009   -17312678.693 8 -12769684.16847  21931296.070    21931303.7744
  21124905.525   -17152077.302 8 -12390784.24547  21124905.462    21124912.9434
  24995028.988     -737879.150 7   -329552.97144  24995028.851    24995039.0204
  22825653.894   -11797396.037 8  -7151152.85946  22825653.630    22825669.9174
  20743866.835   -25538055.909 9 -19890827.67048  20743867.469    20743873.6794
  24208623.117    -4858895.195 7  -3778194.98245  24208623.399    24208640.7134
  20822689.675   -22023249.234 9 -14087894.73848  20822689.442    20822697.1334
 00  5  4  0 29  0.0000000  0  9 10 26 27 08 19 07 13 18 02
  22331344.476   -16468288.229 8 -12814702.08346  22331344.062    22331356.0844
  23065521.592   -11896636.749 8  -9260923.82046  23065522.071    23065530.4784
  21938502.106   -17274810.114 8 -12740176.19347  21938502.201    21938509.9554
  21131764.831   -17116031.412 8 -12362696.51247  21131764.754    21131772.2104
  25008223.379     -668541.694 7   -275523.80844  25008223.677    25008233.6154
  22809344.825   -11883098.727 8  -7217933.57246  22809344.520    22809360.7564
  20749773.331   -25507016.930 9 -19866641.45248  20749773.970    20749780.1794
  24228534.850    -4754259.751 7  -3696661.13545  24228535.113    24228552.5194
  20824808.428   -22012114.617 9 -14079218.37548  20824808.205    20824815.9224
 00  5  4  0 29 30.0000000  0  9 10 26 27 08 19 07 13 18 02
  22341301.093   -16415966.639 8 -12773932.18246  22341300.679    22341312.7184
  23048814.979   -11984430.532 8  -9329334.46846  23048815.427    23048823.7084
  21945735.096   -17236800.737 8 -12710558.51247  21945735.144    21945742.9054
  21138651.760   -17079840.047 8 -12334495.42347  21138651.696    21138659.1514
  25021428.195     -599148.708 7   -221451.35344  25021428.565    25021438.7884
  22793067.546   -11968634.129 8  -7284583.89946  22793067.229    22793083.4084
  20755770.539   -25475501.679 9 -19842084.11348  20755771.169    20755777.3434
  24248476.784    -4649466.286 7  -3615004.10745  24248476.938    24248494.5434
  20826990.957   -22000645.162 9 -14070281.09948  20826990.724    20826998.4144
 00  5  4  0 30  0.0000000  0  9 10 26 27 08 19 07 13 18 02
  22351334.907   -16363238.961 8 -12732845.86146  22351334.483    22351346.5714
  23032137.438   -12072071.612 8  -9397626.15146  23032137.893    23032145.9864
  21952994.945   -17198649.729 8 -12680830.46347  21952995.048    21953002.8374
  21145566.497   -17043502.856 8 -12306180.70947  21145566.409    21145573.8294
  25034643.807     -529699.343 7   -167335.02144  25034644.365    25034654.4404
  22776822.688   -12053999.115 8  -7351101.46946  22776822.425    22776838.3444
  20761858.461   -25443509.562 9 -19817155.19248  20761859.074    20761865.2214
  24268448.439    -4544515.861 7  -3533224.74845  24268448.583    24268466.2364
  20829237.039   -21988841.802 9 -14061083.64648  20829236.819    20829244.4824
 00  5  4  0 30 30.0000000  0  9 10 26 27 08 19 07 13 18 02
  22361445.522   -16310107.804 8 -12691445.13846  22361445.164    22361457.2454
  23015489.303   -12159557.776 8  -9465797.10446  23015489.798    23015497.8314
  21960281.851   -17160356.749 8 -12650991.77747  21960281.983    21960289.7684
  21152509.017   -17007019.922 8 -12277752.42547  21152508.923    21152516.3094
  25047870.336     -460193.526 7   -113174.68344  25047870.979    25047880.7794
  22760610.810   -12139190.813 8  -7417484.00146  22760610.558    22760626.2324
  20768037.113   -25411040.962 9 -19791854.98648  20768037.687    20768043.7864
  24288449.671    -4439410.179 7  -3451324.39445  24288449.655    24288467.5474
  20831546.449   -21976705.821 9 -14051627.00248  20831546.221    20831553.8184
 00  5  4  0 31  0.0000000  0  9 10 26 27 08 19 07 13 18 02
  22371632.531   -16256575.522 8 -12649731.85546  22371632.151    22371644.2624
  22998871.163   -12246886.595 8  -9533845.46546  22998871.643    22998879.6594
  21967596.055   -17121921.007 8 -12621041.84147  21967596.119    21967603.8534
  21159479.311   -16970390.731 8 -12249210.17847  21159479.217    21159486.6344
  25061107.764     -390630.718 7    -58969.91644  25061108.486    25061118.3084
  22744432.455   -12224206.285 8  -7483729.19646  22744432.209    22744447.6754
  20774306.419   -25378095.629 9 -19766183.29948  20774306.967    20774313.0734
  24308479.959    -4334150.970 7  -3369304.41745  24308479.990    24308498.0704
  20833918.933   -21964238.378 9 -14041912.07548  20833918.688    20833926.2784
 00  5  4  0 31 30.0000000  0  8 10 26 27 08 07 13 18 02
  22381895.352   -16202644.987 8 -12607708.25446  22381894.956    22381907.1064
  22982283.249   -12334056.443 8  -9601769.94346  22982283.716    22982291.7964
  21974937.407   -17083342.367 8 -12590980.55046  21974937.417    21974945.1294
  21166477.331   -16933615.738 8 -12220554.33047  21166477.263    21166484.7094
  22728288.036   -12309043.116 8  -7549835.20046  22728287.815    22728303.1624
  20780666.315   -25344674.054 9 -19740140.51748  20780666.884    20780672.9734
  24328539.011    -4228740.485 8  -3287166.57045  24328539.112    24328557.3814
  20836354.099   -21951441.337 9 -14031940.32748  20836353.852    20836361.4434
 00  5  4  0 32  0.0000000  0  8 10 26 27 08 07 13 18 02
  22392233.368   -16148319.055 8 -12565376.54046  22392232.949    22392245.1494
  22965726.052   -12421065.080 8  -9669568.81646  22965726.479    22965734.6284
  21982305.866   -17044620.354 8 -12560807.55846  21982305.926    21982313.6664
  21173502.989   -16896695.122 8 -12191785.00747  21173502.969    21173510.4174
  22712178.164   -12393698.500 8  -7615799.81446  22712177.928    22712193.1664
  20787116.896   -25310776.168 9 -19713726.58148  20787117.458    20787123.5424
  24348626.610    -4123180.706 7  -3204912.35145  24348626.646    24348645.1234
  20838851.697   -21938316.097 9 -14021712.82948  20838851.463    20838859.0914
 00  5  4  0 32 30.0000000  0  8 10 26 27 08 07 13 18 02
  22402646.282   -16093599.799 8 -12522738.33746  22402645.850    22402658.0544
  22949199.929   -12507909.768 8  -9737239.94346  22949200.479    22949208.6844
  21989701.825   -17005753.937 8 -12530522.03446  21989701.946    21989709.6814
  21180556.588   -16859628.118 8 -12162901.60947  21180556.566    21180563.9964
  22696103.325   -12478169.121 8  -7681620.45246  22696103.176    22696118.4034
  20793658.185   -25276401.584 9 -19686941.19448  20793658.720    20793664.8014
  24368742.190    -4017472.699 7  -3122542.60945  24368742.391    24368760.7584
  20841411.579   -21924863.503 9 -14011230.25448  20841411.351    20841419.0274
 00  5  4  0 33  0.0000000  0  8 10 26 27 08 07 13 18 02
  22413133.520   -16038489.605 8 -12479795.50846  22413133.100    22413145.2874
  22932705.443   -12594588.353 8  -9804781.63246  22932706.068    22932714.4034
  21997125.358   -16966742.802 8 -12500123.74046  21997125.467    21997133.2374
  21187638.030   -16822414.782 8 -12133904.18847  21187638.004    21187645.3874
  22680064.385   -12562452.104 8  -7747294.88946  22680064.219    22680079.3124
  20800290.153   -25241550.409 9 -19659784.43347  20800290.678    20800296.7344
  24388885.605    -3911618.650 7  -3040059.11845  24388885.816    24388904.3674
  20844033.551   -21911084.897 9 -14000493.64448  20844033.316    20844040.9554
 00  5  4  0 33 30.0000000  0  8 10 26 27 08 07 13 18 02
  22423694.445   -15982992.303 8 -12436551.03346  22423694.030    22423706.2174
  22916242.932   -12681099.453 8  -9872192.82046  22916243.625    22916251.9514
  22004576.392   -16927587.519 8 -12469613.13247  22004576.499    22004584.3214
  21194747.123   -16785056.073 8 -12104793.49347  21194747.072    21194754.4984
  22664061.610   -12646545.734 8  -7812821.77046  22664061.357    22664076.1984
  20807012.587   -25206223.582 9 -19632257.03247  20807013.105    20807019.2184
  24409056.500    -3805621.320 7  -2957463.95645  24409056.603    24409075.0634
  20846717.125   -21896982.508 9 -13989504.73048  20846716.888    20846724.5034
 00  5  4  0 34  0.0000000  0  8 10 26 27 08 07 13 18 02
  22434328.632   -15927109.981 8 -12393006.54646  22434328.188    22434340.4754
  22899812.829   -12767440.511 8  -9939471.51046  22899813.499    22899821.6634
  22012055.003   -16888286.944 8 -12438989.31146  22012055.111    22012062.9454
  21201884.033   -16747551.163 8 -12075568.88547  21201884.001    21201891.4174
  22648095.317   -12730446.599 8  -7878198.45946  22648095.071    22648109.7944
  20813825.551   -25170420.898 9 -19604358.83547  20813826.098    20813832.2324
  24429254.430    -3699481.760 7  -2874757.94345  24429254.439    24429272.8914
  20849462.153   -21882557.167 9 -13978264.17148  20849461.908    20849469.4864
 00  5  4  0 34 30.0000000  0  8 10 26 27 08 07 13 18 02
  22445035.591   -15870845.225 8 -12349164.06346  22445035.155    22445047.4954
  22883415.499   -12853609.135 8 -10006615.82746  22883416.081    22883424.1684
  22019561.424   -16848840.617 8 -12408251.92346  22019561.505    22019569.3204
  21209048.818   -16709900.136 8 -12046230.41147  21209048.761    21209056.1484
  22632166.176   -12814151.879 8  -7943422.75346  22632165.989    22632180.5854
  20820729.034   -25134142.409 9 -19576089.88947  20820729.659    20820735.8054
  24449478.721    -3593202.022 7  -2791942.69545  24449478.739    24449497.1374
  20852268.368   -21867810.242 9 -13966773.03248  20852268.165    20852275.6824
 00  5  4  0 35  0.0000000  0  8 10 26 27 08 07 13 18 02
  22455814.867   -15814200.408 8 -12305025.43046  22455814.403    22455826.8454
  22867051.335   -12939602.632 8 -10073623.69246  22867051.919    22867060.0334
  22027095.843   -16809247.700 8 -12377400.29146  22027095.809    22027103.6144
  21216241.527   -16672102.408 8 -12016777.62147  21216241.482    21216248.8204
  22616274.962   -12897658.323 8  -8008492.12146  22616274.750    22616289.1784
  20827723.169   -25097387.966 9 -19547450.06547  20827723.797    20827729.9714
  24469729.684    -3486783.180 7  -2709019.03145  24469729.740    24469748.1264
  20855135.609   -21852742.699 9 -13955032.05148  20855135.370    20855142.9104
 00  5  4  0 35 30.0000000  0  8 10 26 27 08 07 13 18 02
  22466665.809   -15757178.943 8 -12260593.31646  22466665.361    22466677.8944
  22850720.861   -13025419.304 8 -10140493.78046  22850721.435    22850729.5784
  22034658.061   -16769508.003 8 -12346434.28646  22034658.064    22034665.8084
  21223462.091   -16634158.296 8 -11987210.76847  21223462.003    21223469.3344
  22600422.099   -12980963.491 8  -8073404.65546  22600421.815    22600436.1014
  20834807.857   -25060157.931 9 -19518439.65047  20834808.472    20834814.6394
  24490006.720    -3380227.626 7  -2625988.79245  24490006.601    24490025.1094
  20858063.516   -21837356.223 9 -13943042.55948  20858063.283    20858070.8164
 00  5  4  0 36  0.0000000  0  8 10 26 27 08 07 13 18 02
  22477588.072   -15699782.584 8 -12215869.07146  22477587.670    22477600.2654
  22834424.666   -13111056.374 8 -10207223.90246  22834425.197    22834433.4074
  22042248.225   -16729620.566 8 -12315353.16246  22042248.349    22042256.1004
  21230710.613   -16596067.124 8 -11957529.32647  21230710.555    21230717.8144
  22584608.114   -13064064.209 8  -8138157.88046  22584607.822    22584622.0304
  20841983.011   -25022452.328 9 -19489058.66147  20841983.625    20841989.7704
  24510309.200    -3273537.053 7  -2542853.33145  24510309.206    24510327.9034
  20861051.963   -21821651.821 9 -13930805.33048  20861051.704    20861059.2524
 00  5  4  0 36 30.0000000  0  8 10 26 27 08 07 13 18 02
  22488581.169   -15642014.323 8 -12170855.04446  22488580.739    22488593.3354
  22818162.922   -13196511.868 8 -10273812.53846  22818163.494    22818171.8164
  22049866.676   -16689585.179 8 -12284156.75846  22049866.805    22049874.5314
  21237987.059   -16557829.285 8 -11927733.60447  21237986.938    21237994.1914
  22568833.490   -13146957.844 8  -8202749.74546  22568833.243    22568847.3024
  20849248.601   -24984271.459 9 -19459307.33747  20849249.225    20849255.3704
  24530637.228    -3166712.943 7  -2459613.66345  24530637.123    24530655.8124
  20864100.571   -21805631.177 9 -13918321.68148  20864100.334    20864107.8554
 00  5  4  0 37  0.0000000  0  8 10 26 27 08 07 13 18 02
  22499644.396   -15583877.454 8 -12125553.78446  22499643.980    22499656.6224
  22801936.178   -13281784.002 8 -10340258.29646  22801936.758    22801944.9804
  22057513.421   -16649401.808 8 -12252845.05046  22057513.462    22057521.1864
  21245291.368   -16519444.909 8 -11897823.69347  21245291.221    21245298.4664
  22553098.839   -13229642.080 8  -8267178.44646  22553098.615    22553112.4434
  20856604.423   -24945616.126 9 -19429186.29947  20856605.063    20856611.2344
  24550990.125    -3059757.941 7  -2376271.91645  24550990.013    24551008.9314
  20867208.959   -21789296.352 9 -13905593.21148  20867208.722    20867216.2514
 00  5  4  0 37 30.0000000  0  8 10 26 27 08 07 13 18 02
  22510777.305   -15525374.468 8 -12079967.25046  22510776.873    22510789.5934
  22785744.798   -13366870.309 8 -10406559.25746  22785745.427    22785753.4994
  22065188.252   -16609069.883 8 -12221417.58046  22065188.368    22065196.1374
  21252623.550   -16480913.827 8 -11867799.46947  21252623.435    21252630.6654
  22537404.538   -13312113.959 8  -8331441.67946  22537404.291    22537417.9654
  20864050.625   -24906486.382 9 -19398695.59347  20864051.238    20864057.3974
  24571367.384    -2952673.672 7  -2292829.51645  24571367.456    24571386.5214
  20870376.945   -21772648.359 9 -13892620.71648  20870376.719    20870384.2154
 00  5  4  0 38  0.0000000  0  8 10 26 27 08 07 13 18 02
  22521979.392   -15466507.700 8 -12034097.25146  22521978.988    22521991.8174
