     2.11           OBSERVATION DATA    G (GPS)             RINEX VERSION / TYPE
BIT 2 OF LLI (+4) FLAGS DATA COLLECTED UNDER "AS" CONDITION COMMENT
UPC1                                                        MARKER NAME
gAGE / UPC          gAGE / UPC                              OBSERVER / AGENCY
1                   NOVATEL  MILLENIUM  OEM-3               REC # / TYPE / VERS
1                   NOVATEL PINWELL                         ANT # / TYPE
  4789032.6277   176595.0498  4195013.2503                  APPROX POSITION XYZ
        0.0000        0.0000        0.0000                  ANTENNA: DELTA H/E/N
     1     1                                                WAVELENGTH FACT L1/2
     6    C1    P2    L1    L2    D1    D2                  # / TYPES OF OBSERV
    30.0000                                                 INTERVAL
SNR is mapped to signal strength [0-9]                      COMMENT
 L1 SNR:  >44  >35   >26   >17    >8    >0         n/a      COMMENT
    sig:   9    8     7     6      5     4          0       COMMENT
 L2 SNR:  >50  >42   >34   >26    >18   >8    >0   n/a      COMMENT
    sig:   9    8     7     6      5     4     3    0       COMMENT
teqc edited: NAVSTAR GPS # 21 excluded                      COMMENT
Forced Modulo Decimation to 30 seconds                      COMMENT
  2005     5    29     0     0   30.0000000     GPS         TIME OF FIRST OBS
                                                            END OF HEADER
 05  5 29  0  0 30.0000000  0  8G25G09G06G01G02G05G30G14
  22998987.972    22998987.1004  120860524.76448  94177035.38246      2790.89648
      2174.72746
  24275746.354    24275750.8724  127569989.88948  99405197.32446     -3698.81348
     -2882.21346
  20463817.043    20463815.4534  107538152.57049  83795945.14246      1192.35649
       929.10846
  22774280.535    22774278.8274  119679682.55348  93256877.62846       394.58348
       307.48346
  22821734.068    22821730.0604  119929041.33448  93451212.76946      -416.44448
      -324.50246
  21920927.082    21920925.1494  115195372.13248  89762682.37546     -2255.59648
     -1757.60446
  20154067.901    20154066.0584  105910484.25149  82527634.23246      -283.43749
      -220.86046
  22457564.323    22457562.5554  118015323.68348  91960005.61846     -2065.29348
     -1609.30746
 05  5 29  0  1  0.0000000  0  8G25G09G06G01G02G05G30G14
  22983074.507    22983073.0014  120776899.30048  94111872.74245      2784.04548
      2169.38445
  24296871.908    24296871.0664  127681005.47548  99491702.95245     -3702.30248
     -2884.89145
  20457051.068    20457049.4004  107502597.82949  83768240.18146      1177.78849
       917.75746
  22772081.704    22772081.1834  119668124.93348  93247871.70646       375.58848
       292.72146
  22824168.814    22824164.2804  119941835.42048  93461182.20146      -436.49448
      -340.13246
  21933820.669    21933818.9144  115263127.57948  89815478.81146     -2261.40148
     -1762.12946
  20155714.781    20155712.9684  105919137.70149  82534377.18947      -293.67749
      -228.84547
  22469394.393    22469392.5314  118077490.47648  92008447.24946     -2079.55348
     -1620.43646
 05  5 29  0  1 30.0000000  0  8G25G09G06G01G02G05G30G14
  22967202.504    22967200.8294  120693490.00448  94046878.48846      2776.71448
      2163.68446
  24318017.805    24318020.4224  127792127.91048  99578291.79345     -3705.85648
     -2887.70445
  20450369.960    20450368.4934  107467488.00449  83740881.90046      1162.87549
       906.13846
  22769991.978    22769990.5134  119657141.68248  93239313.34146       356.37348
       277.70646
  22826718.627    22826716.2504  119955232.88148  93471621.78246      -456.66148
      -355.83046
  21946748.300    21946747.0574  115331062.71648  89868415.27146     -2267.46448
     -1766.84846
  20157420.576    20157418.4904  105928101.61549  82541362.06547      -304.09849
      -236.95647
  22481307.848    22481306.7924  118140094.07948  92057229.23546     -2094.18848
     -1631.83646
 05  5 29  0  2  0.0000000  0  8G25G09G06G01G02G05G30G14
  22951372.983    22951371.2664  120610303.97448  93982058.24646      2769.08348
      2157.73046
  24339184.247    24339181.8214  127903360.44948  99664966.43046     -3709.37248
     -2890.46146
  20443774.380    20443772.4294  107432828.09749  83713874.20346      1147.72649
       894.33546
  22768012.073    22768010.2444  119646737.89148  93231206.46346       337.02748
       262.60846
  22829383.295    22829377.8854  119969238.48848  93482535.25246      -477.12748
      -371.77246
  21959711.158    21959709.6414  115399181.94848  89921495.15546     -2273.63548
     -1771.67146
  20159186.177    20159184.1994  105937380.97449  82548592.73847      -314.66849
      -245.19747
  22493304.688    22493302.8684  118203136.98348  92106353.56846     -2108.73548
     -1643.16146
 05  5 29  0  2 30.0000000  0  8G25G09G06G01G02G05G30G14
  22935586.876    22935584.5154  120527346.43948  93917416.04546      2761.68248
      2151.97546
  24360373.291    24360374.1464  128014704.52248  99751727.94346     -3713.20048
     -2893.39246
  20437265.266    20437263.0464  107398621.43749  83687219.69246      1132.96149
       882.83246
  22766142.794    22766143.3414  119636916.76548  93223553.63846       317.85048
       247.65146
  22832165.081    22832161.1054  119983855.38848  93493925.05445      -497.16748
      -387.42145
  21972709.551    21972708.1914  115467488.05048  89974720.68046     -2279.91648
     -1776.56846
  20161012.807    20161010.7164  105946978.95649  82556071.69546      -325.00549
      -253.24646
  22505385.088    22505382.9694  118266619.26548  92155820.24846     -2123.18748
     -1654.43946
 05  5 29  0  3  0.0000000  0  8G25G09G06G01G02G05G30G14
  22919842.627    22919841.0754  120444612.78948  93852948.30646      2754.01948
      2145.98846
  24381580.643    24381581.6654  128126151.46648  99838569.69946     -3716.48148
     -2895.93346
  20430840.419    20430839.1904  107364861.47449  83660913.25246      1117.82749
       871.03546
  22764383.668    22764381.4464  119627671.49548  93216349.55646       298.62748
       232.69646
  22835060.877    22835056.3494  119999076.41348  93505785.61746      -517.44348
      -403.19446
  21985741.699    21985740.2214  115535973.68848  90028086.10846     -2285.86048
     -1781.18246
  20162898.568    20162896.3534  105956888.61549  82563793.52146      -335.51049
      -261.43846
  22517547.057    22517543.3374  118330531.66048  92205622.08546     -2137.33448
     -1665.43746
 05  5 29  0  3 30.0000000  0  8G25G09G06G01G02G05G30G14
  22904141.403    22904139.8844  120362103.98948  93788655.76446      2746.46048
      2140.08446
  24402807.194    24402809.4764  128237698.16948  99925489.13843     -3720.21848
     -2898.93243
  20424501.011    20424499.1364  107331546.88849  83634953.86346      1103.02749
       859.50246
  22762734.094    22762732.5724  119619000.82548  93209593.19846       279.44348
       217.74246
  22838072.570    22838069.0234  120014900.23048  93518115.86546      -537.71648
      -419.00746
  21998808.155    21998806.2304  115604637.18948  90081590.10846     -2291.56848
     -1785.64846
  20164843.177    20164841.3454  105967108.46749  82571757.04746      -345.91949
      -269.54146
  22529789.502    22529787.2634  118394870.12448  92255755.93146     -2151.62448
     -1676.58346
 05  5 29  0  4  0.0000000  0  8G25G09G06G01G02G05G30G14
  22888484.233    22888483.1644  120279826.81848  93724543.70946      2738.62548
      2134.01546
  24424054.002    24424054.0434  128349347.74448 100012488.81445     -3723.43648
     -2901.41645
  20418247.348    20418245.7474  107298682.50049  83609345.27746      1087.79249
       847.63546
  22761193.879    22761193.1744  119610909.60648  93203288.34146       259.91948
       202.53846
  22841198.687    22841195.3364  120031331.31648  93530919.32746      -558.11748
      -434.90646
  22011908.916    22011907.7884  115673482.74448  90135235.99646     -2297.98148
     -1790.63346
  20166847.885    20166845.6544  105977643.49349  82579966.16746      -356.70449
      -277.95446
  22542114.709    22542113.8504  118459636.40248  92306223.15046     -2166.12248
     -1687.91746
 05  5 29  0  4 30.0000000  0  8G25G09G06G01G02G05G30G14
  22872873.029    22872870.8664  120197785.70348  93660615.59246      2730.97148
      2128.00846
  24445319.729    24445316.5994  128461100.37147 100099568.66146     -3726.00847
     -2903.37646
  20412079.381    20412077.7714  107266270.59749  83584089.27846      1073.09149
       836.17446
  22759764.855    22759762.9834  119603399.83648  93197436.56946       240.79148
       187.61046
  22844441.716    22844438.4234  120048371.42548  93544197.37646      -577.86548
      -450.29446
  22025044.912    22025043.9474  115742512.12548  90189025.11146     -2303.98948
     -1795.30546
  20168912.850    20168910.8764  105988495.42649  82588422.22546      -366.76849
      -285.79846
  22554520.407    22554518.6084  118524830.21048  92357023.47246     -2179.96348
     -1698.67446
 05  5 29  0  5  0.0000000  0  8G25G09G06G01G02G05G30G14
  22857303.996    22857301.3054  120115969.49948  93596862.76546      2723.29048
      2122.09146
  24466601.337    24466601.6684  128572940.94147 100186651.00844     -3729.38047
     -2905.98944
  20405995.011    20405993.9894  107234297.78349  83559175.41846      1058.26649
       824.62446
  22758443.914    22758442.9824  119596458.09448  93192027.40946       221.51848
       172.61946
  22847797.979    22847793.9524  120066006.91748  93557939.31646      -597.92448
      -465.90346
  22038213.121    22038210.8494  115811711.44948  90242946.64646     -2309.52148
     -1799.62646
  20171035.530    20171033.5794  105999650.93349  82597114.84546      -377.07249
      -293.81446
  22567004.856    22567003.4674  118590435.21148  92408144.24746     -2193.61648
     -1709.30346
 05  5 29  0  5 30.0000000  0  8G25G09G06G01G02G05G30G14
  22841780.362    22841777.9824  120034393.69248  93533297.24445      2715.16248
      2115.71845
  24487903.545    24487901.6274  128684880.96348 100273876.88342     -3732.94148
     -2908.82642
  20399996.900    20399995.8344  107202777.22149  83534613.96747      1043.27349
       812.94047
  22757233.456    22757233.0974  119590097.39648  93187071.04946       202.62448
       157.89246
  22851269.362    22851263.8044  120084250.78748  93572155.33746      -618.22048
      -481.73246
  22051415.414    22051414.1424  115881093.26748  90297010.37546     -2315.44248
     -1804.24346
  20173218.986    20173217.2404  106011123.28949  82606054.35046      -387.55649
      -301.98846
  22579569.193    22579567.2344  118656461.77048  92459593.45746     -2207.89548
     -1720.43646
 05  5 29  0  6  0.0000000  0  8G25G09G06G01G02G05G30G14
  22826302.388    22826299.8384  119953056.29348  93469917.47946      2707.10148
      2109.43946
  24509223.138    24509219.6164  128796914.35248 100361175.49246     -3736.06348
     -2911.19946
  20394084.328    20394082.6704  107171704.98449  83510401.86547      1028.34049
       801.30047
  22756133.047    22756132.0134  119584313.54448  93182564.11946       183.26348
       142.78746
  22854855.416    22854852.2214  120103098.55048  93586841.93346      -638.57248
      -497.59846
  22064652.396    22064651.2934  115950653.18848  90351212.90846     -2321.65548
     -1809.07546
  20175461.693    20175459.5214  106022908.20949  82615237.41147      -398.16049
      -310.25847
  22592212.655    22592211.2214  118722903.30548  92511366.05046     -2221.67848
     -1731.18946
 05  5 29  0  6 30.0000000  0  8G25G09G06G01G02G05G30G14
  22810869.762    22810867.8134  119871958.69248  93406724.58446      2698.95648
      2103.08046
  24530559.807    24530559.1744  128909038.76548 100448545.05645     -3739.46448
     -2913.83345
  20388256.449    20388255.0224  107141080.32749  83486538.51846      1013.14249
       789.46546
  22755142.148    22755140.9504  119579105.65448  93178506.05946       163.79648
       127.65046
  22858556.725    22858553.8984  120122548.86448  93601998.02146      -658.59148
      -513.17546
  22077922.872    22077920.3684  116020389.68848  90405553.03646     -2327.72748
     -1813.81546
  20177763.239    20177761.3884  106035004.82849  82624663.35246      -408.71649
      -318.47846
  22604933.891    22604932.5914  118789755.94148  92563458.99146     -2235.40548
     -1741.85746
 05  5 29  0  7  0.0000000  0  8G25G09G06G01G02G05G30G14
  22795485.204    22795482.6164  119791110.16748  93343725.75346      2690.94148
      2096.85846
  24551915.571    24551916.0904  129021259.82848 100535989.93645     -3742.27648
     -2916.00945
  20382515.237    20382513.7184  107110910.53249  83463029.62046       998.20349
       777.81846
  22754261.094    22754261.3694  119574480.93648  93174902.37546       144.49648
       112.60046
  22862374.656    22862370.6234  120142608.90848  93617629.22646      -678.73748
      -528.89146
  22091228.185    22091226.7614  116090309.62948  90460036.07846     -2333.54848
     -1818.34846
  20180125.640    20180123.9884  106047420.45549  82634337.87646      -418.96449
      -326.46646
  22617734.810    22617735.0274  118857024.40748  92615875.93246     -2249.01948
     -1752.49846
 05  5 29  0  7 30.0000000  0  8G25G09G06G01G02G05G30G14
  22780145.362    22780143.0304  119710500.18548  93280912.83346      2682.81748
      2090.49146
  24573285.327    24573284.0024  129133562.80348 100623498.59946     -3745.05548
     -2918.18546
  20376858.181    20376856.7834  107081182.66049  83439865.06747       983.35549
       766.23247
  22753490.421    22753489.0824  119570426.21248  93171742.85546       125.54748
        97.81946
  22866305.699    22866302.0624  120163265.43548  93633725.24646      -698.51948
      -544.31746
  22104565.792    22104563.5074  116160399.73148  90514651.72046     -2339.12748
     -1822.69946
  20182546.757    20182544.6294  106060142.12349  82644250.88247      -429.26849
      -334.49347
  22630612.091    22630612.4694  118924692.92648  92668604.63246     -2262.38648
     -1762.89746
 05  5 29  0  8  0.0000000  0  8G25G09G06G01G02G05G30G14
  22764854.152    22764851.1354  119630143.64348  93218297.37746      2674.28848
      2083.86246
  24594674.885    24594671.1404  129245958.39948 100711079.47242     -3748.11248
     -2920.63442
  20371287.419    20371286.4614  107051909.28749  83417054.67446       968.39449
       754.59546
  22752830.122    22752827.9164  119566953.87848  93169037.13145       106.13748
        82.70045
  22870352.065    22870347.9864  120184530.33148  93650295.32546      -718.84048
      -560.13346
  22117938.098    22117936.4324  116230672.13048  90569409.42446     -2345.29848
     -1827.51146
  20185028.111    20185026.2074  106073182.35249  82654412.11046      -439.86549
      -342.75046
  22643567.262    22643566.9334  118992771.35548  92721652.69846     -2276.00048
     -1773.50146
 05  5 29  0  8 30.0000000  0  8G25G09G06G01G02G05G30G14
  22749608.966    22749607.2254  119550031.73548  93155872.53146      2666.00048
      2077.41446
  24616077.983    24616074.9584  129358433.96348 100798722.65345     -3751.08148
     -2922.96845
  20365801.349    20365799.7344  107023079.43649  83394589.87746       953.16049
       742.72046
  22752276.985    22752276.3854  119564052.75148  93166776.51446        86.82648
        67.64146
  22874512.069    22874507.3514  120206392.05848  93667330.44046      -739.00148
      -575.82646
  22131343.763    22131341.8104  116301115.25548  90624300.14146     -2351.10548
     -1832.02146
  20187568.441    20187566.0434  106086530.07849  82664812.94546      -450.30749
      -350.89146
  22656597.264    22656597.0674  119061245.60648  92775009.24646     -2289.52148
     -1784.02646
 05  5 29  0  9  0.0000000  0  8G25G09G06G01G02G05G30G14
  22734412.826    22734410.5964  119470176.49248  93093647.67846      2657.55948
      2070.82546
  24637497.961    24637495.9774  129470997.34348 100886434.35945     -3753.92948
     -2925.17945
  20360401.578    20360400.2474  106994702.68649  83372478.15546       938.52849
       731.31846
  22751836.282    22751835.1184  119561732.25748  93164968.36146        67.85448
        52.86846
  22878787.662    22878784.3584  120228859.99248  93684837.95346      -758.81748
      -591.28446
  22144782.453    22144781.8564  116371738.61048  90679331.31446     -2356.88948
     -1836.53246
  20190168.819    20190166.1754  106100194.88749  82675460.85146      -460.73549
      -359.01946
  22669703.999    22669703.8284  119130122.26848  92828679.32645     -2302.49848
     -1794.18945
 05  5 29  0  9 30.0000000  0  8G25G09G06G01G02G05G30G14
  22719265.587    22719263.5144  119390574.61348  93031620.28446      2649.05248
      2064.20046
  24658932.023    24658931.7524  129583641.44548 100974208.87245     -3756.44148
     -2927.10545
  20355086.758    20355085.6744  106966773.64249  83350715.28346       923.58949
       719.67746
  22751503.887    22751502.9324  119559986.83248  93163608.27846        48.75548
        37.89746
  22883177.239    22883173.7914  120251928.05748  93702813.06446      -779.00348
      -607.00546
  22158254.961    22158253.3494  116442536.31748  90734498.34546     -2362.70048
     -1841.03646
  20192828.200    20192826.1604  106114171.49849  82686351.72647      -471.14949
      -367.12647
  22682886.167    22682883.6934  119199393.96048  92882657.25146     -2315.45148
     -1804.25046
 05  5 29  0 10  0.0000000  0  8G25G09G06G01G02G05G30G14
  22704167.066    22704164.8044  119311230.95148  92969794.08346      2640.48648
      2057.53946
  24680382.485    24680383.8884  129696366.98347 101062046.88242     -3758.90347
     -2929.04642
  20349857.745    20349856.3814  106939294.75749  83329303.18546       908.49249
       707.92146
  22751281.781    22751279.4574  119558818.42348  93162697.82446        29.33448
        22.86346
  22887681.239    22887677.7824  120275598.34548  93721257.48146      -799.08148
      -622.64146
  22171761.102    22171759.8194  116513510.23048  90789802.66646     -2368.68248
     -1845.72446
  20195547.703    20195545.6484  106128462.19149  82697487.33247      -481.62349
      -375.28747
  22696142.827    22696141.4354  119269059.43248  92936941.99546     -2328.80148
     -1814.62046
 05  5 29  0 10 30.0000000  0  8G25G09G06G01G02G05G30G14
  22689117.950    22689116.2814  119232149.66648  92908172.28746      2631.91948
      2050.82846
  24701850.809    24701848.3144  129809174.11848 101149961.36044     -3761.25248
     -2930.85444
  20344715.011    20344713.4314  106912267.85249  83308243.28046       893.45649
       696.19946
  22751169.268    22751168.4754  119558228.73748  93162238.33446        10.28248
         8.01546
  22892300.943    22892297.2834  120299872.49048  93740172.41846      -818.95948
      -638.16946
  22185300.996    22185298.9744  116584661.82948  90845245.44446     -2374.46748
     -1850.22546
  20198327.185    20198325.1174  106143068.94949  82708869.22646      -491.93349
      -383.32446
  22709474.521    22709474.2884  119339118.10148  92991533.13046     -2341.58448
     -1824.61246
 05  5 29  0 11  0.0000000  0  8G25G09G06G01G02G05G30G14
  22674117.859    22674114.9004  119153318.86048  92846745.71146      2623.35148
      2044.16946
  24723329.524    24723324.4744  129922046.90648 101237914.06046     -3763.51848
     -2932.53446
  20339655.389    20339653.7564  106885678.85049  83287524.60146       878.85949
       684.83046
  22751164.426    22751164.3144  119558203.51448  93162218.69246        -8.67348
        -6.71246
  22897032.137    22897028.4264  120324735.48348  93759546.18946      -838.65248
      -653.49746
  22198871.607    22198868.8684  116655976.85748  90900815.58446     -2379.96648
     -1854.50746
  20201164.354    20201162.0564  106157977.65749  82720486.40346      -502.17349
      -391.29846
  22722878.013    22722878.4474  119409553.00548  93046417.45546     -2354.24348
     -1834.47846
 05  5 29  0 11 30.0000000  0  8G25G09G06G01G02G05G30G14
  22659166.370    22659164.6214  119074749.70948  92785523.04646      2614.52648
      2037.28946
  24744822.011    24744821.4654  130034992.81747 101325923.87942     -3766.11747
     -2934.54242
  20334680.657    20334678.9054  106859536.50949  83267153.97546       863.95449
       673.21346
  22751268.352    22751267.4784  119558751.14748  93162645.42146       -27.71348
       -21.57746
  22901876.542    22901873.2884  120350195.88848  93779385.49846      -858.62548
      -669.05246
  22212475.293    22212473.3284  116727463.76448  90956519.63746     -2385.70748
     -1858.98846
  20204060.430    20204058.2944  106173197.19549  82732345.79046      -512.59249
      -399.42446
  22736354.098    22736352.4084  119480370.17148  93101599.64046     -2367.23148
     -1844.60346
 05  5 29  0 12  0.0000000  0  8G25G09G06G01G02G05G30G14
  22644266.080    22644263.8294  118996449.88348  92724510.21546      2605.62248
      2030.35846
  24766328.850    24766327.0834  130148015.35147 101413920.26442     -3768.33647
     -2936.47842
  20329791.793    20329790.1654  106833846.15749  83247135.53746       848.77949
       661.38646
  22751483.112    22751481.3854  119559876.63448  93163522.42346       -47.30948
       -36.87246
  22906836.307    22906833.1914  120376258.32448  93799693.88446      -878.91848
      -684.86446
  22226112.149    22226110.4074  116799127.20448  91012361.26446     -2391.96248
     -1863.86346
  20207016.891    20207014.6154  106188732.91849  82744451.54546      -523.16349
      -407.66146
  22749904.024    22749902.6724  119551572.27748  93157081.77246     -2379.71648
     -1854.32146
 05  5 29  0 12 30.0000000  0  8G25G09G06G01G02G05G30G14
  22629417.453    22629415.9404  118918423.10648  92663710.12146      2596.22348
      2023.03146
  24787852.726    24787851.8674  130261114.47547 101502101.33746     -3771.27847
     -2938.67046
  20324989.254    20324988.0334  106808609.38649  83227470.53647       833.51249
       649.48847
  22751806.898    22751805.9544  119561581.38148  93164850.81146       -66.61048
       -51.88546
  22911910.443    22911906.7494  120402923.81748  93820472.24846      -899.06748
      -700.58446
  22239783.203    22239780.9344  116870968.55248  91068341.49946     -2397.97248
     -1868.54646
  20210033.735    20210031.2484  106204586.52949  82756805.00646      -534.00049
      -416.10846
  22763526.212    22763524.3494  119623157.99348  93212862.83546     -2392.76548
     -1864.50646
 05  5 29  0 13  0.0000000  0  8G25G09G06G01G02G05G30G14
  22614620.006    22614619.3214  118840661.48448  92603116.67846      2587.61748
      2016.31646
  24809386.344    24809388.7754  130374277.73047 101590280.46846     -3773.19447
     -2940.19846
  20320271.177    20320269.4924  106783815.48949  83208150.63346       819.14149
       638.29746
  22752239.520    22752239.2234  119563854.36948  93166621.97546       -85.18248
       -66.38146
  22917097.746    22917093.1524  120430181.14848  93841711.71446      -918.30948
      -715.57346
  22253485.700    22253484.5554  116942976.88448  91124451.89246     -2402.97448
     -1872.46246
  20213109.144    20213106.8454  106220747.42449  82769397.91146      -543.83849
      -423.77246
  22777219.120    22777217.2184  119695113.91748  93268932.36946     -2404.52048
     -1873.65246
 05  5 29  0 13 30.0000000  0  8G25G09G06G01G02G05G30G14
  22599874.504    22599871.4444  118763170.39948  92542734.01746      2578.41848
      2009.16746
  24830933.492    24830930.1904  130487506.61948 101678510.55246     -3775.41048
     -2941.90046
  20315638.040    20315636.3264  106759467.57849  83189178.26046       804.05249
       626.53446
  22752781.486    22752779.7554  119566698.36148  93168838.06346      -104.38748
       -81.33746
  22922397.282    22922393.1624  120458033.01548  93863414.47346      -938.33048
      -731.16246
  22267221.143    22267218.9214  117015155.15448  91180694.66146     -2409.03048
     -1877.16846
  20216243.456    20216241.2344  106237218.85949  82782232.79546      -554.27249
      -431.90446
  22790982.322    22790981.4864  119767440.69248  93325290.85546     -2417.25048
     -1883.59146
 05  5 29  0 14  0.0000000  0  8G25G09G06G01G02G05G30G14
  22585180.802    22585178.8044  118685956.19148  92482567.13446      2568.97048
      2001.79546
  24852492.085    24852491.4064  130600803.37847 101766810.58845     -3777.85847
     -2943.73145
  20311090.117    20311088.4674  106735569.60449  83170556.47046       788.90649
       614.73746
  22753431.389    22753430.2314  119570116.93148  93171501.88146      -123.78148
       -96.37946
  22927811.422    22927807.8474  120486482.75648  93885583.11346      -958.36848
      -746.78446
  22280988.633    22280988.4804  117087506.77048  91237072.54046     -2414.84548
     -1881.70546
  20219437.827    20219435.5444  106254004.90549  82795312.83747      -564.94149
      -440.21347
  22804815.255    22804813.2164  119840138.98448  93381938.84645     -2429.42748
     -1893.04245
 05  5 29  0 14 30.0000000  0  8G25G09G06G01G02G05G30G14
  22570540.712    22570538.6604  118609021.86248  92422618.30146      2560.00848
      1994.80146
  24874065.612    24874064.6234  130714166.90847 101855137.75046     -3779.90947
     -2945.35346
  20306628.142    20306626.4684  106712122.03449  83152285.65047       774.47149
       603.48247
  22754191.950    22754191.1034  119574110.33848  93174613.63246      -142.30548
      -110.88146
  22933338.357    22933336.0774  120515530.40648  93908217.66145      -977.97848
      -762.06945
  22294790.140    22294788.7154  117160032.15248  91293585.78746     -2420.26148
     -1885.91846
  20222691.991    20222689.7784  106271106.09149  82808638.44346      -574.91749
      -447.98346
  22818720.172    22818718.6544  119913206.35248  93438874.42345     -2441.37648
     -1902.37145
 05  5 29  0 15  0.0000000  0  8G25G09G06G01G02G05G30G14
  22555953.004    22555950.5954  118532361.40848  92362882.90346      2550.99048
      1987.75646
  24895648.679    24895649.4444  130827587.43548 101943522.23846     -3781.66148
     -2946.78146
  20302250.488    20302248.8054  106689116.50349  83134359.27546       759.52449
       591.83846
  22755059.054    22755057.4744  119578669.89148  93178166.50646      -161.30748
      -125.70146
  22938978.105    22938975.5184  120545166.66948  93931310.87246      -997.68948
      -777.38746
  22308622.539    22308620.2724  117232722.51348  91350227.64546     -2425.87448
     -1890.29046
  20226004.943    20226002.4324  106288514.23949  82822203.23146      -585.38349
      -456.14346
  22832692.997    22832690.7144  119986631.95948  93496089.18545     -2453.61548
     -1911.92345
 05  5 29  0 15 30.0000000  0  8G25G09G06G01G02G05G30G14
  22541417.653    22541416.3964  118455978.99448  92303364.17846      2541.40448
      1980.31346
  24917243.095    24917244.1114  130941065.33448 102031946.44046     -3783.12448
     -2947.89346
  20297957.424    20297955.5794  106666554.90249  83116778.83546       744.66749
       580.26046
  22756034.267    22756032.1974  119583796.95548  93182161.61746      -180.30248
      -140.47846
  22944730.421    22944726.2624  120575393.04648  93954863.92746     -1017.49048
      -792.85246
  22322486.873    22322485.2674  117305579.62748  91406999.36446     -2431.12948
     -1894.40146
  20229375.867    20229373.9094  106306231.19049  82836008.64146      -595.61549
      -464.12446
  22846732.862    22846732.2944  120060415.00248  93553582.41846     -2465.24948
     -1920.95246
 05  5 29  0 16  0.0000000  0  8G25G09G06G01G02G05G30G14
  22526935.946    22526933.9394  118379876.87748  92244063.83146      2531.59748
      1972.66746
  24938847.510    24938844.4164  131054599.13848 102120414.21942     -3785.65948
     -2949.89842
  20293748.165    20293746.7464  106644436.99449  83099544.12946       729.54449
       568.48246
  22757118.006    22757116.8724  119589491.14348  93186598.65846      -199.36248
      -155.33046
  22950593.763    22950591.1744  120606208.55248  93978876.03846     -1037.18748
      -808.18646
  22336382.548    22336380.3724  117378603.33348  91463900.95146     -2437.20648
     -1899.12446
  20232806.190    20232803.8954  106324257.25249  82850054.92846      -606.34449
      -472.47646
  22860841.067    22860840.3794  120134552.50148  93611351.90545     -2477.54548
     -1930.55145
 05  5 29  0 16 30.0000000  0  8G25G09G06G01G02G05G30G14
  22512509.540    22512508.5834  118304068.88448  92184992.71846      2522.28948
      1965.37146
  24960465.560    24960465.9034  131168197.96247 102208932.60742     -3787.70047
     -2951.45642
  20289625.876    20289624.0664  106622773.87649  83082663.79147       714.72149
       556.92447
  22758311.173    22758310.8494  119595762.91748  93191485.74446      -218.51848
      -170.28846
  22956573.002    22956569.5844  120637623.51448  94003355.23046     -1056.90748
      -823.56046
  22350312.219    22350310.1874  117451804.30948  91520940.64846     -2442.95048
     -1903.60346
  20236297.675    20236294.9964  106342603.48849  82864350.69846      -616.70149
      -480.55146
  22875017.607    22875017.2874  120209052.89448  93669404.11046     -2489.10548
     -1939.54846
 05  5 29  0 17  0.0000000  0  8G25G09G06G01G02G05G30G14
  22498138.337    22498137.1684  118228547.59048  92126144.97546      2512.57148
      1957.84646
  24982092.502    24982089.3534  131281850.61948 102297491.95545     -3789.23648
     -2952.62245
  20285588.186    20285586.5274  106601555.67049  83066130.14847       699.85049
       545.33647
  22759613.445    22759612.8644  119602602.27048  93196815.08546      -237.37748
      -184.97946
  22962662.527    22962658.6534  120669627.95448  94028293.79446     -1076.53848
      -838.85546
  22364273.795    22364271.9274  117525172.53548  91578110.70046     -2448.41248
     -1907.87846
  20239847.756    20239845.2634  106361260.34149  82878888.51346      -626.96349
      -488.54046
  22889261.416    22889261.6464  120283903.35148  93727729.14546     -2500.96248
     -1948.79146
 05  5 29  0 17 30.0000000  0  8G25G09G06G01G02G05G30G14
  22483822.861    22483821.4064  118153318.19948  92067524.67946      2502.85848
      1950.27146
  25003729.595    25003725.6234  131395558.53947 102386087.42346     -3790.70347
     -2953.77646
  20281635.689    20281634.3624  106580785.38949  83049945.54046       684.87049
       533.66946
  22761023.519    22761022.5074  119610011.63848  93202588.62045      -256.45048
      -199.83545
  22968865.208    22968861.4344  120702223.68448  94053693.04546     -1096.11248
      -854.10146
  22378267.145    22378266.0344  117598710.88848  91635413.28546     -2454.13948
     -1912.31846
  20243458.031    20243455.5414  106380230.93049  82893670.79146      -637.58849
      -496.82546
  22903570.910    22903570.0324  120359104.17548  93786327.15645     -2512.44048
     -1957.73845
 05  5 29  0 18  0.0000000  0  8G25G09G06G01G02G05G30G14
  22469562.562    22469561.1734  118078379.99548  92009131.30746      2493.02648
      1942.68746
  25025378.302    25025382.3414  131509316.60947 102474682.99342     -3792.86147
     -2955.39842
  20277767.840    20277766.1234  106560459.54849  83034107.24847       670.17349
       522.21347
  22762541.122    22762540.0474  119617987.15348  93208803.33346      -275.10748
      -214.37746
  22975179.712    22975176.8094  120735406.84648  94079550.12146     -1115.88248
      -869.51646
  22392293.384    22392291.4094  117672415.49948  91692845.47146     -2459.56548
     -1916.54046
  20247126.793    20247124.4374  106399511.88249  82908694.90846      -647.81849
      -504.79846
  22917946.965    22917946.8454  120434649.23848  93845193.39446     -2523.72848
     -1966.53846
 05  5 29  0 18 30.0000000  0  8G25G09G06G01G02G05G30G14
  22455357.846    22455356.1864  118003732.94948  91950964.80446      2483.33548
      1935.09146
  25047034.172                   131623120.71447                     -3794.39947

  20273984.028    20273981.9704  106540575.52249  83018613.22646       655.28949
       510.61346
  22764165.877    22764164.6224  119626525.87348  93215456.88546      -294.18548
      -229.23846
  22981604.360    22981601.8734  120769174.14548  94105862.30346     -1135.35348
      -884.70946
  22406350.163    22406347.8844  117746283.83248  91750405.20046     -2465.18548
     -1920.91346
  20250854.717    20250851.7754  106419101.08549  82923959.22246      -658.26749
      -512.93346
  22932388.229    22932386.5014  120510533.03848  93904323.61046     -2535.20848
     -1975.50446
 05  5 29  0 19  0.0000000  0  8G25G09G06G01G02G05G30G14
  22441209.266    22441206.9964  117929380.37448  91893027.75346      2473.45948
      1927.36846
  25068699.714    25068697.7854  131736970.04047 102652114.15946     -3795.85747
     -2957.81846
  20270284.501    20270282.6494  106521133.87349  83003463.90247       640.68749
       499.20147
  22765897.981    22765896.5744  119635627.90048  93222549.33846      -312.79448
      -243.73546
  22988141.896    22988137.8724  120803525.42748  94132629.55046     -1154.99948
      -900.01846
  22420437.853    22420436.2194  117820316.22548  91808092.77846     -2470.45748
     -1925.03546
  20254640.818    20254638.3314  106438999.30049  82939464.33547      -668.40049
      -520.82847
  22946892.108    22946890.8664  120586753.38248  93963716.06146     -2546.25548
     -1984.09146
 05  5 29  0 19 30.0000000  0  8G25G09G06G01G02G05G30G14
  22427117.693    22427115.6964  117855328.69748  91835325.18846      2463.25148
      1919.41646
  25090373.216    25090369.1094  131850867.58247 102740828.26646     -3797.49947
     -2959.01346
  20266670.168    20266667.9484  106502138.94949  82988662.69147       625.70449
       487.56347
  22767738.066    22767736.2194  119645297.10648  93230083.78446      -331.85048
      -258.56946
  22994789.641    22994787.7204  120838464.44048  94159854.79146     -1174.61248
      -915.27046
  22434558.206    22434554.9714  117894516.93448  91865911.52546     -2476.19248
     -1929.50546
  20258487.607    20258484.5504  106459211.02549  82955213.72646      -679.10149
      -529.16746
  22961460.756    22961460.3194  120663311.98748  94023372.11346     -2557.61448
     -1992.95046
 05  5 29  0 20  0.0000000  0  8G25G09G06G01G02G05G30G14
  22413083.019    22413081.6384  117781578.06048  91777857.19246      2453.55748
      1911.91246
  25112056.336    25112054.5154  131964809.26548 102829665.04145     -3798.63848
     -2960.04245
  20263139.563    20263137.7204  106483588.01049  82974207.43747       611.10749
       476.19447
  22769684.854    22769684.2004  119655530.21448  93238057.62546      -350.39348
      -273.05446
  23001550.582    23001546.3064  120873987.70648  94187535.29546     -1193.69348
      -930.14846
  22448709.515    22448707.5484  117968883.09748  91923859.18446     -2481.61948
     -1933.73446
  20262392.608    20262390.4144  106479733.88649  82971205.57646      -689.19749
      -537.03446
  22976093.507    22976090.9214  120740203.84148  94083287.80846     -2568.65248
     -2001.52846
 05  5 29  0 20 30.0000000  0  8G25G09G06G01G02G05G30G14
  22399106.060    22399104.3014  117708127.89548  91720623.31646      2443.35648
      1903.82146
  25133745.666    25133748.7784  132078790.43847 102918484.46146     -3800.36847
     -2961.20046
  20259693.340    20259691.8844  106465477.91149  82960095.69046       596.22249
       464.59446
  22771739.040    22771737.6854  119666323.61048  93246468.08946      -369.08648
      -287.60346
  23008420.785    23008417.7984  120910091.34448  94215668.01646     -1213.29648
      -945.43446
  22462892.038    22462890.2994  118043411.71548  91981933.42746     -2487.07548
     -1937.97746
  20266356.636    20266354.4174  106500565.09549  82987437.68846      -699.57849
      -545.12646
  22990787.073    22990785.0274  120817422.65348  94143458.29346     -2579.16648
     -2009.72846
 05  5 29  0 21  0.0000000  0  8G25G09G06G01G02G05G30G14
  22385187.885    22385186.0584  117634988.58648  91663631.68946      2432.94648
      1895.79446
  25155442.851    25155443.0564  132192743.50747 103007313.72945     -3801.56947
     -2962.33245
  20256332.625    20256331.0304  106447816.57149  82946333.62946       581.32549
       452.98846
  22773900.624    22773899.7414  119677684.59448  93255320.79446      -388.12948
      -302.43446
  23015402.954    23015397.8914  120946782.40748  94244258.51246     -1232.74448
      -960.58146
  22477106.923    22477104.2544  118118110.36848  92040140.22346     -2492.67948
     -1942.35446
  20270381.295    20270378.4754  106521712.65349  83003916.30446      -710.04149
      -553.27846
  23005545.142    23005542.1824  120894973.75548  94203887.69045     -2590.56448
     -2018.61045
 05  5 29  0 21 30.0000000  0  8G25G09G06G01G02G05G30G14
  22371328.562    22371326.0664  117562153.76648  91606877.29846      2422.82748
      1887.91946
  25177150.154    25177149.1114  132306807.72547 103096216.12256     -3802.47147
     -2963.14456
  20253055.293    20253053.8704  106430594.78449  82932914.07446       566.78749
       441.64946
  22776169.137    22776168.3984  119689603.57348  93264608.29546      -406.27948
      -316.58246
  23022494.692    23022490.3604  120984051.00748  94273298.99146     -1251.84348
      -975.47546
  22491352.164    22491349.8844  118192969.67548  92098472.14246     -2497.87348
     -1946.39046
  20274463.875    20274461.0714  106543167.82249  83020634.62646      -720.17749
      -561.17946
  23020363.882    23020361.6534  120972845.08548  94264566.61845     -2600.86448
     -2026.66245
 05  5 29  0 22  0.0000000  0  8G25G09G06G01G02G05G30G14
  22357526.640    22357525.2814  117489629.24048  91550364.71046      2412.10048
      1879.54846
  25198861.686    25198862.8334  132420907.19748 103185129.78545     -3803.89448
     -2964.11045
  20249862.387    20249860.3774  106413815.82149  82919839.57546       551.69249
       429.88746
  22778543.430    22778543.2994  119702083.25048  93274332.71846      -425.53548
      -331.57346
  23029697.860    23029694.6254  121021899.67548  94302791.50046     -1271.44348
      -990.72846
  22505628.336    22505625.8584  118267992.98548  92156931.88846     -2503.49448
     -1950.76546
  20278606.286    20278603.6014  106564934.11349  83037595.36946      -730.86349
      -569.50646
  23035243.344    23035240.8444  121051037.30748  94325495.56345     -2611.69848
     -2035.10345
 05  5 29  0 22 30.0000000  0  8G25G09G06G01G02G05G30G14
  22343785.759    22343784.1404  117417418.52748  91494096.64946      2402.47748
      1872.05946
  25220580.342    25220584.7374  132535043.24647 103274056.96746     -3804.22047
     -2964.30246
  20246753.619    20246751.8134  106397480.52349  82907110.78946       537.71749
       418.99946
  22781024.879    22781025.4114  119715123.97148  93284494.35046      -443.50848
      -345.60446
  23037010.710    23037005.8934  121060328.46948  94332736.04646     -1290.16748
     -1005.31746
  22519936.262    22519934.4634  118343181.11748  92215520.05546     -2508.38648
     -1954.61846
  20282807.330    20282804.9884  106587012.84049  83054799.57646      -740.53849
      -577.04946
  23050183.467    23050180.4114  121129548.61348  94386673.15346     -2621.72948
     -2042.89446
 05  5 29  0 23  0.0000000  0  8G25G09G06G01G02G05G30G14
  22330104.183    22330102.1394  117345521.53748  91438073.04646      2391.24948
      1863.30546
  25242305.679    25242308.7624  132649212.12047 103363024.54346     -3806.75547
     -2966.33446
  20243729.200    20243727.5384  106381586.37949  82894725.74746       522.28249
       406.97246
  22783613.503    22783611.0534  119728722.70448  93295090.74546      -462.67648
      -360.52646
  23044433.410    23044428.7984  121099334.50148  94363130.40146     -1309.86348
     -1020.65946
  22534274.064    22534272.9774  118418531.49448  92274234.63846     -2514.72948
     -1959.53746
  20287067.694    20287065.1154  106609401.61449  83072245.37246      -751.59049
      -585.65246
  23065182.822    23065181.5174  121208373.99348  94448095.52745     -2632.73248
     -2051.46645
 05  5 29  0 23 30.0000000  0  8G25G09G06G01G02G05G30G14
  22316482.027    22316480.2864  117273936.55648  91382292.58246      2381.03948
      1855.36246
  25264036.947                   132763407.98547                     -3806.71747

  20240787.802    20240785.7254  106366128.94949  82882681.00846       508.16449
       395.97346
  22786306.144    22786304.8654  119742874.42748  93306118.08446      -480.74048
      -374.60946
  23051964.802    23051961.4654  121138912.22848  94393970.25046     -1328.53548
     -1035.20646
  22548643.625    22548643.1374  118494039.86948  92333072.36546     -2519.42848
     -1963.19346
  20291386.360    20291384.2614  106632096.59749  83089929.78446      -761.56749
      -593.42746
  23080241.181    23080239.8784  121287505.88448  94509756.70745     -2642.54448
     -2059.11645
 05  5 29  0 24  0.0000000  0  8G25G09G06G01G02G05G30G14
  22302921.142    22302918.4274  117202671.92548  91326761.73846      2370.02848
      1846.78746
  25285774.382    25285779.8654  132877634.95747 103541040.48156     -3808.36347
     -2967.80656
  20237930.632    20237928.4874  106351113.77549  82870980.88846       492.98749
       384.14346
  22789104.841    22789103.2684  119757584.37148  93317580.35746      -499.87748
      -389.51846
  23059605.688    23059601.6424  121179066.26048  94425259.11646     -1348.18448
     -1050.52046
  22563043.108    22563042.4274  118569711.94148  92392037.65346     -2525.36048
     -1967.81146
  20295764.343    20295762.2184  106655103.63549  83107857.35446      -772.20549
      -601.71546
  23095358.128    23095356.9444  121366947.53148  94571659.27645     -2653.14048
     -2067.39245
 05  5 29  0 24 30.0000000  0  8G25G09G06G01G02G05G30G14
  22289421.612    22289419.6264  117131733.13748  91271484.78946      2359.26048
      1838.39146
  25307516.912    25307521.1914  132991894.36447 103630059.88345     -3808.77247
     -2967.87745
  20235157.898    20235156.0084  106336543.51749  82859627.45446       478.34949
       372.73846
  22792011.247    22792009.0344  119772854.53048  93329479.21046      -518.26248
      -403.83346
  23067356.262    23067351.4444  121219798.47948  94456998.56846     -1367.32748
     -1065.43246
  22577474.597    22577473.5344  118645550.23648  92451132.43546     -2530.74348
     -1972.01946
  20300202.264    20300200.7424  106678425.70149  83126030.39446      -782.67049
      -609.87446
  23110534.540    23110534.2534  121446699.05348  94633803.32746     -2663.27548
     -2075.31546
 05  5 29  0 25  0.0000000  0  8G25G09G06G01G02G05G30G14
  22275983.474    22275981.4434  117061115.87148  91216458.38646      2348.59048
      1830.07746
  25329265.387    25329262.4194  133106178.55547 103719112.47046     -3809.80947
     -2968.66246
  20232468.340    20232466.8154  106322411.59249  82848615.58046       463.65449
       361.28546
  22795022.494    22795021.4104  119788677.50148  93341808.81546      -536.74448
      -418.25146
  23075216.077    23075211.5644  121261101.76748  94489182.96246     -1386.33548
     -1080.24046
  22591936.230    22591935.0764  118721548.28948  92510351.70546     -2535.69248
     -1975.86446
  20304698.944    20304697.0324  106702056.76049  83144444.21647      -792.95449
      -617.88747
  23125768.588    23125764.3204  121526750.83448  94696181.21645     -2673.42848
     -2083.21845
 05  5 29  0 25 30.0000000  0  8G25G09G06G01G02G05G30G14
  22262608.197    22262606.4284  116990827.49248  91161688.26046      2337.75348
      1821.63346
  25351016.903    25351018.5144  133220490.01647 103808186.32645     -3810.35747
     -2969.03145
  20229863.708    20229861.2874  106308722.30949  82837948.61646       449.22049
       350.04946
  22798139.728    22798137.0494  119805057.08148  93354572.12046      -554.97048
      -432.41346
  23083184.671    23083181.4174  121302979.40548  94521814.91746     -1405.21248
     -1094.97646
  22606429.787    22606427.1694  118797710.27948  92569698.72746     -2541.47648
     -1980.35546
  20309255.343    20309253.5584  106726001.33749  83163102.32846      -803.11249
      -625.79846
  23141059.467    23141057.5654  121607104.73748  94758794.61645     -2683.64148
     -2091.16445
 05  5 29  0 26  0.0000000  0  8G25G09G06G01G02G05G30G14
  22249294.155    22249291.2954  116920860.20548  91107168.31746      2326.80148
      1813.09546
  25372774.669    25372772.8144  133334817.28547 103897270.42845     -3810.74347
     -2969.43445
  20227340.987    20227338.7934  106295465.21749  82827618.42446       434.67049
       338.70746
  22801360.295    22801357.6484  119821982.48148  93367760.76246      -573.33448
      -446.72346
  23091261.347    23091256.3154  121345420.31648  94554885.76146     -1424.12648
     -1109.68546
  22620951.729    22620950.5244  118874025.98348  92629165.53946     -2546.39048
     -1984.20446
  20313869.949    20313868.0434  106750249.64849  83181997.12746      -813.41849
      -633.82846
  23156405.393    23156403.8784  121687748.00248  94821633.49045     -2692.92148
     -2098.39545
 05  5 29  0 26 30.0000000  0  8G25G09G06G01G02G05G30G14
  22236042.216    22236040.0034  116851223.90248  91052906.31046      2315.85248
      1804.57346
  25394533.876    25394537.8464  133449166.35947 103986316.64246     -3811.97247
     -2970.47546
  20224901.832    20224899.4964  106282647.43749  82817630.56346       420.09449
       327.34846
  22804686.019    22804685.4294  119839460.01748  93381379.62246      -591.70348
      -461.06846
  23099445.733    23099441.6894  121388430.56348  94588400.29546     -1442.91848
     -1124.33646
  22635505.159    22635503.2534  118950502.51848  92688757.63145     -2551.90648
     -1988.48245
  20318543.284    20318541.5074  106774809.09749  83201134.36746      -823.64949
      -641.80746
  23171807.043    23171808.4784  121768684.67548  94884700.94946     -2702.62248
     -2105.95746
 05  5 29  0 27  0.0000000  0  8G25G09G06G01G02G05G30G14
  22222854.654    22222852.8154  116781921.35148  90998904.35246      2304.38648
      1795.62146
  25416296.447    25416299.1384  133563535.99547 104075504.65244     -3812.72647
     -2970.87744
  20222546.334    20222544.5624  106270269.32949  82807985.30246       405.24049
       315.77046
  22808115.902    22808115.6324  119857489.26448  93395428.37546      -610.26648
      -475.53146
  23107738.487    23107734.0094  121432009.71948  94622358.11746     -1462.32148
     -1139.46046
  22650088.245    22650087.9764  119027140.18348  92748475.32746     -2557.34748
     -1992.73446
  20323275.968    20323274.0374  106799680.34249  83220514.57446      -834.32849
      -650.13146
  23187264.210    23187263.9854  121849912.60148  94947995.43545     -2712.33648
     -2113.49945
 05  5 29  0 27 30.0000000  0  8G25G09G06G01G02G05G30G14
  22209729.812    22209727.9914  116712949.52348  90945160.10046      2293.44548
      1787.08746
  25438062.233    25438062.6034  133677919.10047 104164614.38745     -3813.41647
     -2971.46445
  20220273.183    20220271.2454  106258324.78349  82798677.87846       390.73649
       304.47546
  22811651.099    22811649.7644  119876063.78848  93409902.04546      -628.28948
      -489.55946
  23116138.950    23116134.7334  121476150.92548  94656753.88245     -1481.14848
     -1154.14845
  22664701.781    22664700.0574  119103933.04048  92808313.93046     -2562.35448
     -1996.62946
  20328067.204    20328064.9884  106824857.93749  83240133.48246      -844.54349
      -658.09046
  23202775.400    23202772.6224  121931423.08448  95011510.01145     -2722.02848
     -2121.09545
 05  5 29  0 28  0.0000000  0  8G25G09G06G01G02G05G30G14
  22196668.704    22196667.1584  116644314.20448  90891678.06046      2282.14448
      1778.28946
  25459831.962    25459834.5964  133792317.62547 104253752.20542     -3812.87547
     -2971.05742
  20218083.485    20218080.7634  106246817.12249  82789710.89346       376.27449
       293.20446
  22815290.522    22815289.4164  119895185.94748  93424802.45846      -646.58748
      -503.85646
  23124645.607    23124641.8044  121520856.63948  94691589.54946     -1499.64548
     -1168.54246
  22679345.394    22679343.8034  119180884.35348  92868276.01946     -2567.62948
     -2000.74146
  20332917.024    20332915.1774  106850345.54549  83259993.97346      -854.66949
      -665.97346
  23218339.554    23218337.2964  122013216.83648  95075245.39745     -2731.29648
     -2128.27945
 05  5 29  0 28 30.0000000  0  8G25G09G06G01G02G05G30G14
  22183672.275    22183670.9074  116576019.17748  90838461.21446      2270.67748
      1769.35846
  25481604.985    25481606.5344  133906731.38747 104342929.91755     -3814.41947
     -2972.42555
  20215976.896    20215974.7674  106235747.23549  82781085.01946       361.70349
       281.84846
  22819032.901    22819033.4034  119914856.08548  93440129.81646      -664.80248
      -518.05746
  23133260.332    23133256.6984  121566126.69648  94726864.93146     -1518.76348
     -1183.45846
  22694019.331    22694018.1604  119257995.31048  92928362.49246     -2573.13648
     -2005.05146
  20337826.503    20337824.5594  106876144.67649  83280097.19446      -865.26349
      -674.23346
  23233957.764    23233956.9594  122095292.28048  95139200.22345     -2740.70048
     -2135.60345
 05  5 29  0 29  0.0000000  0  8G25G09G06G01G02G05G30G14
  22170741.873    22170740.0414  116508067.03148  90785511.52946      2259.21748
      1760.42446
  25503379.185                   134021158.37447                     -3814.84647

  20213953.492    20213950.9994  106225114.60249  82772799.87546       347.07149
       270.44446
  22822879.941    22822880.2034  119935073.09048  93455883.30946      -683.15848
      -532.34046
  23141981.868    23141977.7124  121611960.01348  94762579.22846     -1537.25948
     -1197.84146
  22708723.182    22708720.9674  119335265.71148  92988573.17746     -2578.42548
     -2009.15946
  20342795.169    20342793.3834  106902255.21749  83300443.09146      -875.60049
      -682.29546
  23249629.723    23249628.0584  122177646.14348  95203372.04246     -2749.80548
     -2142.66746
 05  5 29  0 29 30.0000000  0  8G25G09G06G01G02G05G30G14
  22157875.919    22157875.0464  116440458.66348  90732829.71246      2247.84548
      1751.56646
  25525154.862    25525152.1844  134135593.12357 104521229.93956     -3815.39957
     -2973.22056
  20212013.072    20212010.8444  106214917.78049  82764854.32346       332.62349
       259.18546
  22826830.502    22826830.1014  119955834.82248  93472061.30846      -701.04548
      -546.24246
  23150810.499    23150806.7724  121658353.76248  94798730.23746     -1555.68348
     -1212.22646
  22723457.453    22723454.4584  119412694.12448  93048907.05046     -2583.71248
     -2013.27046
  20347822.951    20347820.6774  106928676.10849  83321030.80646      -885.92549
      -690.32946
  23265353.104    23265351.6474  122260274.58548  95267757.76445     -2758.74348
     -2149.65045
 05  5 29  0 30  0.0000000  0  8G25G09G06G01G02G05G30G14
  22145075.471    22145074.0804  116373193.58148  90680415.41446      2236.85248
      1743.00246
  25546933.887    25546934.7894  134250035.34447 104610431.30046     -3814.90347
     -2972.70746
  20210154.903    20210152.8544  106205153.48249  82757245.80447       318.64449
       248.29147
  22830885.026    22830884.2714  119977137.45748  93488660.79645      -718.59448
      -559.92945
  23159744.652    23159741.0854  121705303.94748  94835314.81346     -1573.76448
     -1226.31746
  22738221.145    22738220.2014  119490277.43048  93109361.57446     -2588.33048
     -2016.87846
  20352909.090    20352907.3144  106955404.85849  83341858.41646      -895.74749
      -697.98246
  23281128.491    23281127.9504  122343171.93348  95332353.09046     -2767.21748
     -2156.26546
 05  5 29  0 30 30.0000000  0  8G25G09G06G01G02G05G30G14
  22132341.175    22132338.9544  116306269.16548  90628266.54146      2224.96548
      1733.72446
  25568712.952    25568714.1374  134364479.21647 104699545.25445     -3814.59447
     -2972.51345
  20208378.004    20208375.8744  106195815.96149  82749969.83546       304.11249
       236.97046
  22835040.585    22835038.8454  119998974.48748  93505676.67546      -737.05648
      -574.33146
  23168783.334    23168778.8944  121752803.98648  94872327.87546     -1592.45348
     -1240.84946
  22753013.369    22753011.0914  119568010.09048  93169932.50846     -2593.74448
     -2021.10046
  20358053.311    20358051.5854  106982436.05649  83362921.69146      -906.26449
      -706.17746
  23296952.985    23296949.7034  122426329.47048  95397151.10143     -2776.48648
     -2163.49843
 05  5 29  0 31  0.0000000  0  8G25G09G06G01G02G05G30G14
  22119672.087    22119670.0814  116239695.44348  90576390.95046      2213.24448
      1724.62846
  25590491.609    25590492.8484  134478928.94547 104788779.90842     -3815.08447
     -2972.75642
  20206683.591    20206681.7204  106186912.79049  82743032.32746       289.47849
       225.56546
  22839299.020    22839297.9844  120021352.58148  93523114.12846      -754.64448
      -588.04546
  23177928.367    23177924.1154  121800860.65748  94909774.62346     -1611.18048
     -1255.46946
  22767835.226    22767833.1264  119645899.80448  93230625.80846     -2598.81748
     -2025.05046
  20363256.118    20363253.8164  107009777.86049  83384227.00646      -916.62549
      -714.25646
  23312827.541    23312826.1594  122509752.24648  95462155.81944     -2785.10848
     -2170.16144
 05  5 29  0 31 30.0000000  0  8G25G09G06G01G02G05G30G14
  22107072.025    22107069.4014  116173478.98148  90524793.73846      2201.27648
      1715.28646
  25612272.268    25612273.2844  134593387.25047 104877976.60256     -3815.10247
     -2973.08356
  20205072.856    20205070.8404  106178447.89049  82736436.32446       274.98149
       214.28146
  22843660.535    22843659.8194  120044275.12148  93540975.86046      -773.15348
      -602.48446
  23187179.665    23187176.2024  121849476.95148  94947657.45546     -1629.89148
     -1270.02346
  22782687.724    22782684.8414  119723950.67748  93291444.66646     -2604.31348
     -2029.33946
  20368518.918    20368516.8214  107037434.60849  83405777.73046      -927.07749
      -722.40046
  23328752.931    23328752.1234  122593441.89548  95527368.52445     -2793.54248
     -2176.80945
 05  5 29  0 32  0.0000000  0  8G25G09G06G01G02G05G30G14
  22094538.862    22094536.6534  116107618.88148  90473474.21246      2189.39048
      1706.03746
  25634053.546                   134707848.82547                     -3815.44847

  20203544.753    20203542.7064  106170417.02249  82730178.53246       260.41049
       202.91446
  22848125.621    22848124.1984  120067737.10948  93559257.95646      -790.85248
      -616.23146
  23196536.329    23196531.0424  121898647.64948  94985972.29946     -1648.14648
     -1284.28546
  22797570.185    22797568.3104  119802158.74848  93352386.02846     -2609.61548
     -2033.45346
  20373841.477    20373839.1344  107065402.81049  83427571.14446      -937.46549
      -730.49846
  23344728.703    23344727.0254  122677391.40048  95592783.67745     -2802.79748
     -2183.99045
 05  5 29  0 32 30.0000000  0  8G25G09G06G01G02G05G30G14
  22082074.547    22082071.7754  116042117.49648  90422434.20646      2177.39148
      1696.67046
  25655834.945    25655835.9504  134822324.32647 105056342.69245     -3815.33847
     -2973.03845
  20202099.186    20202097.0964  106162819.96449  82724258.78146       246.08649
       191.76046
  22852691.615    22852692.0424  120091737.55348  93577959.61046      -808.93748
      -630.36646
  23205998.615    23205994.9294  121948371.35248  95024718.05146     -1666.56948
     -1298.61646
  22812481.850    22812479.9374  119880523.90448  93413449.81946     -2614.82548
     -2037.53446
  20379222.831    20379220.5214  107093682.79649  83449607.50946      -947.81449
      -738.54946
  23360752.478    23360750.5874  122761598.07548  95658399.18046     -2811.30948
     -2190.62646
 05  5 29  0 33  0.0000000  0  8G25G09G06G01G02G05G30G14
  22069677.068    22069674.8374  115976969.50448  90371669.55846      2165.62048
      1687.49446
  25677614.223    25677617.0884  134936770.68647 105145548.63052     -3814.46547
     -2972.24352
  20200734.317    20200732.3224  106155648.79849  82718670.87946       231.95749
       180.72346
  22857360.516    22857359.3774  120116267.56148  93597073.90846      -826.59648
      -644.08746
  23215563.260    23215559.4344  121998639.08748  95063887.67046     -1684.40348
     -1312.52746
  22827423.481    22827421.6674  119959038.47148  93474629.99945     -2619.62648
     -2041.27045
  20384662.232    20384659.9054  107122266.94249  83471880.88847      -957.76849
      -746.30947
  23376822.304    23376821.3744  122846051.58148  95724207.13146     -2819.55348
     -2197.02446
 05  5 29  0 33 30.0000000  0  8G25G09G06G01G02G05G30G14
  22057347.110    22057344.8164  115912178.06448  90321182.75346      2153.54348
      1678.08046
  25699394.274    25699397.0464  135051219.20547 105234728.55345     -3814.67647
     -2972.40145
  20199450.749    20199448.7124  106148903.33649  82713414.70846       217.55749
       169.53046
  22862128.841    22862128.3224  120141326.54748  93616600.38346      -844.24848
      -657.85746
  23225232.307    23225227.2524  122049449.99748  95103480.62546     -1702.93548
     -1326.95446
  22842391.918    22842389.9344  120037702.78148  93535926.90046     -2624.78048
     -2045.30646
  20390159.484    20390157.4824  107151155.98449  83494391.83546      -968.24349
      -754.47446
  23392940.300    23392938.9854  122930749.14548  95790205.12046     -2827.83248
     -2203.46446
 05  5 29  0 34  0.0000000  0  8G25G09G06G01G02G05G30G14
  22045087.705    22045084.4974  115847751.11148  90270979.96746      2141.52548
      1668.72946
  25721171.004    25721173.1944  135165663.71247 105323903.57355     -3814.68647
     -2972.31755
  20198249.363    20198247.2414  106142589.03349  82708494.50046       203.50149
       158.57546
  22866999.080    22866998.1064  120166918.78048  93636542.39646      -861.81148
      -671.51646
  23235006.384    23235001.1604  122100808.41148  95143500.18346     -1721.12748
     -1341.14846
  22857391.673    22857389.1434  120116522.25848  93597344.65846     -2629.84348
     -2049.23346
  20395716.209    20395714.2344  107180355.76149  83517144.92146      -978.46149
      -762.43746
  23409104.999    23409100.9214  123015693.74948  95856395.76142     -2835.56048
     -2209.53342
 05  5 29  0 34 30.0000000  0  8G25G09G06G01G02G05G30G14
  22032896.685    22032893.7434  115783688.62948  90221061.16846      2129.25248
      1659.16146
  25742945.807                   135280094.38547                     -3815.03247

  20197129.066    20197126.9854  106136702.67149  82703907.75946       188.87749
       147.18246
  22871968.758    22871968.9274  120193040.48548  93656896.96146      -879.86148
      -685.72146
  23244882.517    23244878.1834  122152710.41948  95183943.29646     -1739.13348
     -1355.17346
  22872418.676    22872417.1084  120195494.14748  93658881.15746     -2635.16748
     -2053.36446
  20401331.346    20401329.0924  107209863.82149  83540138.21646      -988.92449
      -770.58646
  23425315.227    23425314.6434  123100879.78448  95922774.39746     -2843.61548
     -2215.79746
 05  5 29  0 35  0.0000000  0  8G25G09G06G01G02G05G30G14
  22020776.044    22020773.9704  115719993.65148  90171428.73346      2117.08548
      1649.67346
  25764722.342    25764724.7564  135394534.92347 105502240.03256     -3814.66047
     -2972.66156
  20196090.329    20196087.8984  106131244.49849  82699654.65546       174.66849
       136.10346
  22877040.548    22877040.7424  120219691.04148  93677663.64646      -897.30548
      -699.18846
  23254862.763    23254858.8014  122205154.99548  95224809.23146     -1757.40348
     -1369.42646
