     2.11           OBSERVATION DATA    G (GPS)             RINEX VERSION / TYPE
teqc  2008Oct2                          20100319 00:14:00UTCPGM / RUN BY / DATE
MSXP|IAx86-PII|bcc32 5.0|MSWin95->XP|486/DX+                COMMENT
teqc  2008Oct2      ICC                 20100319 00:12:29UTCCOMMENT
BIT 2 OF LLI FLAGS DATA COLLECTED UNDER A/S CONDITION       COMMENT
CREU                                                        MARKER NAME
13432M001                                                   MARKER NUMBER
ICC                 ICC                                     OBSERVER / AGENCY
4536257121          TRIMBLE NETRS       1.15                REC # / TYPE / VERS
12422774            TRM41249.00     NONE                    ANT # / TYPE
  4715420.3054   273177.8809  4271946.7957                  APPROX POSITION XYZ
        0.0540        0.0000        0.0000                  ANTENNA: DELTA H/E/N
     1     1                                                WAVELENGTH FACT L1/2
     4    L1    L2    C1    P2                              # / TYPES OF OBSERV
    30.0000                                                 INTERVAL
coordenades ajust ICC 2006.0                                COMMENT
 SNR is mapped to RINEX snr flag value [0-9]                COMMENT
  L1 & L2: min(max(int(snr_dBHz/6), 0), 9)                  COMMENT
teqc windowed: start @ 2010 Mar 18 00:00:00.000             COMMENT
teqc windowed: delta = 86399.999 sec                        COMMENT
Forced Modulo Decimation to 30 seconds                      COMMENT
  2010     3    18     0     0    0.0000000     GPS         TIME OF FIRST OBS
                                                            END OF HEADER
 10  3 18  0  0  0.0000000  0  9G26G31G 2G14G27G 9G12G30G29
   2106673.45846   1662832.08043  25103237.6724   25103233.1954
 -13372121.13247 -10400505.85645  22686299.8624   22686293.8974
 -12189134.66047  -9482038.68145  22882754.1674   22882746.9654
 -15878482.49947 -12359973.53444  22304778.8134   22304773.3574
  -1883565.94145  -1452090.74642  24638733.0164   24638728.7944
  -2187102.82246  -1696896.72242  24829952.8324   24829948.4604
 -17682593.09348 -13755838.32545  21761480.3354   21761475.3004
 -26985941.11348 -21008946.12046  20037007.7804   20037002.7264
 -23628749.85448 -18395213.71246  20540049.3964   20540044.3374
 10  3 18  0  0 30.0000000  0  9G26G31G 2G14G27G 9G12G30G29
   2220720.05446   1751699.26643  25124939.6374   25124935.7744
 -13455658.72447 -10465600.07345  22670403.0974   22670397.6454
 -12181934.65647  -9476428.27245  22884124.3584   22884117.1904
 -15818049.73747 -12312883.08244  22316279.2484   22316273.3924
  -1784205.58246  -1374667.18242  24657641.1334   24657636.1214
  -2067976.98645  -1604071.42342  24852621.4054   24852617.2514
 -17624393.79648 -13710488.23845  21772555.5664   21772549.7444
 -26975592.46548 -21000882.23746  20038976.9344   20038972.1454
 -23669329.55548 -18426834.25246  20532327.3544   20532322.6794
 10  3 18  0  1  0.0000000  0  9G26G31G 2G14G27G 9G12G30G29
   2334680.49546   1840499.39143  25146624.6514   25146621.4974
 -13538962.94847 -10530512.44145  22654550.7104   22654545.1184
 -12174180.92547  -9470386.40345  22885599.8914   22885592.5694
 -15757156.70147 -12265433.96644  22327867.6304   22327861.3564
  -1684706.35946  -1297135.34143  24676574.4754   24676570.9604
  -1948785.02446  -1511194.59742  24875303.7144   24875299.0234
 -17566013.13147 -13664996.81845  21783664.4774   21783659.2164
 -26964901.29848 -20992551.46346  20041011.4014   20041006.2264
 -23709424.92448 -18458077.38946  20524697.4164   20524692.3614
 10  3 18  0  1 30.0000000  0  9G26G31G 2G14G27G 9G12G30G29
   2448552.48446   1929230.50543  25168294.3344   25168290.6114
 -13622031.07647 -10595240.83545  22638743.4714   22638738.0144
 -12165872.86847  -9463912.58345  22887181.1354   22887174.3114
 -15695805.35947 -12217627.73644  22339540.6614   22339535.6084
  -1585069.31846  -1219496.19043  24695534.9294   24695531.5384
  -1829528.26746  -1418267.31742  24897997.4784   24897992.9894
 -17507451.06248 -13619364.05445  21794808.5604   21794803.1484
 -26953867.16448 -20983953.43846  20043111.0294   20043105.8234
 -23749035.01048 -18488942.38046  20517159.7184   20517155.0184
 10  3 18  0  2  0.0000000  0  9G26G31G 2G14G27G 9G12G30G29
   2562333.50645   2017890.76442  25189946.6324   25189943.3494
 -13704860.36847 -10659783.14745  22622982.3844   22622975.6934
 -12157010.69647  -9457006.98145  22888866.7654   22888860.4704
 -15633998.48847 -12169466.55644  22351302.5734   22351297.4544
  -1485296.22945  -1141751.02342  24714521.0604   24714517.1254
  -1710208.70146  -1325291.03242  24920703.0234   24920699.5964
 -17448708.53948 -13573590.67645  21805987.0874   21805982.0234
 -26942490.01348 -20975088.13546  20045276.3324   20045270.9504
 -23788159.49748 -18519428.99246  20509714.8414   20509709.4784
 10  3 18  0  2 30.0000000  0  9G26G31G 2G14G27G 9G12G30G29
   2676020.20745   2106477.50342  25211579.9184   25211577.5994
 -13787449.28147 -10724138.13945  22607265.8874   22607259.2034
 -12147594.49447  -9449669.66945  22890658.4114   22890651.9274
 -15571739.57847 -12120953.12645  22363149.8894   22363144.6044
  -1385389.39345  -1063901.57542  24733533.4104   24733528.4384
  -1590828.59246  -1232267.60742  24943420.7744   24943415.7564
 -17389785.74748 -13527676.81346  21817199.7794   21817194.6504
 -26930770.64448 -20965956.16046  20047506.4024   20047501.5714
 -23826798.79648 -18549537.53046  20502361.9394   20502357.2224
 10  3 18  0  3  0.0000000  0  9G26G31G 2G14G27G 9G12G30G29
   2789610.36945   2194988.96742  25233195.9024   25233193.1044
 -13869795.06147 -10788303.68445  22591595.4394   22591588.9374
 -12137624.56647  -9441900.88745  22892556.1414   22892549.1764
 -15509030.70447 -12072089.08244  22375082.9704   22375077.2044
  -1285350.09045   -985948.98142  24752569.6324   24752565.5654
  -1471389.79146  -1139198.41543  24966148.6814   24966143.4544
 -17330683.17848 -13481622.86846  21828446.7604   21828441.4144
 -26918708.50648 -20956557.09546  20049801.6574   20049796.8184
 -23864952.12848 -18579267.39146  20495101.5324   20495096.8364
 10  3 18  0  3 30.0000000  0  9G26G31G 2G14G27G 9G12G30G29
   2903101.66745   2283423.33242  25254793.0444   25254789.5544
 -13951895.57047 -10852278.10845  22575972.3624   22575966.0134
 -12127100.41247  -9433700.24245  22894559.3264   22894552.0264
 -15445874.13947 -12022876.17144  22387101.0574   22387096.4164
  -1185180.09246   -907894.55542  24771632.2684   24771627.1714
  -1351893.84446  -1046084.77042  24988887.9954   24988883.2314
 -17271401.16848 -13435429.10646  21839727.5614   21839722.0244
 -26906303.78748 -20946891.08446  20052162.3544   20052156.8534
 -23902618.76948 -18608618.01046  20487934.0104   20487928.9204
 10  3 18  0  4  0.0000000  0  9G26G31G 2G14G27G 9G12G30G29
   3016491.41646   2371778.68942  25276371.0604   25276367.1204
 -14033748.72447 -10916059.78045  22560396.2724   22560389.9274
 -12116022.10747  -9425067.79345  22896667.1914   22896660.0214
 -15382272.71747 -11973316.64344  22399204.5374   22399198.7364
  -1084881.26046   -829739.74442  24790718.4144   24790713.8294
  -1232342.94846   -952928.32542  25011638.2204   25011633.6724
 -17211939.74248 -13389095.53745  21851042.8254   21851037.2804
 -26893556.63948 -20936958.24246  20054588.0814   20054582.9954
 -23939798.87348 -18637589.52446  20480858.9444   20480853.8224
 10  3 18  0  4 30.0000000  0  9G26G31G 2G14G27G 9G12G30G29
   3129776.75046   2460052.64842  25297928.2274   25297925.6934
 -14115352.02347 -10979646.76745  22544867.5334   22544861.8694
 -12104389.85747  -9416003.70245  22898880.4534   22898873.2014
 -15318229.20147 -11923412.61944  22411391.4514   22411385.9624
   -984454.91646   -751485.57542  24809829.5344   24809825.3764
  -1112738.43246   -859730.03543  25034398.9204   25034393.9344
 -17152299.59848 -13342622.71645  21862391.7974   21862386.3784
 -26880466.86048 -20926758.41146  20057078.8984   20057073.6794
 -23976492.17248 -18666181.69446  20473876.5444   20473871.5204
 10  3 18  0  5  0.0000000  0  9G26G31G 2G14G27G 9G12G30G29
   3242955.55445   2548243.55742  25319465.4554   25319463.1614
 -14196703.03847 -11043037.15645  22529387.0944   22529381.4264
 -12092203.56547  -9406507.88145  22901199.5994   22901192.6104
 -15253746.10747 -11873166.04744  22423661.7824   22423656.5894
   -883902.55745   -673133.24742  24828963.4634   24828959.4984
   -993082.39345   -766491.59342  25057168.7054   25057163.7094
 -17092481.03648 -13296010.86046  21873775.1354   21873769.6984
 -26867034.32248 -20916291.51346  20059635.1134   20059630.0894
 -24012697.89848 -18694393.93746  20466986.5274   20466981.5614
 10  3 18  0  5 30.0000000  0  9G26G31G 2G14G27G 9G12G30G29
   3356024.59346   2636348.97342  25340983.6674   25340978.8674
 -14277800.13647 -11106229.69445  22513954.7494   22513949.0794
 -12079464.01747  -9396580.94745  22903624.1804   22903616.6034
 -15188826.60147 -11822579.42544  22436015.7254   22436010.8274
   -783226.54445   -594684.49742  24848120.6714   24848116.9914
   -873377.61746   -673215.28142  25079947.6104   25079942.7744
 -17032484.89048 -13249260.64245  21885191.9644   21885186.9014
 -26853259.90048 -20905558.19546  20062256.6564   20062251.4504
 -24048416.66848 -18722226.73746  20460189.4884   20460184.6904
 10  3 18  0  6  0.0000000  0  9G26G31G 2G14G27G 9G12G30G29
   3468981.71646   2724367.17242  25362478.6724   25362474.5754
 -14358640.46447 -11169222.14145  22498571.2594   22498565.6874
 -12066170.72547  -9386222.53045  22906153.8284   22906146.8864
 -15123473.13447 -11771654.64944  22448452.0524   22448447.5454
   -682428.19846   -516140.56242  24867303.3384   24867298.3444
   -753625.24745   -579901.82142  25102733.7144   25102729.9434
 -16972311.41048 -13202372.22246  21896642.7194   21896637.3934
 -26839143.18848 -20894558.16746  20064942.5564   20064937.5994
 -24083647.86348 -18749679.60846  20453485.0214   20453480.0044
 10  3 18  0  6 30.0000000  0  9G26G31G 2G14G27G 9G12G30G29
   3581824.36446   2812296.15042  25383951.5234   25383948.7774
 -14439221.88447 -11232012.85145  22483237.0484   22483230.7974
 -12052324.04247  -9375432.89845  22908788.1214   22908781.1404
 -15057688.33247 -11720393.78544  22460971.1344   22460965.5864
   -581509.19746   -437502.56742  24886507.3574   24886502.5154
   -633827.13646   -486552.75542  25125532.0784   25125527.5714
 -16911960.89048 -13155345.84445  21908126.9354   21908121.7474
 -26824684.26747 -20883291.47746  20067694.1154   20067689.1914
 -24118391.40048 -18776752.48946  20446873.7124   20446868.7134
 10  3 18  0  7  0.0000000  0  9G26G31G 2G14G27G 9G12G30G29
   3694549.96846   2900133.97042  25405402.3664   25405400.1134
 -14519542.28647 -11294600.17345  22467952.8674   22467946.6384
 -12037924.06247  -9364212.11845  22911528.3564   22911521.4274
 -14991475.18747 -11668799.11844  22473570.6194   22473565.3744
   -480470.96346   -358771.65142  24905732.9614   24905730.3944
   -513985.26146   -393169.55842  25148337.8214   25148333.5254
 -16851433.30548 -13108181.49545  21919645.1914   21919640.0184
 -26809883.19147 -20871758.17246  20070510.3694   20070505.4324
 -24152646.91548 -18803445.08847  20440355.0084   20440350.0754
 10  3 18  0  7 30.0000000  0  9G26G31G 2G14G27G 9G12G30G29
   3807155.85746   2987878.41342  25426830.8104   25426828.4274
 -14599599.21147 -11356982.19745  22452718.2594   22452711.9234
 -12022970.90747  -9352560.30645  22914373.9934   22914366.9744
 -14924836.21147 -11616872.66144  22486251.9504   22486246.5144
   -379315.60546   -279949.46942  24924984.4784   24924980.5664
   -394101.29646   -299753.59042  25171150.8634   25171146.9254
 -16790729.26347 -13060879.67245  21931196.6854   21931191.7274
 -26794740.28348 -20859958.50246  20073392.2464   20073387.5444
 -24186414.29748 -18829757.32946  20433929.3284   20433924.6334
 10  3 18  0  8  0.0000000  0  9G26G31G 2G14G27G 9G12G30G29
   3919639.51546   3075527.66542  25448237.5414   25448233.8954
 -14679390.51647 -11419157.23545  22437534.4374   22437528.1694
 -12007464.88547  -9340477.69345  22917324.8144   22917317.9974
 -14857774.56047 -11564616.83244  22499012.8634   22499007.8484
   -278044.82545   -201037.41542  24944254.6424   24944251.4734
   -274177.38745   -206306.47242  25193970.2604   25193966.3304
 -16729849.47548 -13013440.87645  21942781.8264   21942776.4524
 -26779255.38747 -20847892.36346  20076338.9234   20076333.9844
 -24219693.50848 -18855689.17946  20427596.4144   20427591.7554
 10  3 18  0  8 30.0000000  0  9G26G31G 2G14G27G 9G12G30G29
   4031998.88246   3163080.01042  25469618.0824   25469615.9654
 -14758913.76047 -11481123.39645  22422402.0704   22422395.7354
 -11991405.84247  -9327964.14745  22920380.4594   22920373.4884
 -14790292.28147 -11512033.24644  22511855.1134   22511849.0434
   -176659.92246   -122036.32643  24963548.8424   24963543.6514
   -154215.04145   -112829.40742  25216798.7344   25216794.1764
 -16668793.61548 -12965864.89745  21954399.8924   21954394.8804
 -26763428.07547 -20835559.39346  20079350.5544   20079345.9664
 -24252484.04948 -18881240.24146  20421357.0234   20421351.7734
 10  3 18  0  9  0.0000000  0  9G26G31G 2G14G27G 9G12G30G29
   4144231.13046   3250533.25542  25490975.8424   25490973.4844
 -14838166.51847 -11542878.79245  22407320.3964   22407314.3364
 -11974794.16847  -9315019.97045  22923541.6654   22923534.3094
 -14722392.39947 -11459124.25644  22524775.7034   22524769.9494
    -75162.89246    -42947.93542  24982863.2744   24982857.8954
    -34216.31645    -19324.14342  25239633.9554   25239630.5604
 -16607562.30447 -12918152.19745  21966052.0294   21966046.4834
 -26747258.91147 -20822960.05046  20082427.6674   20082422.6044
 -24284785.68248 -18906410.33646  20415209.8284   20415204.7814
 10  3 18  0  9 30.0000000  0  9G26G31G 2G14G27G 9G12G30G29
   4256333.50346   3337885.31442  25512309.4654   25512305.7794
 -14917146.92047 -11604421.96245  22392291.2554   22392284.9704
 -11957630.83747  -9301645.94845  22926807.9634   22926801.0624
 -14654078.11047 -11405892.34744  22537775.6764   22537769.4884
     26444.36646     36226.34442  25002198.2114   25002193.4644
     85816.57946     74207.87042  25262477.4374   25262472.0044
 -16546156.38748 -12870303.44945  21977737.0954   21977731.8774
 -26730748.20248 -20810094.56146  20085569.5004   20085564.4194
 -24316599.11148 -18931200.01246  20409156.1404   20409151.1584
 10  3 18  0 10  0.0000000  0  8G26G31G 2G14G 9G12G30G29
   4368305.35745   3425135.69142  25533616.7484   25533613.1234
 -14995850.88947 -11665749.72745  22377314.1654   22377308.1954
 -11939914.16347  -9287840.74145  22930179.4174   22930172.4534
 -14585350.39647 -11352338.29144  22550854.1464   22550848.1714
    205883.85646    167766.60942  25285325.7254   25285320.2434
 -16484574.21648 -12822317.34845  21989456.4374   21989450.9094
 -26713894.20048 -20796961.58246  20088776.4024   20088771.9304
 -24347921.99748 -18955607.45246  20403195.2054   20403190.6084
 10  3 18  0 10 30.0000000  0  8G26G31G 2G14G 9G12G30G29
   4480141.21345   3512280.04842  25554895.4634   25554894.4704
 -15074279.28547 -11726862.75045  22362389.4984   22362383.9614
 -11921647.41647  -9273606.90145  22933655.5064   22933648.8104
 -14516215.13647 -11298466.67044  22564008.9484   22564003.8024
    325980.16745    261347.99242  25308177.2374   25308174.9134
 -16422819.51548 -12774196.80645  22001207.1554   22001202.2524
 -26696700.11148 -20783563.59246  20092048.4854   20092043.6194
 -24378757.74548 -18979635.29947  20397327.5984   20397322.5534
 10  3 18  0 11  0.0000000  0  8G26G31G 2G14G 9G12G30G29
   4591839.91646   3599317.56842  25576151.6044   25576150.6504
 -15152428.24048 -11787758.03345  22347518.5034   22347512.6444
 -11902829.63447  -9258943.68445  22937235.8264   22937229.5284
 -14446673.99547 -11244278.77244  22577242.9574   22577237.7954
    446105.32946    354951.83842  25331037.9044   25331033.3654
 -16360891.54247 -12725941.26545  22012991.9534   22012986.6754
 -26679164.66648 -20769899.61146  20095385.4924   20095380.5614
 -24409104.87648 -19003282.40447  20391552.7424   20391547.7794
 10  3 18  0 11 30.0000000  0  8G26G31G 2G14G 9G12G30G29
   4703398.81146   3686246.11142  25597384.4044   25597382.4224
 -15230295.39948 -11848433.73145  22332700.7624   22332695.0784
 -11883461.03747  -9243851.26545  22940921.9414   22940914.8864
 -14376729.45847 -11189776.54744  22590552.7624   22590547.5614
    566257.80946    448576.90642  25353903.1424   25353897.8314
 -16298789.40947 -12677550.00645  22024809.3474   22024804.4424
 -26661287.58948 -20755969.42446  20098787.1874   20098782.2124
 -24438962.78548 -19026548.30847  20385870.6944   20385865.6174
 10  3 18  0 12  0.0000000  0  9G26G31G 2G14G24G 9G12G30G29
   4814815.67946   3773064.01542  25618585.8564   25618584.2424
 -15307878.80648 -11908888.33645  22317937.2574   22317931.4854
 -11863542.34847  -9228330.20245  22944712.0244   22944705.2534
 -14306384.85447 -11134962.57044  22603938.7144   22603933.5904
    585633.87245                  24962357.4574
    686434.90346    542221.29742  25376770.7804   25376764.4474
 -16236514.45447 -12629024.08145  22036660.3394   22036654.7394
 -26643069.56248 -20741773.56646  20102253.8834   20102248.8864
 -24468332.10248 -19049433.47147  20380282.1954   20380277.1634
 10  3 18  0 12 30.0000000  0  9G26G31G 2G14G24G 9G12G30G29
   4926086.82145   3859768.26542  25639760.5024   25639757.8124
 -15385177.01547 -11969120.70545  22303227.5654   22303221.8744
 -11843074.77247  -9212381.44345  22948607.3004   22948599.9804
 -14235643.66447 -11079839.57944  22617400.5174   22617395.7184
    477394.50945                  24941757.7884
    806633.98846    635882.76442  25399644.5984   25399639.6854
 -16174067.84347 -12580364.38845  22048543.4294   22048538.0904
 -26624511.30348 -20727312.59346  20105785.6364   20105780.4224
 -24497213.61848 -19071938.55046  20374786.2354   20374781.4514
 10  3 18  0 13  0.0000000  0  9G26G31G 2G14G24G 9G12G30G29
   5037212.23245   3946359.11542  25660906.9414   25660905.0994
 -15462185.23247 -12029127.10745  22288574.0904   22288567.5694
 -11822056.48347  -9196003.55645  22952606.8784   22952599.7934
 -14164506.42447 -11024407.96944  22630938.0824   22630932.6324
    369072.71646                  24921146.3204
    926855.71345    729561.82342  25422521.3704   25422517.6094
 -16111447.43647 -12531569.26445  22060459.4124   22060454.1594
 -26605610.58148 -20712584.76346  20109382.3634   20109377.3704
 -24525604.93648 -19094061.64646  20369383.2344   20369378.5304
 10  3 18  0 13 30.0000000  0  8G26G31G 2G14G24G12G30G29
   5148186.83345   4032832.47342  25682024.3144   25682022.6744
 -15538904.18547 -12088908.09545  22273974.5414   22273968.3124
 -11800490.82847  -9179199.13845  22956710.7194   22956703.2634
 -14092979.20147 -10968672.47944  22644548.5714   22644543.9194
    260668.46746                  24900517.8934
 -16048656.78847 -12482641.48345  22072408.7024   22072403.0434
 -26586370.43148 -20697592.44846  20113043.8574   20113038.7834
 -24553508.92048 -19115805.00047  20364073.1564   20364068.7244
 10  3 18  0 14  0.0000000  0  7G31G 2G14G24G12G30G29
 -15615323.79347 -12148455.85245  22259432.7204   22259426.4454
 -11778370.36347  -9161962.41545  22960919.8084   22960912.7194
 -14021056.90747 -10912629.13444  22658235.7134   22658230.3004
    152191.94346                  24879874.8234
 -15985688.10447 -12433574.98745  22084390.8304   22084385.4104
 -26566783.00748 -20682329.52046  20116770.7204   20116765.8854
 -24580918.32548 -19137162.97947  20358857.5234   20358853.0614
 10  3 18  0 14 30.0000000  0  7G31G 2G14G24G12G30G29
 -15691451.51847 -12207776.15545  22244945.4534   22244939.9224
 -11755705.28847  -9144301.30745  22965232.9794   22965225.4684
 -13948752.41747 -10856287.97444  22671994.1184   22671988.7404
     43635.90346                  24859216.4484
 -15922551.68147 -12384377.79445  22096405.0604   22096400.1364
 -26546858.21448 -20666803.70746  20120562.3524   20120557.6364
 -24607842.06548 -19158142.50747  20353734.3514   20353729.3724
 10  3 18  0 15  0.0000000  0  7G31G 2G14G24G12G30G29
 -15767281.54148 -12266864.48045  22230515.5264   22230509.8804
 -11732493.22747  -9126213.96945  22969649.9384   22969642.6094
 -13876065.13547 -10799648.54544  22685825.9414   22685821.1714
    -64993.65046                  24838543.5774
 -15859244.33847 -12335047.41645  22108452.4724   22108447.2654
 -26526592.77148 -20651012.46446  20124418.8964   20124414.2134
 -24634277.47548 -19178741.52647  20348703.6064   20348698.8874
 10  3 18  0 15 30.0000000  0  7G31G 2G14G24G12G30G29
 -15842811.29147 -12325718.83145  22216143.0474   22216137.4914
 -11708734.06447  -9107700.33145  22974171.1554   22974164.4164
 -13802997.85047 -10742713.00044  22699730.2804   22699725.2754
   -173693.56646                  24817858.8944
 -15795766.57347 -12285584.24045  22120531.6094   22120527.1634
 -26505986.60148 -20634955.71446  20128340.1274   20128335.1854
 -24660224.32648 -19198959.83647  20343766.0644   20343761.2314
 10  3 18  0 16  0.0000000  0  7G31G 2G14G24G12G30G29
 -15918039.01247 -12384337.81845  22201827.5224   22201822.1224
 -11684428.70747  -9088761.08045  22978796.2314   22978789.4534
 -13729553.46847 -10685483.61444  22713706.3844   22713701.2234
   -282461.50846                  24797161.6794
 -15732118.29847 -12235988.19645  22132644.0224   22132638.4694
 -26485039.87548 -20618633.59346  20132325.7684   20132320.7714
 -24685682.93247 -19218797.71347  20338921.4334   20338916.7614
 10  3 18  0 16 30.0000000  0  7G31G 2G14G24G12G30G29
 -15992962.17148 -12442719.49445  22187570.3394   22187564.4034
 -11659577.67647  -9069396.64245  22983525.7534   22983518.8504
 -13655735.02547 -10627962.75444  22727753.4654   22727748.4184
   -391294.63446                  24776450.8304
 -15668300.00847 -12186259.67345  22144788.0674   22144782.5114
 -26463752.88048 -20602046.33046  20136376.9854   20136371.9294
 -24710653.38848 -19238255.20047  20334170.0684   20334165.4514
 10  3 18  0 17  0.0000000  0  7G31G 2G14G24G12G30G29
 -16067577.67748 -12500861.44945  22173371.2544   22173365.2634
 -11634181.36747  -9049607.29344  22988358.2894   22988351.1854
 -13581545.37547 -10570152.64944  22741871.9654   22741866.5104
   -500190.51746                  24755727.4864
 -15604311.98447 -12136398.89145  22156964.3544   22156959.1434
 -26442125.16948 -20585193.57246  20140492.7884   20140487.5194
 -24735135.49148 -19257332.15447  20329511.2704   20329506.0464
 10  3 18  0 17 30.0000000  0  8G21G31G 2G14G24G12G30G29
    612047.87645                  25327902.2964
 -16141883.67447 -12558762.23245  22159231.8464   22159225.0994
 -11608240.41147  -9029393.55245  22993294.5354   22993287.6824
 -13506986.97647 -10512055.21544  22756059.9944   22756054.5604
   -609146.66446                  24734993.2694
 -15540154.19547 -12086405.81445  22169173.3014   22169167.9934
 -26420156.87148 -20568075.42646  20144672.8294   20144668.1104
 -24759128.97148 -19276028.36547  20324945.0964   20324940.2124
 10  3 18  0 18  0.0000000  0  8G21G31G 2G14G24G12G30G29
    515443.55845                  25309522.7924
 -16215883.54548 -12616424.47245  22145149.6314   22145143.5974
 -11581760.72547  -9008760.01544  22998333.7434   22998326.6884
 -13432068.65147 -10453677.30644  22770315.6424   22770310.8654
   -718165.56146                  24714249.3604
 -15475832.66847 -12036285.16045  22181413.1424   22181408.1024
 -26397853.60348 -20550696.25846  20148917.1704   20148912.0674
 -24782640.01048 -19294348.65547  20320471.0964   20320466.3184
 10  3 18  0 18 30.0000000  0  8G21G31G 2G14G24G12G30G29
    418752.86045                  25291122.7974
 -16289564.51847 -12673838.20845  22131128.6694   22131122.4664
 -11554732.97247  -8987699.41844  23003476.7204   23003469.8334
 -13356783.31547 -10395013.42344  22784642.3494   22784637.1544
   -827234.24746                  24693492.9224
 -15411337.46947 -11986029.16945  22193686.6024   22193681.3184
 -26375205.42248 -20533048.32746  20153226.8004   20153221.5084
 -24805658.45148 -19312285.10347  20316091.0154   20316086.2354
 10  3 18  0 19  0.0000000  0  8G21G31G 2G14G24G12G30G29
    321973.48546                  25272706.5554
 -16362929.27448 -12731005.55245  22117167.9164   22117162.1024
 -11527163.22947  -8966216.50045  23008723.0664   23008715.9334
 -13281139.00047 -10336069.79644  22799037.3684   22799031.5964
   -936355.26746   -716653.67342  24672727.4754   24672725.0214
 -15346674.23047 -11935642.25245  22205991.2784   22205986.0494
 -26352217.65748 -20515135.78946  20157601.4084   20157596.8144
 -24828189.76948 -19329841.96247  20311803.2854   20311798.6494
 10  3 18  0 19 30.0000000  0  8G21G31G 2G14G24G12G30G29
    225107.80346                  25254271.1734
 -16435975.43148 -12787924.61845  22103267.7484   22103261.5234
 -11499051.60947  -8944311.33244  23014072.7024   23014065.4094
 -13205138.16747 -10276848.37344  22813499.7524   22813494.2854
  -1045525.40346   -801721.03742  24651953.1784   24651949.9644
 -15281842.49648 -11885124.03745  22218328.7224   22218322.8174
 -26328889.85148 -20496958.28746  20162040.4044   20162035.4674
 -24850233.61248 -19347018.98047  20307608.8954   20307603.1424
 10  3 18  0 20  0.0000000  0  8G21G31G 2G14G24G12G30G29
    128157.61045                  25235823.1494
 -16508701.19648 -12844594.05745  22089428.3354   22089422.5454
 -11470399.26247  -8921984.84145  23019524.7474   23019517.6564
 -13128784.64647 -10217352.12744  22828028.9794   22828023.9354
  -1154742.67046   -886825.10842  24631169.8184   24631166.1814
 -15216843.28148 -11834475.30045  22230697.8034   22230692.1354
 -26305222.59848 -20478516.27446  20166544.0574   20166538.7104
 -24871791.04448 -19363816.96847  20303506.3864   20303501.2954
 10  3 18  0 20 30.0000000  0  8G21G31G 2G14G24G12G30G29
     31124.86146                  25217358.1664
 -16581103.79148 -12901011.66445  22075650.8064   22075644.3814
 -11441206.63947  -8899237.33144  23025080.1694   23025072.2724
 -13052080.98247 -10157583.04944  22842625.1034   22842620.0994
  -1264003.88045   -971963.46442  24610376.4824   24610373.2214
 -15151676.64147 -11783696.11845  22243097.9974   22243092.7844
 -26281215.87848 -20459809.74646  20171112.6414   20171107.3154
 -24892861.69348 -19380235.64847  20299496.5984   20299491.7304
 10  3 18  0 21  0.0000000  0  8G21G31G 2G14G24G12G30G29
    -65988.39645                  25198877.9684
 -16653180.84748 -12957175.60745  22061934.8344   22061928.5254
 -11411474.58247  -8876069.49244  23030738.0474   23030730.2134
 -12975029.98947 -10097543.31044  22857287.8904   22857282.4434
  -1373306.31746  -1057133.99742  24589577.2824   24589574.2404
 -15086342.92448 -11732786.74545  22255530.6354   22255524.9754
 -26256869.30748 -20440838.40146  20175745.4304   20175740.8354
 -24913445.82648 -19396275.23047  20295579.5454   20295575.1424
 10  3 18  0 21 30.0000000  0  8G21G31G 2G14G24G12G30G29
   -163178.74946                  25180382.7204
 -16724929.94047 -13013083.98545  22048281.4364   22048275.3424
 -11381203.72347  -8852481.81544  23036498.2194   23036490.9124
 -12897634.78947 -10037235.37344  22872015.7114   22872010.2114
  -1482647.03046  -1142334.31543  24568770.8484   24568767.1904
 -15020842.32247 -11681747.32245  22267995.0444   22267989.4774
 -26232183.18748 -20421602.46446  20180443.2624   20180438.1024
 -24933543.34148 -19411935.62247  20291755.4664   20291750.2474
 10  3 18  0 22  0.0000000  0  8G21G31G 2G14G24G12G30G29
   -260444.31346                  25161873.8004
 -16796348.94048 -13068735.14545  22034691.1274   22034684.6174
 -11350394.83747  -8828474.88144  23042360.8994   23042353.3254
 -12819898.73347  -9976661.83744  22886808.2464   22886802.8484
  -1592023.61846  -1227562.59642  24547956.8314   24547953.6224
 -14955174.87747 -11630577.89645  22280491.3504   22280485.4704
 -26207157.53748 -20402101.96646  20185205.4774   20185200.5764
 -24953154.92248 -19427217.37147  20288023.3974   20288018.4544
 10  3 18  0 22 30.0000000  0  8G21G31G 2G14G24G12G30G29
   -357783.64846                  25143350.8574
 -16867436.21548 -13124127.82745  22021163.0944   22021157.2704
 -11319049.71347  -8804050.11344  23048325.4364   23048318.5974
 -12741825.05347  -9915825.20744  22901665.0934   22901660.0924
  -1701433.84046  -1312817.07442  24527136.2304   24527132.4814
 -14889341.73748 -11579279.35545  22293018.8074   22293013.2704
 -26181793.38748 -20382337.69246  20190032.2304   20190027.5414
 -24972281.77748 -19442121.41447  20284383.6024   20284378.4914
 10  3 18  0 23  0.0000000  0  8G21G31G 2G14G24G12G30G29
   -455194.20446                  25124814.4714
 -16938188.78448 -13179259.70045  22007699.7844   22007693.3474
 -11287168.82347  -8779207.84944  23054392.2274   23054385.6324
 -12663416.36747  -9854727.52844  22916585.6294   22916580.5154
  -1810874.66246  -1398095.45143  24506310.2444   24506306.6324
 -14823343.14247 -11527851.89245  22305578.1684   22305572.6274
 -26156090.20848 -20362309.25346  20194923.1394   20194918.4204
 -24990923.70948 -19456647.58247  20280835.8914   20280830.4944
 10  3 18  0 23 30.0000000  0  8G21G31G 2G14G24G12G30G29
   -552674.14346                  25106261.8574
 -17008604.50348 -13234129.09645  21994300.3304   21994294.0214
 -11254753.03847  -8753948.78744  23060561.3434   23060553.6954
 -12584676.53047  -9793371.82044  22931569.5514   22931564.0654
  -1920343.25446  -1483395.42042  24485479.3454   24485475.4384
 -14757178.97447 -11476295.41745  22318168.8174   22318163.5814
 -26130048.30848 -20342016.86646  20199878.9184   20199873.9724
 -25009080.97848 -19470796.10247  20277381.1694   20277375.9674
 10  3 18  0 24  0.0000000  0  8G21G31G 2G14G24G12G30G29
   -650220.55746                  25087700.8184
 -17078680.76748 -13288733.98045  21980965.1004   21980958.6764
 -11221802.81847  -8728273.28844  23066831.3184   23066824.5834
 -12505607.56147  -9731759.65544  22946616.0064   22946610.3824
  -2029836.53146  -1568714.72242  24464642.4364   24464639.5694
 -14690849.16347 -11424609.85645  22330790.5934   22330785.7154
 -26103667.52248 -20321460.41546  20204898.8294   20204894.0814
 -25026753.23748 -19484566.68747  20274017.7204   20274013.1254
 10  3 18  0 24 30.0000000  0  8G21G31G 2G14G24G12G30G29
   -747831.71746                  25069126.1944
 -17148415.69148 -13343072.88445  21967695.0154   21967689.0144
 -11188319.27047  -8702182.19544  23073202.7854   23073196.0064
 -12426213.02347  -9669893.79144  22961723.8564   22961718.3004
  -2139352.17246  -1654051.37542  24443802.3164   24443798.8234
 -14624354.24447 -11372795.64645  22343444.5504   22343439.1504
 -26076948.06948 -20300640.06546  20209983.5094   20209978.3724
 -25043941.57048 -19497960.18247  20270747.2124   20270742.4114
 10  3 18  0 25  0.0000000  0  8G21G31G 2G14G24G12G30G29
   -845505.15746                  25050538.8324
 -17217807.08348 -13397144.09946  21954490.0894   21954484.0464
 -11154303.48347  -8675676.40244  23079675.9364   23079668.8684
 -12346496.01847  -9607776.64444  22976893.9114   22976888.2394
  -2248887.34446  -1739403.29642  24422958.8034   24422954.6814
 -14557694.71747 -11320853.17345  22356129.0904   22356124.2484
 -26049890.65048 -20279556.37246  20215132.2754   20215126.9484
 -25060646.25848 -19510976.82247  20267568.2284   20267563.5914
 10  3 18  0 25 30.0000000  0  8G21G31G 2G14G24G12G30G29
   -943238.35946                  25031940.4024
 -17286852.27547 -13450945.54946  21941351.1064   21941345.5154
 -11119756.44147  -8648756.61344  23086249.7504   23086242.7224
 -12266459.52947  -9545410.55344  22992123.9384   22992118.7064
  -2358439.09346  -1824768.14843  24402111.7774   24402108.0344
 -14490871.04647 -11268782.79145  22368845.2984   22368839.8234
 -26022494.76948 -20258208.93646  20220345.5744   20220340.4214
 -25076867.67948 -19523616.88347  20264481.5664   20264476.8544
 10  3 18  0 26  0.0000000  0  8G21G31G 2G14G24G12G30G29
  -1041029.25646   -791911.52342  25013330.2094   25013325.3244
 -17355549.11547 -13504475.54545  21928278.4914   21928272.6164
 -11084679.02047  -8621423.57444  23092924.7184   23092917.4544
 -12186106.72347  -9482797.98543  23007414.6434   23007409.5544
  -2468004.73646  -1910143.78542  24381261.9314   24381257.3284
 -14423883.48347 -11216584.70945  22381592.7624   22381587.1854
 -25994760.75948 -20236598.03246  20225623.3264   20225618.7024
 -25092606.34348 -19535880.76947  20261486.6134   20261481.5114
 10  3 18  0 26 30.0000000  0  8G21G31G 2G14G24G12G30G29
  -1138875.57346   -868154.97642  24994710.9754   24994705.1294
 -17423895.23648 -13557732.26246  21915272.3354   21915266.8574
 -11049072.33547  -8593678.09044  23099700.0884   23099693.0594
 -12105440.71247  -9419941.36243  23022764.7504   23022759.3304
  -2577581.53046  -1995528.10242  24360409.1324   24360405.9434
 -14356732.05747 -11164258.92945  22394371.4804   22394365.6694
 -25966688.49848 -20214723.54646  20230965.1584   20230960.5374
 -25107862.57948 -19547768.74147  20258583.3454   20258578.4094
 10  3 18  0 27  0.0000000  0  8G21G31G 2G14G24G12G30G29
  -1236775.84646   -944440.56742  24976081.8834   24976074.9284
 -17491888.80448 -13610714.25645  21902334.0154   21902328.2344
 -11012937.45947  -8565521.04144  23106576.7884   23106569.2194
 -12024464.93447  -9356843.35544  23038173.6484   23038168.8704
  -2687167.25746  -2080919.43643  24339555.9794   24339552.0064
 -14289417.51947 -11111806.04445  22407181.0604   22407175.0354
 -25938278.66548 -20192586.01446  20236371.0754   20236366.7684
 -25122637.27548 -19559281.48447  20255772.1454   20255766.6384
 10  3 18  0 27 30.0000000  0  8G21G31G 2G14G24G12G30G29
  -1334726.77846  -1020765.66842  24957441.1054   24957435.6924
 -17559527.15648 -13663419.46345  21889463.2344   21889457.0314
 -10976275.43247  -8536953.23144  23113553.6204   23113546.0994
 -11943182.07346  -9293506.07443  23053641.6054   23053636.6624
  -2796758.41946  -2166315.01743  24318701.4654   24318697.5104
 -14221939.62848 -11059225.88345  22420021.3464   22420016.1704
 -25909530.85448 -20170185.12446  20241842.0704   20241837.1874
 -25136930.07148 -19570418.72047  20253051.7544   20253047.0814
 10  3 18  0 28  0.0000000  0  8G21G31G 2G14G24G12G30G29
  -1432726.61746  -1097128.81742  24938792.2764   24938787.6054
 -17626808.33048 -13715846.35546  21876659.3954   21876654.1344
 -10939087.69247  -8507975.76744  23120629.6494   23120622.8334
 -11861595.85846  -9229932.41344  23069167.2134   23069161.9684
  -2906352.51746  -2251712.84643  24297846.7224   24297842.0874
 -14154299.07147 -11006518.96345  22432892.6724   22432887.4224
 -25880445.75248 -20147521.42046  20247376.5344   20247371.6274
 -25150742.29048 -19581181.48547  20250423.2954   20250418.6904
 10  3 18  0 28 30.0000000  0  8G21G31G 2G14G24G12G30G29
  -1530773.16046  -1173528.40242  24920133.8074   24920129.0084
 -17693730.23548 -13767993.29745  21863925.0914   21863918.7124
 -10901375.25347  -8478589.45044  23127806.5484   23127799.6214
 -11779709.18247  -9166124.63343  23084749.4364   23084744.0894
  -3015946.97146  -2337110.97542  24276991.2864   24276986.9734
 -14086496.37747 -10953685.70845  22445795.2244   22445790.1574
 -25851023.68948 -20124595.14046  20252975.5504   20252970.4444
 -25164074.72548 -19591570.39447  20247886.4894   20247881.7534
 10  3 18  0 29  0.0000000  0  8G21G31G 2G14G24G12G30G29
  -1628863.96746  -1249962.48142  24901467.6074   24901462.3904
 -17760289.99348 -13819858.04845  21851258.8554   21851252.5254
 -10863138.66747  -8448794.72144  23135082.5304   23135075.4304
 -11697525.05947  -9102085.05043  23100389.1374   23100383.3364
  -3125538.42646  -2422506.78043  24256136.7974   24256132.5924
 -14018531.20548 -10900725.85845  22458728.8384   22458723.5284
 -25821264.03148 -20101405.79446  20258638.5554   20258633.8904
 -25176926.91148 -19601585.08147  20245440.8394   20245436.0484
 10  3 18  0 29 30.0000000  0  8G21G31G 2G14G24G12G30G29
  -1726996.35446  -1326428.88042  24882793.8284   24882787.9074
 -17826485.52248 -13871438.98046  21838662.3384   21838656.1604
 -10824379.21247  -8418592.54645  23142458.2644   23142451.0404
 -11615046.49247  -9037816.05744  23116083.7684   23116078.3604
  -3235124.25446  -2507898.21643  24235282.9184   24235279.7544
 -13950404.21447 -10847639.91045  22471692.9354   22471687.4344
 -25791167.21348 -20077953.73946  20264365.9024   20264361.0794
 -25189299.63848 -19611226.15947  20243086.4724   20243081.4224
 10  3 18  0 30  0.0000000  0  8G21G31G 2G14G24G12G30G29
  -1825168.35846  -1402926.24642  24864111.7384   24864106.2194
 -17892314.60748 -13922734.37846  21826135.7464   21826128.9334
 -10785098.44247  -8387984.15845  23149933.2574   23149926.2614
 -11532276.89147  -8973320.28543  23131834.2224   23131829.0504
  -3344701.83846  -2593283.23443  24214431.1754   24214427.0984
 -13882115.36247 -10794427.82045  22484687.9134   22484682.5054
 -25760733.47648 -20054239.14246  20270157.2114   20270152.3674
 -25201193.44148 -19620494.04747  20240822.9424   20240818.1034
 10  3 18  0 30 30.0000000  0  8G21G31G 2G14G24G12G30G29
  -1923377.62146  -1479452.69642  24845423.5534   24845417.6554
 -17957774.88048 -13973742.38346  21813678.9314   21813672.7864
 -10745296.97347  -8356970.02644  23157507.1684   23157499.9644
 -11449218.93546  -8908599.79444  23147639.5754   23147634.7424
  -3454267.89446  -2678659.23543  24193581.0494   24193577.7444
 -13813665.13747 -10741090.00445  22497713.5664   22497708.3284
 -25729962.75848 -20030261.97246  20276012.9064   20276007.3534
 -25212609.01748 -19629389.30847  20238650.7754   20238645.4764
 10  3 18  0 31  0.0000000  0  8G21G31G 2G14G24G12G30G29
  -2021622.04046  -1556006.47942  24826728.3484   24826721.3304
 -18022864.36448 -14024461.46946  21801292.5874   21801286.6604
 -10704976.48447  -8325551.46544  23165179.9754   23165172.9104
 -11365876.42446  -8843657.60744  23163499.4174   23163493.9474
  -3563820.06846  -2764024.45643  24172733.6284   24172730.6694
 -13745053.83947 -10687626.67445  22510769.9054   22510764.3064
 -25698855.75848 -20006022.75346  20281932.0874   20281927.1794
 -25223547.01948 -19637912.42347  20236569.1924   20236564.3484
 10  3 18  0 31 30.0000000  0  8G21G31G 2G14G24G12G30G29
  -2119899.70246  -1632586.09542  24808025.6884   24808019.5654
 -18087581.18548 -14074890.14846  21788977.5894   21788971.2134
 -10664138.69147  -8293729.80044  23172950.8944   23172943.9084
 -11282252.80446  -8778496.35044  23179412.4854   23179407.2854
  -3673356.10546  -2849377.16743  24151891.0234   24151886.1984
 -13676282.24547 -10634038.43545  22523856.6474   22523851.4624
 -25667413.08448 -19981521.97746  20287915.4564   20287910.6044
 -25234008.92448 -19646064.55347  20234578.5154   20234573.9704
 10  3 18  0 32  0.0000000  0  8G21G31G 2G14G24G12G30G29
  -2218207.98446  -1709189.71342  24789317.7464   24789312.6974
 -18151922.45848 -14125026.20846  21776733.9214   21776727.9604
 -10622783.80047  -8261505.19544  23180820.2674   23180813.3134
 -11198350.49647  -8713117.93043  23195379.0794   23195373.5614
  -3782872.20146  -2934714.24142  24131050.0374   24131045.3984
 -13607349.88847 -10580324.92845  22536973.9984   22536969.2024
 -25635633.68248 -19956758.80746  20293963.0894   20293958.1914
 -25243993.95048 -19653845.08847  20232678.2144   20232673.4564
 10  3 18  0 32 30.0000000  0  8G21G31G 2G14G24G12G30G29
  -2316544.36546  -1785815.27643  24770605.1984   24770600.0394
 -18215885.74848 -14174867.73346  21764562.2214   21764556.5094
 -10580913.23847  -8228878.79344  23188788.3464   23188780.8804
 -11114172.73246  -8647524.87443  23211397.3684   23211391.7214
  -3892365.57046  -3020033.62543  24110213.7934   24110209.7784
 -13538257.16947 -10526486.46045  22550122.1284   22550116.4034
 -25603517.85648 -19931733.50446  20300074.4654   20300069.6224
 -25253502.74548 -19661254.53647  20230868.7134   20230863.7584
 10  3 18  0 33  0.0000000  0  8G21G31G 2G14G24G12G30G29
  -2414906.34146  -1862460.77242  24751887.2424   24751881.7444
 -18279468.98048 -14224413.10146  21752462.4314   21752456.7294
 -10538528.49347  -8195851.71944  23196853.9294   23196846.6534
 -11029722.72347  -8581719.67643  23227467.6384   23227462.0214
  -4001833.53546  -3105333.22343  24089382.1994   24089378.9144
 -13469004.53047 -10472523.38245  22563300.3424   22563295.1304
 -25571066.11248 -19906446.43646  20306249.7824   20306245.1974
 -25262535.99648 -19668293.42947  20229150.0284   20229145.1144
 10  3 18  0 33 30.0000000  0  8G21G31G 2G14G24G12G30G29
  -2513291.88646  -1939124.66742  24733165.0444   24733159.8264
 -18342670.36348 -14273660.92346  21740435.5364   21740429.9074
 -10495631.22847  -8162425.27444  23205016.9384   23205010.4184
 -10945003.76046  -8515704.92543  23243589.1064   23243582.9214
  -4111273.63546  -3190611.15843  24068556.8464   24068552.9774
 -13399592.54948 -10418436.13745  22576508.9904   22576503.5804
 -25538278.64148 -19880897.76646  20312488.5864   20312484.2534
 -25271095.13148 -19674962.88247  20227521.2524   20227516.4554
 10  3 18  0 34  0.0000000  0  8G21G31G 2G14G24G12G30G29
  -2611698.86546  -2015805.25342  24714439.3964   24714433.0414
 -18405487.57548 -14322609.39746  21728481.7084   21728476.3314
 -10452222.37747  -8128600.20844  23213277.2684   23213270.3234
 -10860019.38647  -8449483.34843  23259761.0354   23259755.7084
  -4220683.03746  -3275865.11543  24047737.6174   24047732.4364
 -13330021.35347 -10364224.82545  22589748.0764   22589742.6154
 -25505155.95948 -19855087.88946  20318791.8344   20318786.8774
 -25279180.68948 -19681263.30747  20225982.5984   20225977.8314
 10  3 18  0 34 30.0000000  0  8G21G31G 2G14G24G12G30G29
  -2710124.72946  -2092500.59643  24695708.6264   24695702.5814
 -18467918.31248 -14371256.72146  21716601.4644   21716595.7944
 -10408303.01647  -8094377.32345  23221635.2254   23221628.0434
 -10774772.48746  -8383057.19244  23275982.8094   23275977.3304
  -4330058.37846  -3361092.61843  24026923.7574   24026919.0884
 -13260290.88247 -10309889.41345  22603017.4924   22603011.7374
 -25471697.94347 -19829016.71846  20325159.0564   20325154.2004
 -25286792.91648 -19687194.91047  20224534.1184   20224529.4084
 10  3 18  0 35  0.0000000  0  8G21G31G 2G14G24G12G30G29
  -2808567.77546  -2169209.32742  24676975.6244   24676970.0864
 -18529960.64648 -14419601.39546  21704795.6614   21704789.4714
 -10363875.29147  -8059758.31744  23230089.4804   23230082.5364
 -10689266.68147  -8316429.30844  23292253.7544   23292248.3524
  -4439397.32346  -3446291.70643  24006117.1794   24006111.7324
 -13190402.03947 -10255430.58345  22616316.6744   22616311.3134
 -25437905.25848 -19802684.76046  20331589.3084   20331584.4104
 -25293933.41648 -19692758.92947  20223175.3244   20223170.4144
 10  3 18  0 35 30.0000000  0  8G21G31G 2G14G24G12G30G29
  -2907024.72746  -2245928.87443  24658240.5134   24658233.8814
 -18591611.69448 -14467641.17446  21693063.6634   21693057.7434
 -10318939.54547  -8024743.44544  23238640.1034   23238633.1104
 -10603504.49547  -8249601.64243  23308574.4564   23308568.9144
  -4548696.53746  -3531459.88243  23985317.3854   23985313.5964
 -13120354.35947 -10200847.98945  22629646.6164   22629640.9214
 -25403777.28048 -19776091.53946  20338083.8854   20338078.9364
 -25300601.47448 -19697954.81547  20221906.3204   20221901.3804
 10  3 18  0 36  0.0000000  0  8G21G31G 2G14G24G12G30G29
  -3005493.53946  -2322657.67443  24639501.2884   24639495.5304
 -18652869.68148 -14515374.66246  21681406.4944   21681400.5824
 -10273497.73447  -7989334.25744  23247287.7424   23247280.5304
 -10517489.36846  -8182576.87643  23324942.2814   23324936.7054
  -4657953.33846  -3616595.01143  23964527.4094   23964522.7024
 -13050148.61447 -10146142.22745  22643006.2774   22643000.8474
 -25369314.37648 -19749237.33246  20344642.0514   20344637.0354
 -25306798.52948 -19702783.68847  20220727.0584   20220722.3244
 10  3 18  0 36 30.0000000  0  8G21G31G 2G14G24G12G30G29
  -3103972.13746  -2399394.07943  24620760.9244   24620755.7404
 -18713732.09448 -14562799.92046  21669825.2524   21669819.2354
 -10227550.99447  -7953531.59944  23256030.7474   23256023.7374
 -10431224.40346  -8115357.43943  23341358.1954   23341352.3494
  -4767164.83146  -3701694.79943  23943744.8754   23943740.1134
 -12979784.76047 -10091313.26845  22656396.1004   22656390.6514
 -25334516.57248 -19722122.16446  20351263.4384   20351258.6374
 -25312525.03048 -19707245.88847  20219637.2884   20219631.9754
 10  3 18  0 37  0.0000000  0  8G21G31G 2G14G24G12G30G29
  -3202458.06246  -2476136.27143  24602020.0094   24602014.1554
 -18774197.08048 -14609915.48846  21658318.8754   21658313.0044
 -10181101.02647  -7917336.82644  23264870.0674   23264862.5314
 -10344713.13546  -8047946.07743  23357820.4214   23357815.2494
  -4876328.27646  -3786757.18343  23922971.2344   23922967.5134
 -12909263.21347 -10036361.42545  22669815.1234   22669810.2764
 -25299384.51548 -19694746.55046  20357948.8624   20357944.1434
 -25317782.06548 -19711342.27447  20218636.9314   20218632.2774
 10  3 18  0 37 30.0000000  0  8G21G31G 2G14G24G12G30G29
  -3300949.06346  -2552882.35943  24583277.8964   24583271.3524
 -18834262.52448 -14656719.72646  21646888.5664   21646882.9364
 -10134149.18947  -7880750.98044  23273805.1094   23273796.9734
 -10257958.45146  -7980345.03443  23374329.6504   23374323.8774
  -4985440.50446  -3871779.62343  23902207.9924   23902203.8664
 -12838584.33647  -9981287.00645  22683265.4804   22683260.1654
 -25263918.23048 -19667110.47946  20364698.1544   20364693.0704
 -25322570.32048 -19715073.37747  20217725.9804   20217720.7834
 10  3 18  0 38  0.0000000  0  8G21G31G 2G14G24G12G30G29
  -3399443.30946  -2629630.99442  24564535.0834   24564528.4134
 -18893926.48448 -14703211.12346  21635535.1414   21635529.1094
 -10086697.52347  -7843775.65844  23282834.4684   23282826.9274
 -10170964.25146  -7912557.36143  23390883.5594   23390878.4074
  -5094499.31046  -3956760.48243  23881454.1934   23881450.8384
 -12767749.08847  -9926090.71545  22696744.3964   22696739.8684
 -25228118.70248 -19639214.75346  20371510.5474   20371505.3304
 -25326891.26648 -19718440.34647  20216903.6044   20216898.8294
 10  3 18  0 38 30.0000000  0  8G21G31G 2G14G24G12G30G29
  -3497937.46646  -2706379.58743  24545792.4314   24545786.4034
 -18953186.35548 -14749387.65546  21624258.2944   21624252.2774
 -10038746.95147  -7806411.56244  23291959.4844   23291951.9804
 -10083733.16046  -7844585.08043  23407482.7774   23407478.8584
  -5203501.11646  -4041696.93043  23860712.0364   23860708.5264
 -12696757.27347  -9870772.42945  22710254.2394   22710248.8474
 -25191985.45148 -19611058.97246  20378386.4044   20378381.6864
 -25330744.90048 -19721443.18047  20216170.1454   20216165.2064
 10  3 18  0 39  0.0000000  0  8G21G31G 2G14G24G12G30G29
  -3596429.67646  -2783126.65942  24527049.0884   24527043.2094
 -19012039.96548 -14795247.61146  21613059.0404   21613052.9674
  -9990298.98747  -7768659.91144  23301179.1884   23301171.2844
  -9996268.59146  -7776430.88743  23424127.2184   23424121.9494
  -5312442.88546  -4126586.52643  23839981.2614   23839977.3594
 -12625608.59347  -9815331.91845  22723793.5774   22723787.9664
 -25155518.39948 -19582643.09646  20385325.8334   20385320.7574
 -25334132.33648 -19724082.74247  20215525.5044   20215520.9894
 10  3 18  0 39 30.0000000  0  8G21G31G 2G14G24G12G30G29
  -3694917.57246  -2859870.35142  24508308.0984   24508302.0634
 -19070484.93448 -14840789.14846  21601937.0914   21601931.2684
  -9941354.91647  -7730521.66644  23310492.5674   23310485.2534
  -9908573.49346  -7708097.06943  23440815.0064   23440809.8274
  -5421321.91846  -4211427.30943  23819261.9584   23819258.6674
 -12554303.41247  -9759769.44345  22737362.5544   22737356.8444
 -25118717.69248 -19553967.23146  20392328.9014   20392323.8594
 -25337053.84248 -19726359.23847  20214969.8314   20214964.9574
 10  3 18  0 40  0.0000000  0  8G21G31G 2G14G24G12G30G29
  -3793398.68046  -2936608.80543  24489567.5174   24489561.0544
 -19128519.51448 -14886010.90046  21590893.2914   21590887.8774
  -9891916.13947  -7691997.94744  23319900.1744   23319892.7714
  -9820651.10846  -7639586.14143  23457546.2524   23457541.1314
  -5530135.47346  -4296217.06043  23798555.1644   23798552.2394
 -12482842.02947  -9704085.26845  22750961.2164   22750955.8704
 -25081583.91348 -19525031.82446  20399395.3144   20399389.9304
 -25339510.16248 -19728273.24947  20214502.3204   20214497.3594
 10  3 18  0 40 30.0000000  0  8G21G31G 2G14G24G12G30G29
  -3891870.28146  -3013339.78943  24470829.5124   24470823.1724
 -19186141.26248 -14930910.96346  21579928.6294   21579922.4984
  -9841983.94147  -7653089.71944  23329401.7124   23329394.6924
  -9732504.45346  -7570900.45743  23474319.9474   23474314.6404
  -5638880.40747  -4380953.33343  23777862.1324   23777858.0734
 -12411224.67047  -9648279.53245  22764589.4444   22764584.1694
 -25044116.80248 -19495836.67546  20406524.6574   20406520.0004
 -25341502.06448 -19729825.36847  20214123.1884   20214118.0484
 10  3 18  0 41  0.0000000  0  8G21G31G 2G14G24G12G30G29
  -3990330.66446  -3090062.12343  24452092.5684   24452086.4234
 -19243348.09748 -14975487.72046  21569042.3974   21569036.3394
  -9791560.72047  -7613798.91244  23338996.9974   23338990.6534
  -9644137.39346  -7502043.02343  23491135.9794   23491130.3294
  -5747554.04046  -4465634.04743  23757182.3564   23757178.8024
 -12339452.41747  -9592353.11345  22778246.9364   22778241.7044
 -25006317.04048 -19466382.32446  20413717.6644   20413713.0664
 -25343031.43648 -19731017.08347  20213832.2074   20213827.0754
 10  3 18  0 41 30.0000000  0  8G21G31G 2G14G24G12G30G29
  -4088777.09246  -3166773.52043  24433358.9274   24433352.5174
 -19300137.87548 -15019739.50146  21558235.6354   21558229.9064
  -9740647.73547  -7574126.47744  23348685.5174   23348678.5004
  -9555552.86646  -7433016.13943  23507992.9894   23507987.1254
  -5856153.11047  -4550256.67143  23736516.7754   23736512.4094
 -12267524.75647  -9536305.59145  22791934.5144   22791929.3904
 -24968184.64648 -19436668.78846  20420974.6634   20420969.6614
 -25344098.31348 -19731848.41247  20213629.2704   20213624.1104
 10  3 18  0 42  0.0000000  0  8G21G31G 2G14G24G12G30G29
  -4187207.73346  -3243472.64743  24414628.4104   24414621.8924
 -19356508.69848 -15063664.81746  21547508.4734   21547503.0364
  -9689246.89347  -7534073.88544  23358466.5704   23358459.9464
  -9466754.07146  -7363822.28343  23524891.0434   23524885.1304
  -5964675.34147  -4634819.42043  23715865.7584   23715861.4844
 -12195442.37847  -9480137.52345  22805651.3484   22805646.1544
 -24929720.23948 -19406696.53446  20428294.0624   20428289.2324
 -25344704.19248 -19732320.52247  20213513.9134   20213509.0734
 10  3 18  0 42 30.0000000  0  8G21G31G 2G14G24G12G30G29
  -4285619.78146  -3320157.29543  24395901.0964   24395894.9364
 -19412458.48347 -15107262.05946  21536861.4574   21536856.1254
  -9637359.26647  -7493641.98144  23368340.6214   23368333.2264
  -9377744.03146  -7294463.84143  23541828.7524   23541823.4074
  -6073117.19446  -4719319.56043  23695229.7214   23695224.7944
 -12123205.50947  -9423849.06145  22819397.8614   22819392.0194
 -24890923.53248 -19376465.34346  20435676.5444   20435672.2074
 -25344849.53748 -19732433.77847  20213486.5594   20213481.3674
 10  3 18  0 43  0.0000000  0  8G21G31G 2G14G24G12G30G29
  -4384011.21046  -3396825.89243  24377178.7394   24377171.6584
 -19467985.42748 -15150529.80746  21526295.3694   21526289.6894
  -9584987.01347  -7452832.44544  23378306.9934   23378299.5614
  -9288526.69646  -7224943.85043  23558806.4234   23558801.2794
  -6181476.32346  -4803755.20643  23674609.6924   23674605.5764
 -12050814.48647  -9367440.48645  22833173.2254   22833168.0664
 -24851795.28448 -19345975.81346  20443122.2844   20443117.3634
 -25344535.72048 -19732189.24147  20213546.3474   20213540.8784
 10  3 18  0 43 30.0000000  0  8G21G31G 2G14G24G12G30G29
  -4482379.64646  -3473476.55543  24358458.5234   24358452.1494
 -19523086.84648 -15193465.97446  21515810.0064   21515804.1354
  -9532131.39247  -7411646.24344  23388364.9454   23388357.6624
  -9199104.98546  -7155264.62243  23575822.7054   23575817.2464
  -6289749.54146  -4888123.91543  23654006.2514   23654000.9334
 -11978269.38047  -9310911.83245  22846978.0384   22846972.6554
 -24812335.27448 -19315227.75446  20450631.7984   20450626.9264
 -25343763.26648 -19731587.33147  20213692.6294   20213688.2544
 10  3 18  0 44  0.0000000  0  8G21G31G 2G14G24G12G30G29
  -4580722.54646  -3550107.32243  24339745.1124   24339738.3704
 -19577760.47548 -15236068.80146  21505406.0524   21505399.9254
  -9478793.70447  -7370084.39644  23398515.0644   23398507.6774
  -9109481.82146  -7085428.39743  23592877.1824   23592872.0034
  -6397933.74746  -4972423.26943  23633419.5414   23633414.9604
 -11905570.46447  -9254263.34945  22860812.0234   22860806.9864
 -24772543.65348 -19284221.30446  20458203.4254   20458198.7064
 -25342532.68948 -19730628.44147  20213926.6684   20213921.9584
 10  3 18  0 44 30.0000000  0  8G21G31G 2G14G24G12G30G29
  -4679037.45547  -3626716.28943  24321036.2834   24321029.5294
 -19632004.71948 -15278337.04746  21495083.5924   21495077.4044
  -9424976.33347  -7328148.76944  23408755.8254   23408748.0994
  -9019660.56046  -7015437.84143  23609969.5624   23609964.8664
  -6506026.52046  -5056651.36643  23612849.9804   23612845.4344
 -11832718.09347  -9197495.27745  22874675.2954   22874670.2834
 -24732421.36648 -19252957.20246  20465838.5474   20465833.9764
 -25340845.56448 -19729313.79747  20214248.0984   20214243.1414
 10  3 18  0 45  0.0000000  0  8G21G31G 2G14G24G12G30G29
  -4777321.95447  -3703301.57043  24302332.6404   24302326.3084
 -19685817.40848 -15320269.01746  21484842.9834   21484837.1334
  -9370680.64547  -7285840.43244  23419087.6264   23419080.9554
  -8929644.45146  -6945295.42343  23627099.4434   23627093.9684
  -6614024.47746  -5140805.59343  23592298.2214   23592294.0274
 -11759712.52247  -9140607.83945  22888567.8654   22888562.6054
 -24691968.20848 -19221435.26946  20473536.5944   20473531.5794
 -25338702.82048 -19727644.12347  20214655.6184   20214650.9334
 10  3 18  0 45 30.0000000  0  8G21G31G 2G14G24G12G30G29
  -4875573.27947  -3779861.01243  24283635.9124   24283629.7214
 -19739195.97448 -15361862.71046  21474685.7764   21474679.4814
  -9315907.90947  -7243160.37344  23429510.4504   23429503.0724
  -8839436.68746  -6875003.70143  23644265.9484   23644259.4014
  -6721924.11546  -5224883.19543  23571765.8554   23571761.7044
 -11686553.44947  -9083600.78845  22902490.1974   22902484.6294
 -24651184.00048 -19189655.37346  20481297.1894   20481292.8374
 -25336104.48148 -19725619.43847  20215150.2524   20215145.4904
 10  3 18  0 46  0.0000000  0  8G21G31G 2G14G24G12G30G29
  -4973789.77946  -3856393.30943  24264946.1694   24264940.1954
 -19792138.77448 -15403116.83646  21464610.7404   21464605.4444
  -9260660.53547  -7200110.47444  23440023.8224   23440016.6894
  -8749040.34946  -6804564.99843  23661467.8904   23661461.6884
  -6829723.08146  -5308882.36443  23551252.3934   23551248.3374
 -11613241.88347  -9026474.90145  22916440.4994   22916435.6114
 -24610069.36248 -19157618.00746  20489121.7594   20489116.7624
 -25333052.34048 -19723241.14347  20215731.3154   20215726.2994
 10  3 18  0 46 30.0000000  0  8G21G31G 2G14G24G12G30G29
  -5071969.09046  -3932896.64843  24246263.5364   24246256.1354
 -19844644.00948 -15444030.00846  21454619.5904   21454613.9454
  -9204940.14047  -7156691.98744  23450626.9104   23450619.8344
  -8658459.09446  -6733982.22443  23678704.8194   23678698.2364
  -6937418.70946  -5392801.00443  23530758.3214   23530753.8634
 -11539778.66347  -8969230.84045  22930419.6124   22930414.4424
 -24568624.99248 -19125323.69846  20497008.0904   20497003.0604
 -25329547.62848 -19720510.19947  20216398.0844   20216393.0554
 10  3 18  0 47  0.0000000  0  8G21G31G 2G14G24G12G30G29
  -5170108.70547  -4009369.02743  24227587.8804   24227581.8764
 -19896709.54848 -15484600.56446  21444711.5304   21444706.2064
  -9148748.27147  -7112906.12044  23461319.8724   23461312.8024
  -8567695.78446  -6663257.57643  23695975.6784   23695970.3934
  -7045007.66046  -5476636.52143  23510285.0674   23510281.2614
 -11466162.71647  -8911867.77045  22944428.8054   22944423.5364
 -24526850.54648 -19092772.19246  20504957.3214   20504952.4504
 -25325591.00848 -19717427.11247  20217150.8794   20217145.9224
 10  3 18  0 47 30.0000000  0  9G21G31G 2G14G24G16G12G30G29
  -5268206.04447  -4085808.49343  24208921.1174   24208914.1334
 -19948333.12948 -15524826.72746  21434888.3094   21434882.5584
  -9092086.85447  -7068754.37344  23472102.8394   23472095.3434
  -8476754.13346  -6592393.98343  23713279.7764   23713276.4404
  -7152487.27046  -5560386.83544  23489832.0724   23489828.3884
    630784.48446    504635.15042  25124921.7434   25124917.2444
 -11392395.05647  -8854386.49345  22958466.2954   22958460.8594
 -24484746.35448 -19059963.74546  20512969.7554   20512964.7104
 -25321183.58548 -19713992.75547  20217989.6574   20217985.1434
 10  3 18  0 48  0.0000000  0  9G21G31G 2G14G24G16G12G30G29
  -5366264.60947  -4162217.72943  24190261.1624   24190254.0604
 -19999518.59848 -15564711.51146  21425148.1494   21425142.4994
  -9034963.18847  -7024242.44044  23482972.9164   23482966.1704
  -8385642.52646  -6521397.94243  23730618.9964   23730614.4774
  -7259859.99646  -5644053.88043  23469399.9754   23469396.2364
    542430.03445    435787.59042  25108108.7184   25108102.3614
 -11318481.47647  -8796791.51445  22972531.2244   22972526.3314
 -24442318.57648 -19026903.15446  20521043.6744   20521038.5114
 -25316331.95848 -19710212.26347  20218912.3334   20218907.8484
 10  3 18  0 48 30.0000000  0  9G21G31G 2G14G24G16G12G30G29
  -5464270.61047  -4238586.00943  24171610.2194   24171603.8454
 -20050252.50848 -15604244.42546  21415493.4704   21415488.1404
  -8977367.84747  -6979362.96544  23493933.2124   23493925.9724
  -8294353.36846  -6450263.54943  23747991.0644   23747986.4184
  -7367111.57246  -5727626.50043  23448990.9954   23448986.6564
    454084.85446    366947.20542  25091297.1834   25091289.9344
 -11244411.17347  -8739074.40645  22986626.8294   22986621.6534
 -24399555.97948 -18993581.65346  20529180.6054   20529175.8934
 -25311025.94748 -19706077.71247  20219922.5034   20219917.9484
 10  3 18  0 49  0.0000000  0  9G21G31G 2G14G24G16G12G30G29
  -5562227.12847  -4314915.73143  24152970.0644   24152964.2104
 -20100538.27248 -15643428.13746  21405924.5494   21405918.5704
  -8919308.27247  -6934121.72244  23504980.8394   23504973.8884
  -8202894.98146  -6378997.29943  23765395.6844   23765390.1464
  -7474244.68146  -5811106.83743  23428603.3284   23428599.6754
    365744.01146    298110.23642  25074486.6794   25074479.4914
 -11170189.80147  -8681239.58245  23000750.1834   23000745.5574
 -24356464.53148 -18960003.90146  20537381.0034   20537376.4414
 -25305271.99748 -19701594.10947  20221017.3624   20221012.5384
 10  3 18  0 49 30.0000000  0  9G21G31G 2G14G24G16G12G30G29
  -5660131.96047  -4391205.17143  24134339.1984   24134333.1834
 -20150374.32948 -15682261.42246  21396440.9504   21396435.3934
  -8860786.01547  -6888519.96944  23516117.7734   23516110.5754
  -8111270.96346  -6307601.99343  23782830.7674   23782825.2734
  -7581256.53746  -5894492.67643  23408240.2704   23408236.0534
    277406.98546    229276.23842  25057676.3044   25057668.9754
 -11095817.59146  -8623287.22445  23014903.2594   23014897.9454
 -24313044.68647 -18926170.26446  20545643.1984   20545638.6174
 -25299071.44648 -19696762.51247  20222197.1194   20222192.2534
 10  3 18  0 50  0.0000000  0  9G21G31G 2G14G24G16G12G30G29
  -5757982.82647  -4467452.55743  24115718.6854   24115712.9854
 -20199758.59248 -15720742.66846  21387043.6014   21387037.5804
  -8801803.01847  -6842559.18644  23527341.6514   23527334.1184
  -8019484.50946  -6236080.08543  23800296.9954   23800291.8264
  -7688144.16246  -5977781.71943  23387899.8464   23387896.4114
    189074.53446    160445.78342  25040867.0314   25040859.9644
