     2.11           OBSERVATION DATA    G (GPS)             RINEX VERSION / TYPE
teqc  2008Oct2                          20100319 00:17:08UTCPGM / RUN BY / DATE
MSXP|IAx86-PII|bcc32 5.0|MSWin95->XP|486/DX+                COMMENT
teqc  2008Oct2      ICC                 20100319 00:15:41UTCCOMMENT
BIT 2 OF LLI FLAGS DATA COLLECTED UNDER A/S CONDITION       COMMENT
EBRE                                                        MARKER NAME
13410M001                                                   MARKER NUMBER
ICC                 ICC                                     OBSERVER / AGENCY
4536257134          TRIMBLE NETRS       1.15                REC # / TYPE / VERS
0220071796          TRM29659.00     NONE                    ANT # / TYPE
  4833520.1197    41537.2015  4147461.6263                  APPROX POSITION XYZ
        0.0000        0.0000        0.0000                  ANTENNA: DELTA H/E/N
     1     1                                                WAVELENGTH FACT L1/2
     4    L1    L2    C1    P2                              # / TYPES OF OBSERV
    30.0000                                                 INTERVAL
coordenades ajust ICC 2006.0                                COMMENT
 SNR is mapped to RINEX snr flag value [0-9]                COMMENT
  L1 & L2: min(max(int(snr_dBHz/6), 0), 9)                  COMMENT
teqc windowed: start @ 2010 Mar 18 00:00:00.000             COMMENT
teqc windowed: delta = 86399.999 sec                        COMMENT
Forced Modulo Decimation to 30 seconds                      COMMENT
  2010     3    18     0     0    0.0000000     GPS         TIME OF FIRST OBS
                                                            END OF HEADER
 10  3 18  0  0  0.0000000  0  9G12G 2G30G27G31G14G26G 9G29
 -16412120.24048 -12759781.84247  21961459.2234   21961454.9044
 -10862848.30947  -8443304.19744  23131101.0584   23131095.7414
 -27384560.56849 -21328626.35547  20117647.5454   20117644.1414
  -2269633.90546  -1751217.28943  24661053.0364   24661051.0234
 -13848892.24048 -10773722.51246  22635284.8074   22635280.8114
 -16793565.76047 -13058266.46446  22077212.5144   22077209.1174
   1206762.32046    955509.47843  24901160.3204   24901158.8524
  -2633210.24646  -2036947.98543  24857433.3794   24857429.9104
 -25191291.49748 -19609672.51048  20451558.6824   20451555.5094
 10  3 18  0  0 30.0000000  0  9G12G 2G30G27G31G14G26G 9G29
 -16351999.36348 -12712934.40947  21972900.1984   21972895.9444
 -10854132.40147  -8436512.57744  23132759.2904   23132753.9164
 -27369622.50148 -21316986.30347  20120490.4154   20120486.2834
  -2172439.81646  -1675481.79443  24679548.2464   24679547.6514
 -13932059.46748 -10838528.13746  22619458.4664   22619454.1564
 -16736315.27247 -13013655.70746  22088107.5764   22088103.1894
   1321252.02046   1044722.02344  24922947.2964   24922946.5054
  -2516366.30246  -1945900.84143  24879668.0764   24879664.9114
 -25226775.34548 -19637322.25348  20444806.4674   20444802.8484
 10  3 18  0  1  0.0000000  0  9G12G 2G30G27G31G14G26G 9G29
 -16291725.42848 -12665967.72347  21984369.9784   21984366.4994
 -10844872.66847  -8429297.19244  23134521.7894   23134515.6864
 -27354365.64049 -21305097.84747  20123393.8084   20123389.8644
  -2075097.08046  -1599630.46843  24698072.7014   24698070.9274
 -14015013.59048 -10903167.70846  22603672.8784   22603668.6784
 -16678585.93147 -12968671.82646  22099093.0374   22099088.7794
   1435674.66846   1133882.36343  24944721.6104   24944719.4944
  -2399447.85646  -1854795.64743  24901916.7774   24901913.8754
 -25261758.44048 -19664581.80348  20438149.5274   20438145.7114
 10  3 18  0  1 30.0000000  0  9G12G 2G30G27G31G14G26G 9G29
 -16231297.68548 -12618881.17447  21995868.8734   21995864.7794
 -10835067.80347  -8421657.02044  23136387.4824   23136381.7314
 -27338788.92349 -21292960.14547  20126357.4194   20126353.9164
  -1977606.05446  -1523663.61143  24716624.8474   24716622.8604
 -14097751.23348 -10967638.59146  22587928.6874   22587923.9484
 -16620378.80947 -12923315.62646  22110169.3194   22110165.4354
   1550028.59146   1222989.21543  24966481.3154   24966480.9724
  -2282455.29546  -1763632.68743  24924179.3774   24924176.7224
 -25296239.14948 -19691449.88148  20431588.1024   20431583.9714
 10  3 18  0  2  0.0000000  0  9G12G 2G30G27G31G14G26G 9G29
 -16170718.08848 -12571676.30146  22007396.6894   22007392.4654
 -10824718.92547  -8413592.94244  23138356.5744   23138350.8704
 -27322893.45449 -21280574.06947  20129382.2764   20129378.7744
  -1879969.19446  -1447583.11743  24735204.1684   24735202.7964
 -14180270.68648 -11031939.46046  22572225.9224   22572220.7064
 -16561697.60147 -12877590.00946  22121336.5624   22121332.2864
   1664310.18046   1312039.65743  24988229.7574   24988228.6034
  -2165391.50346  -1672414.27143  24946456.5994   24946452.9144
 -25330218.30348 -19717927.14048  20425121.9704   20425118.1864
 10  3 18  0  2 30.0000000  0  9G12G 2G30G27G31G14G26G 9G29
 -16109986.19348 -12524352.76847  22018953.2464   22018949.6214
 -10813825.60547  -8405104.60344  23140429.8514   23140423.6754
 -27306679.55548 -21267939.86147  20132467.8584   20132464.0634
  -1782188.31746  -1371390.42043  24753811.8784   24753809.8304
 -14262569.89248 -11096068.70046  22556564.3584   22556560.0844
 -16502545.05547 -12831497.13046  22132592.2934   22132588.3874
   1778516.61146   1401031.44843  25009962.6344   25009961.4154
  -2048258.26346  -1581141.70643  24968746.4014   24968742.6594
 -25363695.83849 -19744013.52448  20418751.2764   20418747.5944
 10  3 18  0  3  0.0000000  0  9G12G 2G30G27G31G14G26G 9G29
 -16049102.20648 -12476910.70446  22030539.6174   22030535.4254
 -10802387.83947  -8396192.06644  23142606.2404   23142600.2994
 -27290146.54949 -21255057.00047  20135613.8354   20135610.6274
  -1684264.22746  -1295086.15043  24772445.8824   24772444.2994
 -14344645.84648 -11160023.98746  22540945.9114   22540941.1004
 -16442922.93047 -12785038.33546  22143937.9574   22143934.4014
   1892645.98246   1489963.20743  25031680.4314   25031679.3734
  -1931056.82146  -1489816.02043  24991047.9684   24991046.2124
 -25396670.83448 -19769708.32348  20412476.4174   20412472.8244
 10  3 18  0  3 30.0000000  0  9G12G 2G30G27G31G14G26G 9G29
 -15988066.61148 -12429350.50447  22042153.8904   22042149.7994
 -10790405.34547  -8386855.04344  23144886.2984   23144881.0524
 -27273294.89248 -21241925.84847  20138820.6114   20138817.5424
  -1586198.61646  -1218671.55543  24791107.3674   24791106.0124
 -14426496.66148 -11223803.84546  22525370.3114   22525365.9114
 -16382833.45247 -12738215.38146  22155372.4394   22155368.8824
   2006695.55946   1578832.69743  25053383.7174   25053381.4684
  -1813788.95646  -1398438.60843  25013364.4344   25013362.1074
 -25429142.81248 -19795011.15948  20406297.1084   20406293.5514
 10  3 18  0  4  0.0000000  0  9G12G 2G30G27G31G14G26G 9G29
 -15926879.92748 -12381672.56747  22053797.8694   22053793.2854
 -10777878.60347  -8377093.94444  23147269.8354   23147264.4954
 -27256125.33448 -21228546.97547  20142088.1584   20142084.5284
  -1487993.86846  -1142148.61643  24809795.4584   24809793.1714
 -14508120.74748 -11287407.01446  22509837.9644   22509833.3894
 -16322279.90247 -12691030.80846  22166895.4744   22166891.9334
   2120662.22546   1667637.59943  25075071.2924   25075069.7714
  -1696457.10646  -1307011.31243  25035691.8564   25035689.4324
 -25461112.50348 -19819922.60348  20400213.4674   20400209.7544
 10  3 18  0  4 30.0000000  0  9G12G 2G30G27G31G14G26G 9G29
 -15865542.54148 -12333877.21147  22065470.0404   22065465.7884
 -10764807.56246  -8366908.69544  23149757.7354   23149752.0464
 -27238637.53249 -21214920.12147  20145415.8524   20145412.0984
  -1389650.96146  -1065518.00643  24828510.0224   24828508.2134
 -14589515.39748 -11350831.41646  22494349.0814   22494344.4544
 -16261264.62647 -12643486.44546  22178506.5354   22178502.3744
   2234543.59946   1756375.99943  25096742.1914   25096741.1104
  -1579062.28946  -1215534.98643  25058032.0904   25058028.7094
 -25492579.51348 -19844442.34348  20394225.5644   20394221.8584
 10  3 18  0  5  0.0000000  0  9G12G 2G30G27G31G14G26G 9G29
 -15804054.92248 -12285964.80146  22077170.6914   22077166.1134
 -10751192.26447  -8356299.35844  23152348.4994   23152342.8804
 -27220831.58249 -21201045.35647  20148804.2074   20148800.6214
  -1291171.37946   -988780.95943  24847249.7584   24847248.3404
 -14670678.33248 -11414075.24346  22478903.9894   22478899.6814
 -16199790.12247 -12595584.23546  22190204.8754   22190201.0484
   2348337.27446   1845046.12343  25118396.8454   25118394.8534
  -1461606.62845  -1124011.25343  25080382.2344   25080380.0864
 -25523543.26648 -19868569.94348  20388333.2954   20388329.7644
 10  3 18  0  5 30.0000000  0  9G12G 2G30G27G31G14G26G 9G29
 -15742417.53948 -12237935.68146  22088899.6774   22088895.4444
 -10737033.11547  -8345266.25844  23155042.5214   23155036.8154
 -27202708.21349 -21186923.24347  20152252.9394   20152249.4324
  -1192557.05446   -911938.85943  24866015.9044   24866014.1764
 -14751607.69248 -11477137.07446  22463503.7614   22463499.3214
 -16137859.23447 -12547326.39946  22201989.0614   22201985.8494
   2462040.60146   1933645.89243  25140034.4924   25140032.3254
  -1344092.47846  -1032441.95743  25102745.4014   25102742.2164
 -25554004.28048 -19892305.78848  20382536.9074   20382533.4314
 10  3 18  0  6  0.0000000  0  9G12G 2G30G27G31G14G26G 9G29
 -15680630.83448 -12189790.21946  22100657.4294   22100653.6284
 -10722329.94247  -8333809.22644  23157840.3754   23157834.1524
 -27184267.32048 -21172553.72147  20155762.1834   20155758.8244
  -1093809.34046   -834992.89443  24884806.6974   24884805.4954
 -14832300.84048 -11540014.84746  22448148.4534   22448143.7574
 -16075474.44747 -12498714.88545  22213861.2654   22213857.1164
   2575650.74046   2022172.99843  25161654.6944   25161652.7114
  -1226521.19746   -940828.14243  25125117.9734   25125115.7074
 -25583962.20848 -19915649.62448  20376835.8944   20376832.6774
 10  3 18  0  6 30.0000000  0  9G12G 2G30G27G31G14G26G 9G29
 -15618695.22447 -12141528.71746  22112443.3174   22112438.9314
 -10707083.12547  -8321928.58044  23160742.0254   23160736.0374
 -27165509.18949 -21157937.00347  20159331.6944   20159328.0244
   -994930.00546   -757944.35643  24903623.3294   24903621.6994
 -14912755.86748 -11602707.06746  22432838.4164   22432833.4304
 -16012638.41147 -12449751.74546  22225818.3934   22225814.0804
   2689164.88746   2110625.26543  25183255.2084   25183253.6744
  -1108894.45146   -849171.14543  25147502.3114   25147499.4684
 -25613417.19148 -19938601.55148  20371230.8134   20371227.6424
 10  3 18  0  7  0.0000000  0  9G12G 2G30G27G31G14G26G 9G29
 -15556610.36448 -12093150.92146  22124257.7794   22124253.4794
 -10691292.50747  -8309624.19344  23163746.8774   23163741.0544
 -27146433.73249 -21143073.01547  20162961.6094   20162958.3234
   -895920.35146   -680794.31943  24922465.3854   24922462.9064
 -14992970.35348 -11665211.85946  22417573.9174   22417569.4514
 -15949353.70847 -12400439.00045  22237861.1744   22237856.9794
   2802581.15146   2199001.19743  25204837.5934   25204836.2924
   -991213.95246   -757472.25743  25169896.4044   25169892.8884
 -25642368.70848 -19961161.16848  20365721.7714   20365718.5024
 10  3 18  0  7 30.0000000  0  9G12G 2G30G27G31G14G26G 9G29
 -15494377.10448 -12044657.49046  22136100.4164   22136096.2254
 -10674958.49247  -8296896.38144  23166855.0844   23166848.5184
 -27127041.67949 -21127962.32247  20166651.7404   20166648.1044
   -796782.29645   -603544.28642  24941330.4414   24941328.6764
 -15072942.20548 -11727527.57746  22402355.9284   22402351.2884
 -15885623.06747 -12350778.76945  22249988.8794   22249984.4994
   2915896.26546   2287298.28543  25226401.4334   25226399.5394
   -873481.54846   -665732.89043  25192300.2494   25192297.6544
 -25670817.05548 -19983328.70048  20360307.8964   20360304.8554
 10  3 18  0  8  0.0000000  0  9G12G 2G30G27G31G14G26G 9G29
 -15431995.86548 -11996048.73146  22147970.8814   22147966.7174
 -10658081.01047  -8283745.10244  23170066.8924   23170061.2274
 -27107332.65548 -21112604.65247  20170402.3924   20170398.7304
   -697517.09845   -526195.13642  24960220.1844   24960218.5634
 -15152668.98648 -11789652.34246  22387184.6564   22387179.3914
 -15821449.23247 -12300773.19045  22262200.9504   22262196.6634
   3029108.41046   2375515.22543  25247945.1634   25247943.4624
   -755699.01646   -573954.52643  25214713.1384   25214710.8574
 -25698762.01848 -20005103.99448  20354990.0174   20354986.7454
 10  3 18  0  8 30.0000000  0 10G12G 2G30G27G31G24G14G26G 9G29
 -15369466.88747 -11947324.86446  22159869.8364   22159865.7464
 -10640660.56446  -8270170.73544  23173382.1084   23173376.4084
 -27087306.93949 -21097000.19547  20174213.2394   20174209.6824
   -598126.68045   -448748.43342  24979133.2024   24979131.8674
 -15232148.88648 -11851584.72746  22372059.7684   22372055.0044
    679943.46746                  24965501.3464
 -15756834.70647 -12250424.22345  22274496.6394   22274492.0464
   3142214.62346   2463649.62043  25269468.6224   25269467.0454
   -637868.32346   -482138.61443  25237136.1614   25237133.8284
 -25726203.79748 -20026487.19348  20349768.3164   20349764.7284
 10  3 18  0  9  0.0000000  0 10G12G 2G30G27G31G24G14G26G 9G29
 -15306793.35248 -11898488.36446  22171796.4724   22171792.5394
 -10622700.09847  -8256175.54244  23176799.5834   23176793.8684
 -27066967.78748 -21081151.50147  20178083.5594   20178079.5884
   -498615.40445   -371207.52342  24998069.9504   24998069.5124
 -15311382.15648 -11913324.92946  22356982.3054   22356977.7674
    574432.28746    474878.68443  24945422.6274   24945421.2594
 -15691785.01747 -12199736.16745  22286874.8874   22286870.9944
   3255209.69946   2551697.48843  25290971.6414   25290970.7484
   -519994.04846   -390288.76843  25259567.0344   25259564.6304
 -25753144.88148 -20047480.24448  20344641.4104   20344637.8414
 10  3 18  0  9 30.0000000  0  9G12G 2G30G31G24G14G26G 9G29
 -15243968.34848 -11849533.82346  22183751.7944   22183747.0484
 -10604192.89647  -8241754.34044  23180321.3354   23180315.8664
 -27046307.93949 -21065052.91747  20182014.8154   20182011.1564
 -15390359.19448 -11974865.47046  22341953.2114   22341949.0384
    468827.08446    392588.98143  24925326.8854   24925326.3974
 -15626295.62547 -12148705.48545  22299337.1064   22299332.8334
   3368098.04746   2639662.15743  25312453.4964   25312453.3304
   -402070.63346   -298400.63343  25282006.9034   25282005.0684
 -25779578.40248 -20068077.78948  20339611.3094   20339607.9914
 10  3 18  0 10  0.0000000  0  9G12G 2G30G31G24G14G26G 9G29
 -15180997.62347 -11800465.73046  22195734.5384   22195730.5224
 -10585144.55347  -8226911.46944  23183945.9814   23183940.1534
 -27025333.04748 -21048708.84447  20186006.4574   20186003.0554
 -15469083.36448 -12036208.96946  22326972.6324   22326967.9234
    363125.63046    310224.39442  24905213.2264   24905212.3574
 -15560374.67747 -12097338.52045  22311881.1784   22311877.5784
   3480872.14446   2727537.84843  25333913.6994   25333913.2544
   -284104.95845   -206479.61043  25304455.3844   25304453.7534
 -25805509.50848 -20088283.84448  20334677.0024   20334673.2794
 10  3 18  0 10 30.0000000  0  9G12G 2G30G31G24G14G26G 9G29
 -15117880.38447 -11751283.48546  22207745.2484   22207740.7914
 -10565553.96147  -8211646.08144  23187673.5714   23187668.3024
 -27004042.06649 -21032118.47147  20190057.8274   20190054.1174
 -15547551.10948 -12097352.66146  22312040.7104   22312036.2704
    257331.56346    227787.65443  24885080.4044   24885079.6664
 -15494023.60247 -12045636.40045  22324507.4454   22324503.8054
   3593530.90945   2815323.77843  25355351.7654   25355351.1264
   -166098.17845   -114526.57942  25326911.9774   25326910.0724
 -25830937.28048 -20108097.68248  20329838.2204   20329834.9734
 10  3 18  0 11  0.0000000  0  9G12G 2G30G31G24G14G26G 9G29
 -15054617.72248 -11701987.91446  22219783.5144   22219779.2154
 -10545421.95347  -8195958.80145  23191505.0484   23191498.8294
 -26982435.54348 -21015282.22247  20194169.5694   20194165.8024
 -15625760.37748 -12158294.94246  22297157.7914   22297153.4484
    151447.46546    145281.00643  24864929.6084   24864931.2294
 -15427245.72347 -11993601.69445  22337214.7234   22337211.1734
   3706070.90546   2903017.15442  25376767.6394   25376766.5874
    -48051.91045    -22542.79243  25349375.1204   25349373.7264
 -25855862.13148 -20127519.63748  20325095.3184   20325091.7184
 10  3 18  0 11 30.0000000  0  9G12G 2G30G31G24G14G26G 9G29
 -14991208.88547 -11652578.42746  22231850.1334   22231845.6834
 -10524748.87247  -8179849.90244  23195439.0634   23195433.0974
 -26960513.60648 -20998200.19847  20198340.9924   20198337.7624
 -15703709.08748 -12219034.19046  22282324.6144   22282320.2634
     45475.16446     62705.29843  24844764.3694   24844765.7984
 -15360043.71247 -11941236.49745  22350003.2614   22349999.3844
   3818490.09646   2990616.59143  25398160.1824   25398159.3914
     70032.02345     69470.23542  25371845.3044   25371844.5024
 -25880283.88148 -20146549.56648  20320447.9434   20320444.1274
 10  3 18  0 12  0.0000000  0  9G12G 2G30G31G24G14G26G 9G29
 -14927654.83548 -11603055.80846  22243943.9124   22243939.7714
 -10503535.17647  -8163319.75244  23199475.9414   23199469.8544
 -26938276.59748 -20980872.66747  20202572.5144   20202568.9614
 -15781394.93648 -12279568.61446  22267541.5104   22267537.2174
    -60582.25946    -19936.59743  24824582.0934   24824583.4324
 -15292420.30947 -11888542.94245  22362871.7634   22362866.9994
   3930785.53646   3078119.52943  25419528.8874   25419528.8474
 -48649868.31245 -37894088.83642  25394324.2224   25394321.5424
 -25904202.85648 -20165187.72448  20315896.1334   20315892.7464
 10  3 18  0 12 30.0000000  0  9G12G 2G30G31G24G14G26G 9G29
 -14863955.93148 -11553420.30746  22256065.4774   22256061.3504
 -10481781.21247  -8146368.60644  23203615.2264   23203609.7914
 -26915724.59349 -20963299.67247  20206863.9154   20206860.5884
 -15858815.74348 -12339896.50846  22252808.5794   22252804.3494
   -166722.07246   -102642.61843  24804384.8774   24804384.8794
 -15224378.23147 -11835523.15545  22375819.4784   22375815.6294
   4042955.02446   3165524.51243  25440874.6304   25440874.2614
 -48531714.95245 -37802021.59542  25416809.0434   25416806.3194
 -25927619.23248 -20183434.24248  20311440.0264   20311436.4444
 10  3 18  0 13  0.0000000  0  9G12G 2G30G21G31G24G14G26G29
 -14800113.48048 -11503672.95446  22268214.4224   22268210.1884
 -10459488.62547  -8128997.73944  23207857.2944   23207852.0044
 -26892858.91948 -20945482.27547  20211215.1394   20211211.9264
   -351780.89445                  25332754.5034
 -15935970.21948 -12400016.87046  22238126.6584   22238122.5784
   -272943.26546   -185412.10843  24784171.2754   24784170.9964
 -15155921.44047 -11782180.19945  22388846.2554   22388842.8294
   4154995.19846   3252828.78243  25462194.9874   25462194.3034
 -25950534.22248 -20201290.07048  20307079.2864   20307076.0824
 10  3 18  0 13 30.0000000  0  9G12G 2G30G21G31G24G14G26G29
 -14736127.06648 -11453813.42246  22280390.5624   22280386.3384
 -10436656.84647  -8111206.73944  23212202.2464   23212196.5944
 -26869678.79448 -20927419.84347  20215625.9184   20215622.8004
   -445706.35346                  25314883.2014
 -16012855.15948 -12459927.22146  22223495.9334   22223491.6894
   -379241.76046   -268241.65443  24763943.0914   24763942.9394
 -15087051.86347 -11728515.61545  22401951.6684   22401947.9424
   4266903.75146   3340030.42043  25483489.4934   25483489.4724
 -25972946.89548 -20218754.48848  20302814.4494   20302810.9134
 10  3 18  0 14  0.0000000  0  9G12G 2G30G21G31G24G14G26G29
 -14671994.36548 -11403839.88946  22292594.6174   22292590.0844
 -10413283.93247  -8092994.02844  23216650.5544   23216644.3424
 -26846181.99148 -20909110.65447  20220097.7964   20220093.9244
   -539736.86145   -406133.22042  25296989.6834   25296988.5774
 -16089466.07648 -12519624.03046  22208917.7914   22208912.9504
   -485612.98646   -351127.94043  24743700.7134   24743700.9384
 -15017769.94847 -11674529.71646  22415135.9744   22415132.0814
   4378680.92746   3427129.63243  25504760.6214   25504759.0134
 -25994855.64548 -20235826.23548  20298645.4524   20298641.7964
 10  3 18  0 14 30.0000000  0  9G12G 2G30G21G31G24G14G26G29
 -14607718.09548 -11353754.47146  22304826.1454   22304821.7284
 -10389372.53347  -8074361.79444  23221200.7044   23221194.2714
 -26822370.88548 -20890556.54847  20224628.6684   20224625.6774
   -633872.63145   -479486.02542  25279076.6274   25279075.2734
 -16165802.86748 -12579107.23446  22194391.3354   22194386.8594
   -592055.87445   -434069.94443  24723444.5854   24723444.9804
 -14948080.88747 -11620226.56445  22428397.8394   22428393.6684
   4490322.29046   3514123.19243  25526004.7774   25526004.0474
 -26016261.98348 -20252506.49148  20294571.9994   20294568.2734
 10  3 18  0 15  0.0000000  0  9G12G 2G30G21G31G24G14G26G29
 -14543298.33448 -11303557.26546  22317084.8894   22317080.4684
 -10364923.46447  -8055310.56444  23225853.2704   23225846.7644
 -26798245.59748 -20871757.63147  20229219.8464   20229216.1324
   -728111.46845   -552919.20342  25261142.7354   25261142.1394
 -16241863.00348 -12638374.87446  22179917.7464   22179912.7624
   -698567.78946   -517065.59042  24703175.6054   24703176.4674
 -14877987.28147 -11565608.17646  22441735.6414   22441732.2464
   4601825.20746   3601008.79342  25547223.0684   25547222.0364
 -26037166.61948 -20268795.81248  20290594.0124   20290590.3074
 10  3 18  0 15 30.0000000  0  9G12G 2G30G21G31G24G14G26G29
 -14478736.09448 -11253249.04946  22329370.2324   22329366.8224
 -10339937.21147  -8035840.74344  23230608.0944   23230601.9404
 -26773806.73448 -20852714.35647  20233870.1734   20233866.4574
   -822451.34145   -626430.92442  25243190.7074   25243190.1954
 -16317644.53948 -12697425.41746  22165496.4274   22165492.2854
   -805146.61746   -600113.45943  24682893.9724   24682895.2934
 -14807492.38447 -11510677.10945  22455150.3204   22455146.5024
   4713187.88546   3687785.46943  25568413.9594   25568412.8264
 -26057570.06848 -20284694.59948  20286711.2614   20286707.9354
 10  3 18  0 16  0.0000000  0  9G12G 2G30G21G31G24G14G26G29
 -14414030.39348 -11202829.03246  22341683.6974   22341678.9944
 -10314413.84447  -8015952.36844  23235464.2174   23235458.2624
 -26749053.67948 -20833426.26647  20238580.6474   20238576.8344
   -916889.66745   -700019.34842  25225220.0234   25225218.5094
 -16393144.84148 -12756256.82446  22151129.2484   22151124.9704
   -911789.02146   -683210.70043  24662599.8714   24662600.7324
 -14736598.18347 -11455434.89945  22468640.8774   22468636.9604
   4824407.44746   3774450.58942  25589578.2454   25589575.8534
 -26077471.90348 -20300202.50948  20282924.0364   20282920.8344
 10  3 18  0 16 30.0000000  0  9G12G 2G30G21G31G24G14G26G29
 -14349182.21348 -11152297.99446  22354023.4524   22354019.2534
 -10288354.36747  -7995646.27444  23240422.9224   23240417.2194
 -26723987.31048 -20813894.03447  20243350.5134   20243347.2324
  -1011424.27446   -773682.68043  25207231.2604   25207230.0324
 -16468361.93448 -12814867.53846  22136816.1274   22136811.4674
  -1018492.78946   -766355.88043  24642294.1614   24642295.0484
 -14665308.16047 -11399884.23145  22482207.1794   22482203.1904
   4935480.48446   3861001.18542  25610714.4304   25610712.1524
 -26096872.85448 -20315320.12948  20279232.0524   20279228.5914
 10  3 18  0 17  0.0000000  0  9G12G 2G30G21G31G24G14G26G29
 -14284192.51848 -11101656.69346  22366390.6984   22366386.7024
 -10261759.80947  -7974923.26944  23245484.0724   23245477.9064
 -26698607.96549 -20794117.92647  20248180.3064   20248176.5514
  -1106053.53846   -847419.74542  25189223.1474   25189222.9624
 -16543293.45448 -12873255.74047  22122557.2914   22122552.5974
  -1125255.42946   -849546.81243  24621977.6354   24621978.0474
 -14593625.80247 -11344027.85545  22495847.7794   22495843.1994
   5046405.28846   3947436.39943  25631822.8964   25631821.0634
 -26115773.59648 -20330047.97548  20275635.3824   20275632.0184
 10  3 18  0 17 30.0000000  0  9G12G 2G30G21G31G24G14G26G29
 -14219060.16348 -11050904.22246  22378785.5624   22378781.2134
 -10234629.83147  -7953783.01344  23250646.2584   23250640.3764
 -26672914.84348 -20774097.31647  20253069.4644   20253065.7544
  -1200773.74745   -921227.40142  25171199.0774   25171197.5754
 -16617936.57248 -12931419.19847  22108352.8204   22108348.7504
  -1232073.07646   -932780.41043  24601650.8364   24601650.7084
 -14521552.44147 -11287866.79445  22509563.3394   22509558.3324
   5157180.20446   4033754.77243  25652901.6944   25652899.9444
 -26134172.98748 -20344385.15548  20272134.2184   20272130.5014
 10  3 18  0 18  0.0000000  0  9G12G 2G30G21G31G24G14G26G29
 -14153786.26248 -11000041.45846  22391206.3134   22391202.4884
 -10206965.35047  -7932226.27744  23255911.5634   23255904.7924
 -26646908.69548 -20753832.78847  20258018.1254   20258014.4534
  -1295583.68645   -995104.96342  25153154.8504   25153155.2274
 -16692289.69848 -12989356.69946  22094203.9674   22094199.7364
  -1338945.06346  -1016056.90243  24581314.5014   24581312.3724
 -14449091.92447 -11231404.05345  22523351.6394   22523347.2814
   5267802.95446   4119954.96343  25673952.6224   25673951.0544
 -26152072.38348 -20358332.73948  20268728.1214   20268724.4464
 10  3 18  0 18 30.0000000  0  8G12G 2G30G21G31G24G14G29
 -14088369.77348 -10949067.59046  22403654.6894   22403651.1504
 -10178766.08346  -7910252.80944  23261277.1894   23261271.1184
 -26620588.67548 -20733323.67747  20263026.4734   20263022.8294
  -1390480.01045  -1069049.74543  25135098.8944   25135097.8304
 -16766349.06648 -13047065.28446  22080110.8454   22080106.6744
  -1445866.32646  -1099371.85243  24560966.7354   24560965.3744
 -14376246.04447 -11174641.04945  22537213.8074   22537209.8454
 -26169470.77148 -20371889.91448  20265417.2244   20265413.8194
 10  3 18  0 19  0.0000000  0  8G12G 2G30G21G31G24G14G29
 -14022813.44148 -10897984.74646  22416129.5584   22416125.7824
 -10150035.11946  -7887865.03744  23266744.7034   23266738.9834
 -26593957.27348 -20712571.94547  20268094.5814   20268090.5884
  -1485462.53046  -1143061.73343  25117024.6804   25117022.0784
 -16840114.53248 -13104544.86946  22066074.0434   22066069.2664
  -1552836.57346  -1182724.98143  24540610.9564   24540609.3404
 -14303019.87647 -11117581.70245  22551148.6954   22551145.0204
 -26186370.87648 -20385058.82148  20262201.0754   20262197.4384
 10  3 18  0 19 30.0000000  0  8G12G 2G30G21G31G24G14G29
 -13957116.41548 -10846792.26346  22428631.5784   22428627.3504
 -10120772.33246  -7865062.85744  23272312.9864   23272307.1024
 -26567013.79448 -20691577.02747  20273221.7274   20273217.9534
  -1580528.10046  -1217138.22342  25098933.6364   25098931.5214
 -16913583.38348 -13161793.32046  22052093.2234   22052088.4684
  -1659852.06646  -1266113.43343  24520245.7034   24520244.9604
 -14229415.53347 -11060227.68945  22565155.2494   22565151.3894
 -26202772.20048 -20397839.06648  20259080.2134   20259076.6604
 10  3 18  0 20  0.0000000  0  8G12G 2G30G21G31G24G14G29
 -13891278.71148 -10795490.16546  22441159.8904   22441155.7524
 -10090977.73646  -7841846.29444  23277982.7694   23277977.1444
 -26539757.99748 -20670338.75347  20278408.2144   20278404.4654
  -1675674.31246  -1291277.53943  25080827.1544   25080824.8894
 -16986752.88448 -13218808.51246  22038169.7534   22038165.1674
  -1766909.89346  -1349534.78943  24499873.1794   24499872.6134
 -14155435.82647 -11002581.17945  22579232.6984   22579229.1844
 -26218674.94248 -20410230.81148  20256054.2204   20256050.4204
 10  3 18  0 20 30.0000000  0  8G12G 2G30G21G31G24G14G29
 -13825301.01748 -10744078.99346  22453714.7374   22453710.8214
 -10060652.61647  -7818216.35644  23283753.6964   23283747.7004
 -26512190.53248 -20648857.61947  20283654.0464   20283650.4524
  -1770899.83646  -1365478.69043  25062705.1344   25062703.8914
 -17059620.94748 -13275588.82446  22024303.2434   22024298.8524
  -1874007.48446  -1432987.18643  24479493.0394   24479492.4124
 -14081083.83247 -10944644.56745  22593381.3894   22593377.4784
 -26234079.60248 -20422234.43448  20253122.6174   20253119.1354
 10  3 18  0 21  0.0000000  0  8G12G 2G30G21G31G24G14G29
 -13759183.15648 -10692558.58946  22466297.1134   22466292.9364
 -10029797.19446  -7794173.14644  23289624.9074   23289620.2944
 -26484310.61048 -20627133.00147  20288959.2974   20288955.7094
  -1866202.03146  -1439739.63442  25044569.7394   25044567.5234
 -17132184.67548 -13332131.97746  22010494.9944   22010490.5214
  -1981141.49846  -1516467.97544  24459106.0744   24459104.6284
 -14006361.83747 -10886419.64745  22607600.1784   22607596.8734
 -26248986.07148 -20433849.85948  20250285.6984   20250282.5774
 10  3 18  0 21 30.0000000  0  8G12G 2G30G21G31G24G14G29
 -13692925.67048 -10640929.40246  22478905.0654   22478901.1784
  -9998412.57246  -7769717.59344  23295597.1594   23295591.3884
 -26456119.05248 -20605165.56147  20294324.3084   20294320.4184
  -1961577.26946  -1514057.26643  25026419.5684   25026416.5384
 -17204442.09148 -13388436.46046  21996744.4964   21996740.4404
  -2088309.35446  -1599975.15843  24438711.7114   24438711.7244
 -13931273.31447 -10827909.11145  22621889.5494   22621885.6704
 -26263394.78348 -20445077.42248  20247543.9574   20247540.4874
 10  3 18  0 22  0.0000000  0  8G12G 2G30G21G31G24G14G29
 -13626528.29447 -10589191.20346  22491540.2244   22491536.1244
  -9966499.20646  -7744850.04144  23301670.5744   23301664.8644
 -26427615.67848 -20582955.13947  20299748.1104   20299744.8024
  -2057024.51046  -1588431.34643  25008256.8544   25008253.2614
 -17276390.82448 -13444500.41147  21983053.2274   21983048.7404
  -2195508.41846  -1683506.67743  24418313.1084   24418312.2384
 -13855821.34247 -10769115.37245  22636247.6574   22636243.4194
 -26277306.36448 -20455917.61148  20244896.8104   20244893.2764
 10  3 18  0 22 30.0000000  0  8G12G 2G30G21G31G24G14G29
 -13559992.00948 -10537344.75746  22504201.8084   22504196.9774
  -9934058.80546  -7719571.80344  23307843.7124   23307838.3334
 -26398801.45648 -20560502.51247  20305231.3034   20305227.6274
  -2152541.35046  -1662859.55243  24990081.1664   24990077.1194
 -17348029.15148 -13500322.47247  21969421.0174   21969416.1074
  -2302736.59846  -1767061.04643  24397907.2904   24397906.5004
 -13780008.86547 -10710040.72945  22650674.1594   22650670.3044
 -26290722.03748 -20466371.37648  20242343.9434   20242340.3744
 10  3 18  0 23  0.0000000  0  8G12G 2G30G21G31G24G14G29
 -13493317.46947 -10485390.57046  22516889.5504   22516885.8424
  -9901092.23346  -7693883.56344  23314116.9194   23314111.0464
 -26369676.38348 -20537807.65747  20310773.7494   20310770.3904
  -2248125.76546  -1737340.45343  24971891.4324   24971888.1714
 -17419354.52848 -13555900.68547  21955848.4534   21955843.8214
  -2409990.86646  -1850635.80343  24377497.6144   24377495.3254
 -13703839.00647 -10650687.59245  22665168.3454   22665164.5224
 -26303642.20948 -20476439.03748  20239885.2784   20239881.6654
 10  3 18  0 23 30.0000000  0  8G12G 2G30G21G31G24G14G29
 -13426504.18947 -10433328.29146  22529603.5534   22529599.6934
  -9867599.98747  -7667785.70244  23320489.7434   23320484.8004
 -26340240.54648 -20514870.64647  20316375.2354   20316371.7894
  -2343775.45246  -1811872.13543  24953688.5914   24953686.0714
 -17490364.52048 -13611233.13647  21942335.6844   21942331.2064
  -2517267.77946  -1934228.02043  24357083.8124   24357081.7954
 -13627315.18747 -10591058.65245  22679730.1184   22679726.3294
 -26316066.99448 -20486120.67948  20237520.8564   20237517.1964
 10  3 18  0 24  0.0000000  0  8G12G 2G30G21G31G24G14G29
 -13359552.49248 -10381158.15246  22542343.9644   22542340.0514
  -9833583.04646  -7641279.00744  23326963.5434   23326957.0894
 -26310494.25048 -20491691.72347  20322035.7834   20322032.1044
  -2439487.95246  -1886452.77843  24935475.3834   24935471.5474
 -17561056.90548 -13666318.11647  21928882.8934   21928878.6234
  -2624564.68246  -2017835.82843  24336665.7624   24336664.8804
 -13550439.87147 -10531155.82545  22694359.4094   22694355.8474
 -26327996.62148 -20495416.49148  20235250.6814   20235247.1214
 10  3 18  0 24 30.0000000  0  8G12G 2G30G21G31G24G14G29
 -13292462.41048 -10328880.19546  22555110.9174   22555107.1794
  -9799042.11146  -7614363.98444  23333535.8994   23333531.0504
 -26280437.37948 -20468270.78747  20327755.1304   20327751.9474
  -2535261.12146  -1961080.77343  24917249.6794   24917246.0404
 -17631429.48048 -13721153.88147  21915491.7734   21915487.5584
  -2731879.00946  -2101457.16243  24316244.7184   24316243.9694
 -13473216.03447 -10470981.42645  22709054.4084   22709050.6624
 -26339431.90748 -20504327.10048  20233074.7454   20233071.0524
 10  3 18  0 25  0.0000000  0  8G12G 2G30G21G31G24G14G29
 -13225234.58948 -10276494.87546  22567903.8574   22567899.7654
  -9763978.28146  -7587041.52844  23340208.7114   23340203.2654
 -26250070.85448 -20444608.57147  20333533.9194   20333530.3724
  -2631092.46946  -2035754.02043  24899012.6534   24899008.8714
 -17701480.10548 -13775738.78747  21902161.7024   21902157.6014
  -2839208.02146  -2185089.91443  24295820.8784   24295819.3094
 -13395646.98147 -10410538.02545  22723815.7404   22723811.6714
 -26350373.43948 -20512852.96048  20230992.6864   20230988.9854
 10  3 18  0 25 30.0000000  0  8G12G 2G30G21G31G24G14G29
 -13157869.55148 -10224002.65446  22580723.1804   22580719.3864
  -9728392.65646  -7559312.46944  23346980.9334   23346974.8634
 -26219394.32048 -20420704.79047  20339371.5534   20339367.3334
  -2726979.41446  -2110470.49243  24880764.7864   24880761.9624
 -17771206.31448 -13830070.89347  21888893.6054   21888888.7284
  -2946548.97646  -2268732.04243  24275394.1734   24275392.4584
 -13317735.75047 -10349827.97645  22738641.7644   22738637.8284
 -26360821.88748 -20520994.59948  20229004.5524   20229000.6084
 10  3 18  0 26  0.0000000  0  8G12G 2G30G21G31G24G14G29
 -13090367.06948 -10171403.34046  22593568.1294   22593564.4004
  -9692285.84446  -7531177.30244  23353851.5534   23353846.2804
 -26188407.80748 -20396559.45947  20345268.0044   20345264.2094
  -2822919.98346  -2185228.83543  24862509.3714   24862505.4544
 -17840605.51348 -13884148.18947  21875686.9174   21875682.4204
  -3053898.48747  -2352380.78043  24254965.9124   24254964.0024
 -13239485.01047 -10288853.39845  22753533.0784   22753527.8994
 -26370777.53048 -20528752.23548  20227109.6094   20227105.9304
 10  3 18  0 26 30.0000000  0  8G12G 2G30G21G31G24G14G29
 -13022727.85447 -10118697.47046  22606439.6914   22606435.5884
  -9655659.52147  -7502637.29844  23360821.1104   23360815.9784
 -26157111.94548 -20372173.08547  20351223.2934   20351219.7394
  -2918912.29846  -2260027.63743  24844241.1514   24844239.1114
 -17909676.05448 -13937969.38247  21862543.3534   21862538.8494
  -3161254.44147  -2436034.52043  24234536.6324   24234534.4154
 -13160898.55447 -10227617.20145  22768486.9654   22768482.8904
 -26380241.51848 -20536126.76648  20225308.9594   20225305.5044
 10  3 18  0 27  0.0000000  0  8G12G 2G30G21G31G24G14G29
 -12954952.00048 -10065885.13446  22619336.7724   22619332.7414
  -9618514.22147  -7473692.90044  23367889.5184   23367883.3004
 -26125506.90048 -20347545.78047  20357237.8674   20357234.3674
  -3014954.14246  -2334865.04343  24825964.4614   24825961.5034
 -17978415.51148 -13991532.59747  21849462.5254   21849457.9774
  -3268613.99747  -2519691.02843  24214105.8964   24214104.2884
 -13081979.19347 -10166121.60545  22783504.8174   22783500.3494
 -26389214.35248 -20543118.58148  20223601.2914   20223597.7214
 10  3 18  0 27 30.0000000  0  8G12G 2G30G21G31G24G14G29
 -12887038.64548 -10012965.65046  22632260.7154   22632256.0294
  -9580850.35847  -7444344.43244  23375056.8944   23375050.9994
 -26093591.70748 -20322676.80747  20363311.0594   20363307.7264
  -3111041.96946  -2409738.41843  24807679.4314   24807676.1294
 -18046820.60848 -14044835.26747  21836445.4374   21836440.9224
  -3375973.08347  -2603347.18943  24193675.9194   24193674.4974
 -13002728.94847 -10104368.17545  22798585.4114   22798581.4374
 -26397695.19849 -20549727.02648  20221987.3524   20221983.7004
 10  3 18  0 28  0.0000000  0  8G12G 2G30G21G31G24G14G29
 -12818989.29447  -9959940.18746  22645209.7604   22645205.8094
  -9542670.23947  -7414593.69844  23382321.9814   23382316.2214
 -26061368.04648 -20297567.46247  20369442.8844   20369439.1934
  -3207174.45946  -2484646.59843  24789385.4244   24789382.4534
 -18114890.35548 -14097876.62647  21823492.2684   21823487.5244
  -3483330.18446  -2687001.82043  24173246.1704   24173244.4814
 -12923152.45147 -10042360.52345  22813728.5834   22813724.8704
 -26405686.50349 -20555954.00948  20220466.7954   20220463.1344
 10  3 18  0 28 30.0000000  0  8G12G 2G30G21G31G24G14G29
 -12750803.98147  -9906808.78046  22658185.2594   22658180.6514
  -9503974.47447  -7384441.14944  23389685.8114   23389679.5434
 -26028835.82948 -20272217.68547  20375633.5014   20375629.9904
  -3303349.04946  -2559587.61643  24771084.3094   24771080.9394
 -18182622.10448 -14150654.61247  21810603.3234   21810598.9614
  -3590682.18646  -2770652.48343  24152817.3964   24152815.7434
 -12843252.06647  -9980100.50645  22828933.1854   22828929.7604
 -26413188.74448 -20561799.90848  20219039.0504   20219035.5644
 10  3 18  0 29  0.0000000  0  8G12G 2G30G21G31G24G14G29
 -12682482.93547  -9853571.60846  22671186.0284   22671182.2034
  -9464764.18147  -7353887.67844  23397147.0964   23397141.8404
 -25995995.13848 -20246627.54447  20381883.1004   20381879.6254
  -3399563.92246  -2634560.00943  24752775.1574   24752771.4014
 -18250013.71948 -14203167.55147  21797779.0234   21797774.6614
  -3698026.36946  -2854297.09943  24132390.1554   24132388.6124
 -12763031.45247  -9917590.95045  22844198.3644   22844194.8914
 -26420202.27648 -20567264.99948  20217704.5624   20217700.9454
 10  3 18  0 29 30.0000000  0  8G12G 2G30G21G31G24G14G29
 -12614026.72747  -9800229.11646  22684213.1704   22684209.0034
  -9425040.56647  -7322934.22144  23404706.5414   23404700.6634
 -25962846.32748 -20220797.31247  20388190.7354   20388187.5394
  -3495816.14346  -2709561.51143  24734458.5524   24734455.5974
 -18317062.94548 -14255413.69547  21785020.1134   21785015.7264
  -3805359.90146  -2937933.44243  24111965.5144   24111963.8604
 -12682493.47747  -9854834.08345  22859524.2434   22859521.5694
 -26426727.94848 -20572349.92748  20216462.8954   20216459.1354
 10  3 18  0 30  0.0000000  0  8G12G 2G30G21G31G24G14G29
 -12545434.75247  -9746780.82846  22697265.6914   22697261.9064
  -9384804.70647  -7291581.59144  23412363.2454   23412357.2284
 -25929389.27948 -20194726.88947  20394557.5844   20394553.8524
  -3592103.32146  -2784590.22143  24716136.2934   24716132.4644
 -18383767.14448 -14307390.99247  21772326.7754   21772322.4074
  -3912679.58146  -3021559.00144  24091542.8894   24091541.4884
 -12601641.01447  -9791832.19045  22874909.8504   22874906.4664
 -26432766.00748 -20577054.90048  20215313.6814   20215309.8564
 10  3 18  0 30 30.0000000  0  8G12G 2G30G21G31G24G14G29
 -12476707.88347  -9693227.44146  22710344.2324   22710340.2634
  -9344057.64647  -7259830.64344  23420117.2354   23420111.2234
 -25895624.37048 -20168416.57847  20400982.8704   20400979.3454
  -3688423.35146  -2859644.50043  24697806.0634   24697802.8554
 -18450124.30848 -14359097.86347  21759699.2364   21759694.9974
  -4019982.55746  -3105171.54743  24071124.4104   24071122.9324
 -12520477.15647  -9728587.62545  22890354.9474   22890352.1544
 -26438317.74649 -20581380.92348  20214257.1394   20214253.5974
 10  3 18  0 31  0.0000000  0  8G12G 2G30G21G31G24G14G29
 -12407846.21647  -9639569.02646  22723448.3484   22723444.1684
  -9302800.93247  -7227682.53744  23427967.7534   23427962.4994
 -25861552.24348 -20141866.86847  20407466.4314   20407462.9844
  -3784774.02946  -2934722.78043  24679472.1444   24679467.6074
 -18516132.40548 -14410532.74047  21747138.0564   21747133.9824
  -4127266.22347  -3188769.11043  24050709.1434   24050706.5214
 -12439005.55347  -9665103.27645  22905858.2824   22905855.4444
 -26443383.88048 -20585328.55448  20213293.3114   20213289.2594
 10  3 18  0 31 30.0000000  0  8G12G 2G30G21G31G24G14G29
 -12338849.79947  -9585805.58346  22736577.4904   22736573.3694
  -9261035.55747  -7195138.10144  23435915.4914   23435909.5794
 -25827172.88248 -20115077.75547  20414008.6934   20414005.3514
  -3881152.93546  -3009823.00243  24661131.5164   24661126.7804
 -18581788.80448 -14461693.57147  21734644.1944   21734639.7114
  -4234527.65546  -3272349.33343  24030297.6184   24030295.3424
 -12357228.96547  -9601381.28045  22921419.7194   22921416.3674
 -26447965.35948 -20588898.53848  20212421.3594   20212417.5704
 10  3 18  0 32  0.0000000  0  8G12G 2G30G21G31G24G14G29
 -12269719.21147  -9531937.62046  22749732.8424   22749729.0144
  -9218762.82147  -7162198.30244  23443959.3914   23443953.3754
 -25792486.33948 -20088049.28447  20420609.2644   20420605.7774
  -3977557.95546  -3084943.61843  24642786.3024   24642781.3714
 -18647091.72448 -14512578.96547  21722217.4774   21722212.9794
  -4341764.18146  -3355910.12343  24009891.4734   24009888.5594
 -12275150.74247  -9537424.23245  22937039.5884   22937034.9974
 -26452062.62848 -20592091.21448  20211641.9904   20211638.3034
 10  3 18  0 32 30.0000000  0  8G12G 2G30G21G31G24G14G29
 -12200454.47847  -9477965.11846  22762913.4474   22762909.5294
  -9175983.87947  -7128864.05044  23452100.0504   23452094.6844
 -25757492.70648 -20060781.52347  20427268.3494   20427265.0514
  -4073986.44646  -3160082.51443  24624436.3664   24624431.5064
 -18712038.46048 -14563186.80447  21709858.6124   21709853.9004
  -4448972.50746  -3439448.94343  23989489.4594   23989487.8254
 -12192773.96847  -9473234.53745  22952715.6354   22952711.2664
 -26455676.26948 -20594907.03548  20210953.9314   20210950.5404
 10  3 18  0 33  0.0000000  0  8G12G 2G30G21G31G24G14G29
 -12131056.08147  -9423888.46046  22776119.3234   22776115.2494
  -9132700.17247  -7095136.49844  23460337.1524   23460331.5714
 -25722192.55348 -20033274.91247  20433985.7724   20433982.5394
  -4170436.02346  -3235237.86043  24606082.0974   24606077.8004
 -18776626.89248 -14613515.45747  21697568.1904   21697563.2754
  -4556150.02546  -3522963.76744  23969094.5474   23969092.3784
 -12110101.76847  -9408814.65145  22968447.3584   22968443.3144
 -26458807.14548 -20597346.67748  20210358.1394   20210354.7214
 10  3 18  0 33 30.0000000  0  8G12G 2G30G21G31G24G14G29
 -12061523.61647  -9369707.33346  22789350.7314   22789347.7464
  -9088912.59647  -7061016.28744  23468669.5924   23468663.9834
 -25686585.27548 -20005528.99247  20440761.4334   20440758.4984
  -4266903.77746  -3310407.40143  24587725.3024   24587720.8714
 -18840854.46448 -14663562.90647  21685345.7774   21685341.2544
  -4663293.41946  -3606452.02844  23948705.8854   23948703.9514
 -12027136.60347  -9344166.47945  22984234.6714   22984231.3244
 -26461456.05548 -20599410.76448  20209854.1104   20209850.6534
 10  3 18  0 34  0.0000000  0  8G12G 2G30G21G31G24G14G29
 -11991857.16247  -9315421.79946  22802608.1544   22802604.0514
  -9044621.98247  -7026504.13044  23477097.8254   23477091.4004
 -25650671.43348 -19977544.18547  20447595.8764   20447592.7294
  -4363387.45346  -3385589.29243  24569363.7694   24569360.9654
 -18904718.71848 -14713327.26947  21673192.7664   21673187.9854
  -4770399.59746  -3689911.28044  23928324.2914   23928322.5354
 -11943881.90947  -9279292.72945  23000077.9504   23000074.2304
 -26463623.65348 -20601099.79748  20209441.5614   20209437.9824
 10  3 18  0 34 30.0000000  0  8G12G 2G30G21G31G24G14G29
 -11922057.33747  -9261032.34346  22815890.8094   22815887.0344
  -8999830.17847  -6991601.44745  23485621.7904   23485615.0684
 -25614451.68248 -19949321.01547  20454488.3054   20454485.1014
  -4459885.22646  -3460782.16743  24551001.6174   24550997.5724
 -18968218.15848 -14762807.34747  21661109.5654   21661104.9094
  -4877466.18646  -3773339.64243  23907949.8134   23907948.1964
 -11860341.39647  -9214196.22545  23015974.6164   23015971.4024
 -26465311.13548 -20602414.71348  20209120.4314   20209116.7974
 10  3 18  0 35  0.0000000  0  8G12G 2G30G21G31G24G14G29
 -11852124.81847  -9206539.48746  22829198.6154   22829193.9554
  -8954539.12647  -6956309.72045  23494239.7314   23494234.6584
 -25577926.53148 -19920859.86447  20461439.0144   20461435.4394
  -4556395.15647  -3535984.54943  24532635.9824   24532632.9414
 -19031350.58848 -14812001.45347  21649095.6594   21649091.1534
  -4984490.41747  -3856735.04143  23887583.4644   23887581.3424
 -11776518.42347  -9148879.64644  23031925.9374   23031922.1224
 -26466520.04548 -20603356.71948  20208890.6554   20208887.1734
 10  3 18  0 35 30.0000000  0  8G12G 2G30G21G31G24G14G29
 -11782059.44547  -9151943.10146  22842531.2604   22842527.4094
  -8908749.55747  -6920629.52544  23502953.1004   23502947.8944
 -25541095.74548 -19892160.56047  20468447.6434   20468443.7204
  -4652914.24047  -3611194.05144  24514269.0294   24514265.2304
 -19094113.56348 -14860907.65647  21637152.3374   21637147.6694
  -5091469.27447  -3940095.08543  23867226.6464   23867223.3414
 -11692415.82047  -9083345.16544  23047930.2204   23047926.3464
 -26467250.28648 -20603925.73348  20208751.6234   20208747.7264
 10  3 18  0 36  0.0000000  0  8G12G 2G30G21G31G24G14G29
 -11711861.45947  -9097243.39946  22855889.6264   22855885.8384
  -8862462.97047  -6884562.05044  23511761.4454   23511755.6064
 -25503959.33148 -19863223.09147  20475514.3704   20475511.1944
  -4749439.97346  -3686408.75743  24495900.0874   24495896.3044
 -19156504.76248 -14909524.17647  21625279.5894   21625275.0164
  -5198399.62247  -4023417.35344  23846878.2364   23846875.3184
 -11608036.62447  -9017595.15144  23063986.4234   23063982.6954
 -26467502.97048 -20604122.62948  20208703.6394   20208699.8734
 10  3 18  0 36 30.0000000  0  8G12G 2G30G21G31G24G14G29
 -11641530.82747  -9042440.32345  22869272.9704   22869268.7954
  -8815680.56647  -6848108.23645  23520663.7934   23520658.6684
 -25466517.42248 -19834047.59547  20482639.2144   20482635.8474
  -4845970.47446  -3761627.22743  24477530.9584   24477526.2204
 -19218521.78848 -14957849.13547  21613477.9454   21613473.5024
  -5305278.65247  -4106699.62044  23826539.7664   23826536.8784
 -11523384.01647  -8951632.09645  23080095.8704   23080091.2114
 -26467278.84549 -20603947.97848  20208746.2314   20208742.2724
 10  3 18  0 37  0.0000000  0  8G12G 2G30G21G31G24G14G29
 -11571067.47147  -8987533.82246  22882681.5374   22882677.9854
  -8768403.47247  -6811268.95144  23529660.3194   23529655.3244
 -25428770.15948 -19804634.15947  20489822.3684   20489818.8434
  -4942502.54646  -3836846.93443  24459160.8594   24459156.3364
 -19280162.22248 -15005880.64147  21601748.2774   21601743.6574
  -5412103.00047  -4189939.29044  23806211.8764   23806209.7844
 -11438461.01247  -8885458.31144  23096256.1174   23096251.9224
 -26466578.64448 -20603402.36348  20208879.3674   20208875.9494
 10  3 18  0 37 30.0000000  0  8G12G 2G30G21G31G24G14G29
 -11500472.34647  -8932524.65846  22896115.9814   22896110.9394
  -8720633.86547  -6774045.87844  23538751.1124   23538745.0344
 -25390718.39848 -19774983.43847  20497063.1564   20497059.5024
  -5039034.71746  -3912066.67343  24440791.9174   24440787.5204
 -19341424.70048 -15053617.63647  21590090.5064   21590085.8784
  -5518870.23647  -4273134.44444  23785894.7894   23785892.5944
 -11353271.19647  -8819076.64344  23112467.2034   23112462.3494
 -26465404.01848 -20602487.06248  20209102.9634   20209099.3074
 10  3 18  0 38  0.0000000  0  8G12G 2G30G21G31G24G14G29
 -11429745.91347  -8877413.15646  22909574.3844   22909570.5544
  -8672373.19347  -6736440.17544  23547934.0374   23547928.5424
 -25352362.59548 -19745095.80647  20504362.1424   20504358.6414
  -5135564.52946  -3987284.53943  24422422.8764   24422419.4274
 -19402306.70048 -15101058.16247  21578505.1594   21578500.1954
  -5625577.56947  -4356282.92944  23765588.8274   23765585.7044
 -11267817.93247  -8752489.68244  23128728.3244   23128725.2354
 -26463756.05848 -20601202.93248  20209416.4444   20209413.0794
 10  3 18  0 38 30.0000000  0  8G12G 2G30G21G31G24G14G29
 -11358888.13947  -8822199.32146  22923058.4234   22923053.9074
  -8623622.71247  -6698452.80144  23557211.0614   23557205.5174
 -25313702.63148 -19714971.16147  20511718.9604   20511715.2624
  -5232088.94447  -4062498.24444  24404054.9984   24404051.4984
 -19462805.94148 -15148200.42247  21566992.5464   21566987.6464
  -5732221.67547  -4439382.14744  23745294.7554   23745292.0204
 -11182104.06547  -8685699.68444  23145038.9134   23145035.4544
 -26461635.25448 -20599550.35248  20209820.0204   20209816.5004
 10  3 18  0 39  0.0000000  0  8G12G 2G30G21G31G24G14G29
 -11287898.77947  -8766882.95946  22936567.1864   22936563.1264
  -8574384.07247  -6660085.02844  23566581.1114   23566575.5524
 -25274738.53948 -19684609.54047  20519133.4264   20519130.2034
  -5328606.18047  -4137706.37444  24385687.8674   24385684.4044
 -19522920.28848 -15195042.77247  21555553.0014   21555548.6534
  -5838799.55446  -4522429.75544  23725013.7304   23725011.0624
 -11096133.27347  -8618709.47644  23161398.9044   23161394.8274
 -26459042.98748 -20597530.40748  20210313.3294   20210309.5674
 10  3 18  0 39 30.0000000  0  8G12G 2G30G21G31G24G14G29
 -11216777.79747  -8711464.01246  22950100.6014   22950097.0114
  -8524658.13147  -6621337.52444  23576044.1034   23576038.2394
 -25235470.15348 -19654010.80447  20526606.1694   20526602.1234
  -5425113.43446  -4212906.71743  24367323.3244   24367319.6104
 -19582647.00248 -15241583.06947  21544187.4124   21544182.8974
  -5945308.13946  -4605423.35744  23704745.4454   23704743.0034
 -11009908.06747  -8551521.03944  23177807.2534   23177803.5284
 -26455979.42248 -20595143.20548  20210896.3464   20210893.0224
 10  3 18  0 40  0.0000000  0  8G12G 2G30G21G31G24G14G29
 -11145525.70047  -8655942.92046  22963659.6504   22963656.1624
  -8474446.57947  -6582211.63944  23585598.2734   23585592.3934
 -25195898.37448 -19623175.65747  20534136.3384   20534133.0114
  -5521608.45146  -4288097.50343  24348959.6524   24348955.9914
 -19641984.60948 -15287820.16647  21532895.7544   21532891.5684
  -6051744.95246  -4688361.05544  23684490.9804   23684488.8524
 -10923431.94047  -8484137.05444  23194262.8204   23194258.3504
 -26452445.73148 -20592389.67848  20211568.9514   20211565.2244
 10  3 18  0 40 30.0000000  0  8G12G 2G30G21G31G24G14G29
 -11074142.90447  -8600319.97746  22977243.6294   22977239.9654
  -8423750.90047  -6542708.49544  23595245.9324   23595240.1954
 -25156023.15148 -19592104.06147  20541724.3864   20541720.7804
  -5618088.78146  -4363276.87643  24330600.9514   24330596.0984
 -19700930.82248 -15333752.28747  21521678.8654   21521674.5524
  -6158106.95346  -4771240.46544  23664251.2314   23664248.1064
 -10836708.11947  -8416560.04744  23210765.8254   23210760.6644
 -26448443.04949 -20589270.70448  20212330.2874   20212326.7134
 10  3 18  0 41  0.0000000  0  8G12G 2G30G21G31G24G14G29
 -11002630.08347  -8544595.70145  22990851.7894   22990847.9594
  -8372573.26747  -6502829.84344  23604983.8924   23604978.7054
 -25115844.94748 -19560796.37647  20549369.7784   20549366.2544
  -5714552.25047  -4438443.16243  24312245.1304   24312239.6514
 -19759483.24248 -15379377.55047  21510536.7154   21510532.8444
  -6264391.19846  -4854059.29644  23644025.8734   23644023.7164
 -10749740.20747  -8348792.85644  23227315.2144   23227311.0644
 -26443973.23349 -20585787.73048  20213181.1974   20213177.3344
 10  3 18  0 41 30.0000000  0  8G12G 2G30G21G31G24G14G29
 -10930986.66247  -8488769.67245  23004484.9514   23004481.9494
  -8320914.87547  -6462576.54844  23614814.7024   23614808.6484
 -25075363.81648 -19529252.64547  20557073.5364   20557069.8354
  -5810996.22047  -4513594.21043  24293891.8444   24293887.1164
 -19817639.70748 -15424694.27947  21499469.9374   21499465.9164
  -6370594.31646  -4936814.90244  23623816.5484   23623814.1184
 -10662531.13447  -8280837.75644  23243911.1804   23243906.6064
 -26439036.45249 -20581940.88648  20214120.6854   20214116.8664
 10  3 18  0 42  0.0000000  0  9G12G 2G30G21G31G24G14G16G29
 -10859212.39947  -8432841.67745  23018143.6124   23018139.1354
  -8268776.74046  -6421949.42844  23624736.0904   23624730.2274
 -25034579.44848 -19497472.62447  20564834.2744   20564830.9474
  -5907417.78547  -4588727.81644  24275543.8464   24275539.1054
 -19875397.42148 -15469700.28847  21488478.9044   21488474.6074
  -6476713.19046  -5019504.85744  23603622.7984   23603619.8914
 -10575083.23047  -8212696.54644  23260551.7564   23260547.3854
                                  25116415.7594   25116410.8924
 -26433633.49349 -20577730.78048  20215148.7024   20215144.7414
 10  3 18  0 42 30.0000000  0  9G12G 2G30G21G31G24G14G16G29
 -10787308.65347  -8376812.78646  23031826.4674   23031822.1304
  -8216161.19247  -6380950.28744  23634748.8184   23634742.7484
 -24993492.91448 -19465457.15147  20572652.9374   20572649.2494
  -6003815.43047  -4663842.75144  24257199.2574   24257195.2534
 -19932755.47248 -15514394.87747  21477563.9404   21477559.7174
  -6582745.38846  -5102127.28644  23583445.2464   23583443.3034
 -10487400.73047  -8144372.53644  23277237.0334   23277233.1604
                                  25100169.2864   25100164.8314
 -26427766.25149 -20573158.89848  20216265.2364   20216261.5484
 10  3 18  0 43  0.0000000  0  9G12G 2G30G21G31G24G14G16G29
 -10715278.40747  -8320685.32446  23045533.2934   23045529.4874
  -8163072.99347  -6339582.85444  23644851.1694   23644845.1524
 -24952107.59548 -19433208.86847  20580528.1354   20580525.2124
  -6100189.76147  -4738939.53843  24238858.9734   24238855.5464
 -19989714.72048 -15558778.71047  21466725.1524   21466720.4864
  -6688691.25546  -5184682.43244  23563284.4234   23563282.6374
 -10399490.29247  -8075870.91844  23293965.8874   23293961.6874
   -345928.53045   -260316.62542  25083925.9564   25083921.4074
 -26421439.01849 -20568228.58948  20217469.2574   20217465.7084
 10  3 18  0 43 30.0000000  0  9G12G 2G30G21G31G24G14G16G29
 -10643114.60447  -8264453.82445  23059265.2774   23059261.7174
  -8109506.42946  -6297842.68044  23655043.7854   23655038.0084
 -24910416.30948 -19400722.15947  20588462.0564   20588458.4544
  -6196531.29847  -4814010.74744  24220526.7844   24220523.1584
 -20046265.40748 -15602844.18447  21455963.8774   21455958.8974
  -6794540.47946  -5267162.29244  23543142.0234   23543140.4414
 -10311347.79447  -8007188.44544  23310738.7504   23310734.6944
   -431274.69345   -326820.07542  25067683.9684   25067679.8654
 -26414645.42848 -20562934.87448  20218761.8094   20218758.3354
 10  3 18  0 44  0.0000000  0  9G12G 2G30G21G31G24G14G16G29
 -10570819.61847  -8208120.06645  23073023.2614   23073018.8804
  -8055464.92947  -6255732.40944  23665327.9304   23665322.0724
 -24868421.34948 -19367998.82547  20596453.0344   20596449.6404
  -6292839.57247  -4889056.10843  24202199.6574   24202195.8744
 -20102407.35048 -15646591.14747  21445280.1534   21445275.5234
  -6900292.10546  -5349566.10144  23523017.3324   23523015.6504
 -10222978.21547  -7938329.03444  23327554.8354   23327550.7344
                                  25051446.1544   25051440.2354
 -26407388.32749 -20557279.98748  20220142.9584   20220139.5064
 10  3 18  0 44 30.0000000  0  9G12G 2G30G21G31G24G14G16G29
 -10498400.18647  -8151689.36945  23086803.4484   23086800.3394
  -8000957.30146  -6213258.93044  23675700.3934   23675695.4974
 -24826130.13048 -19335044.63847  20604501.1714   20604497.4064
  -6389118.56547  -4964078.61943  24183878.3374   24183874.5564
 -20158145.42148 -15690023.41347  21434673.6554   21434669.3834
  -7005950.11846  -5431896.96744  23502911.3674   23502909.6594
 -10134391.53847  -7869300.48244  23344412.2154   23344408.0024
   -601934.49545   -459801.73442  25035211.4624   25035205.1724
 -26399675.93449 -20551270.33048  20221610.6134   20221607.2944
 10  3 18  0 45  0.0000000  0  9G12G 2G30G21G31G24G14G16G29
 -10425850.09247  -8095156.84345  23100609.3084   23100605.5664
  -7945978.56246  -6170418.35744  23686163.4334   23686157.3254
 -24783536.03548 -19301854.44747  20612606.3444   20612602.8084
  -6485359.46547  -5039071.45444  24165564.1964   24165560.1574
 -20213470.94848 -15733134.21547  21424145.6534   21424141.4134
  -7111504.62846  -5514147.17244  23482825.6424   23482823.2644
 -10045584.52347  -7800100.23044  23361311.1894   23361306.8214
   -687247.75645   -526279.59142  25018977.2044   25018971.2294
 -26391502.99649 -20544901.81448  20223165.9014   20223162.1554
 10  3 18  0 45 30.0000000  0  9G12G 2G30G21G31G24G14G16G29
 -10353170.81047  -8038523.65945  23114439.6204   23114435.8304
  -7890531.79546  -6127213.06944  23696713.7074   23696707.8014
 -24740640.81148 -19268429.59647  20620768.9404   20620765.8174
  -6581561.24347  -5114033.79944  24147257.7454   24147253.7204
 -20268383.25248 -15775923.03147  21413696.1964   21413691.7894
  -7216953.97846  -5596315.46644  23462759.2684   23462756.2294
  -9956562.18747  -7730732.19544  23378251.5654   23378247.8804
   -772549.14946   -592748.21342  25002744.6104   25002739.2944
 -26382871.55148 -20538176.00848  20224808.3424   20224804.6404
 10  3 18  0 46  0.0000000  0  9G12G 2G30G21G31G24G14G16G29
 -10280362.89647  -7981790.22645  23128294.9034   23128291.1224
  -7834618.98846  -6083644.63344  23707353.7844   23707347.7994
 -24697444.63948 -19234770.25247  20628989.0784   20628985.5524
  -6677721.89447  -5188964.09444  24128958.9584   24128954.3784
 -20322880.18848 -15818388.17347  21403325.8534   21403321.1944
  -7322295.39146  -5678399.63944  23442713.3854   23442710.6254
  -9867327.35347  -7661198.57144  23395232.8524   23395227.4104
   -857838.21245   -659207.19742  24986514.4014   24986509.6474
 -26373783.18749 -20531094.16048  20226537.8794   20226533.8674
 10  3 18  0 46 30.0000000  0  9G12G 2G30G21G31G24G14G16G29
 -10207426.89547  -7924956.99145  23142173.7614   23142170.5474
  -7778241.63846  -6039714.24444  23718082.3934   23718076.2904
 -24653948.13148 -19200876.87347  20637266.0564   20637262.3824
  -6773838.78647  -5263860.29844  24110668.7184   24110663.8414
 -20376959.78748 -15860528.11847  21393034.8914   21393030.4634
  -7427526.01946  -5760397.48644  23422687.8704   23422685.9644
  -9777883.44347  -7591502.01744  23412253.2644   23412249.0974
   -943114.85446   -725656.51343  24970287.9964   24970282.2734
 -26364239.17748 -20523657.26948  20228354.0894   20228350.2734
 10  3 18  0 47  0.0000000  0  9G12G 2G30G21G31G24G14G16G29
 -10134362.14447  -7868023.42445  23156077.5574   23156074.1064
  -7721401.67546  -5995423.34444  23728897.5704   23728892.1574
 -24610151.32648 -19166749.51047  20645600.4934   20645597.2134
  -6869909.82547  -5338720.77144  24092386.7034   24092382.2824
 -20430620.27248 -15902341.48347  21382823.4334   21382818.7454
  -7532642.89146  -5842306.69344  23402685.2664   23402682.6114
  -9688233.74047  -7521645.12344  23429313.4864   23429309.8584
  -1028378.64246   -792095.82843  24954061.2674   24954057.2234
 -26354240.78848 -20515866.31648  20230256.8034   20230252.8344
 10  3 18  0 47 30.0000000  0  9G12G 2G30G21G31G24G14G16G29
 -10061169.14147  -7810989.93745  23170005.8694   23170002.1504
  -7664100.56646  -5950773.13044  23739801.7054   23739796.3974
 -24566054.10948 -19132388.05547  20653991.7774   20653988.2414
  -6965931.95347  -5413543.14844  24074113.2254   24074109.5244
 -20483858.87548 -15943826.10447  21372692.3304   21372687.9574
  -7637642.77046  -5924124.74644  23382704.4224   23382701.8594
  -9598381.53647  -7451630.46544  23446411.8824   23446408.0374
  -1113629.30946   -858524.89143  24937839.2494   24937835.2564
 -26343788.85649 -20507721.95548  20232245.4474   20232241.7344
 10  3 18  0 48  0.0000000  0  9G12G 2G30G21G31G24G14G16G29
  -9987848.10947  -7753856.67645  23183958.5784   23183954.1934
  -7606340.19446  -5905765.02844  23750793.7574   23750787.7824
 -24521657.25448 -19097793.10747  20662440.4044   20662436.8594
