     2.11           OBSERVATION DATA    G (GPS)             RINEX VERSION / TYPE
teqc  2008Oct2                          20100319 00:20:21UTCPGM / RUN BY / DATE
MSXP|IAx86-PII|bcc32 5.0|MSWin95->XP|486/DX+                COMMENT
teqc  2008Oct2      ICC                 20100319 00:18:52UTCCOMMENT
BIT 2 OF LLI FLAGS DATA COLLECTED UNDER A/S CONDITION       COMMENT
GARRAF                                                      MARKER NAME
13489M001                                                   MARKER NUMBER
ICC                 ICC                                     OBSERVER / AGENCY
4520250860          TRIMBLE NETRS       1.15                REC # / TYPE / VERS
12545487            TRM41249.00     NONE                    ANT # / TYPE
  4796983.5767   160309.1177  4187340.3773                  APPROX POSITION XYZ
        0.0540        0.0000        0.0000                  ANTENNA: DELTA H/E/N
     1     1                                                WAVELENGTH FACT L1/2
     4    L1    L2    C1    P2                              # / TYPES OF OBSERV
    30.0000                                                 INTERVAL
coordenades ajust ICC 2006.0                                COMMENT
 SNR is mapped to RINEX snr flag value [0-9]                COMMENT
  L1 & L2: min(max(int(snr_dBHz/6), 0), 9)                  COMMENT
teqc windowed: start @ 2010 Mar 18 00:00:00.000             COMMENT
teqc windowed: delta = 86399.999 sec                        COMMENT
Forced Modulo Decimation to 30 seconds                      COMMENT
  2010     3    18     0     0    0.0000000     GPS         TIME OF FIRST OBS
                                                            END OF HEADER
 10  3 18  0  0  0.0000000  0  9G30G 9G26G14G31G27G 2G12G29
 -27599996.60748 -21493496.42947  20083803.9404   20083800.0574
  35415067.21446  27599546.05944  24817855.0694   24817852.4324
   1257449.33046    988874.52942  24971354.1604   24971351.9424
 -17461788.12447 -13602137.26045  22179710.5764   22179705.9184
 -13539229.54348 -10540217.96645  22678279.2414   22678273.4604
  37011398.06246  28844813.88843  24623657.8644   24623654.3854
 -11124261.06447  -8664349.40645  23015008.3524   23015001.6514
 -17225858.65347 -13418061.04146  21866245.1854   21866241.0504
 -24248348.46148 -18883022.92247  20483706.3884   20483702.7624
 10  3 18  0  0 30.0000000  0  9G30G 9G26G14G31G27G 2G12G29
 -27587492.06748 -21483752.64246  20086183.3324   20086179.5254
  35532854.73847  27691328.45943  24840269.3214   24840266.8714
   1371601.97746   1077824.36642  24993076.5554   24993075.4124
 -17403532.31647 -13556743.10645  22190795.4744   22190791.5994
 -13622881.56848 -10605401.35145  22662360.2874   22662355.4334
  37109498.74746  28921255.86744  24642325.3234   24642322.6664
 -11115699.59947  -8657678.13545  23016637.5144   23016631.7394
 -17167003.97047 -13372200.25346  21877445.1144   21877440.6404
 -24285756.89248 -18912172.35247  20476587.9454   20476583.7354
 10  3 18  0  1  0.0000000  0  9G30G 9G26G14G31G27G 2G12G29
 -27574659.94448 -21473753.58446  20088624.9554   20088621.2374
  35650715.39147  27783167.90043  24862697.3614   24862693.6694
   1485680.14346   1166716.19243  25014784.7944   25014783.1384
 -17344804.92947 -13510981.52945  22201971.6604   22201967.0844
 -13706313.28548 -10670413.07146  22646484.0744   22646479.3424
  37207746.12647  28997812.15643  24661022.0344   24661018.7514
 -11106589.90047  -8650579.67145  23018370.9444   23018365.6914
 -17107984.12348 -13326210.77346  21888675.8974   21888672.1924
 -24322671.99048 -18940937.35947  20469562.8404   20469559.0044
 10  3 18  0  1 30.0000000  0  9G30G 9G26G14G31G27G 2G12G29
 -27561499.60048 -21463498.76746  20091129.6814   20091125.7014
  35768648.12047  27875063.56443  24885139.4954   24885134.4924
   1599681.71446   1255548.32343  25036478.8884   25036477.4504
 -17285607.67447 -13464853.80045  22213236.5184   22213231.5004
 -13789521.78947 -10735250.87145  22630649.6334   22630644.5964
  37306139.39347  29074482.16843  24679745.8394   24679741.8124
 -11096931.31747  -8643053.46945  23020209.0524   23020203.1644
 -17048798.83948 -13280092.38446  21899938.9194   21899934.9294
 -24359092.70848 -18969317.13447  20462632.3764   20462628.9654
 10  3 18  0  2  0.0000000  0  9G30G 9G26G14G31G27G 2G12G29
 -27548011.77748 -21452988.79146  20093696.1294   20093692.1544
  35886650.39546  27967013.31843  24907594.2674   24907590.7074
   1713603.56946   1344318.28742  25058158.2654   25058157.0984
 -17225944.02847 -13418362.65645  22224590.0564   22224585.5394
 -13872505.11948 -10799913.19145  22614858.6304   22614853.5164
  37404676.16646  29151263.99143  24698496.8224   24698493.0954
 -11086724.57547  -8635100.16345  23022150.9634   23022145.3684
 -16989449.70848 -13233846.32346  21911232.4714   21911228.6224
 -24395019.46248 -18997311.99447  20455796.0654   20455792.1864
 10  3 18  0  2 30.0000000  0  9G30G 9G26G14G31G27G 2G12G29
 -27534196.75148 -21442223.83446  20096325.2234   20096321.5844
  36004720.32646  28059015.75343  24930061.6394   24930059.1024
   1827442.97446   1433023.93443  25079821.2984   25079819.8574
 -17165816.74547 -13371510.23045  22236031.9534   22236028.1434
 -13955261.14447 -10864398.38945  22599110.7424   22599105.1484
  37503354.72846  29228156.28843  24717273.9594   24717271.6044
 -11075969.36947  -8626719.48845  23024197.8144   23024191.4704
 -16929936.33647 -13187472.27646  21922557.7794   21922553.1054
 -24430452.22848 -19024921.93847  20449053.5164   20449049.1484
 10  3 18  0  3  0.0000000  0  9G30G 9G26G14G31G27G 2G12G29
 -27520053.85048 -21431203.39446  20099016.4884   20099012.6664
  36122856.65846  28151069.89643  24952542.9774   24952539.4084
   1941197.71846   1521663.63143  25101468.0184   25101466.8864
 -17105227.72447 -13324298.01645  22247561.3874   22247558.4334
 -14037786.92748 -10928704.19745  22583406.5354   22583401.3984
  37602174.00845  29305158.18542  24736078.1154   24736076.2514
 -11064665.79847  -8617911.48345  23026348.9514   23026342.6654
 -16870258.97548 -13140970.43146  21933913.8044   21933909.5754
 -24465390.08348 -19052146.22347  20442404.9534   20442400.8134
 10  3 18  0  3 30.0000000  0  9G30G 9G26G14G31G27G 2G12G29
 -27505583.15648 -21419927.52446  20101770.0674   20101766.1304
  36241057.67446  28243174.46643  24975036.0114   24975031.9504
   2054865.51646   1610235.51843  25123098.5884   25123097.0854
 -17044178.94047 -13276727.54745  22259178.1944   22259175.6154
 -14120080.25048 -10992828.84546  22567746.2734   22567741.7584
  37701132.64445  29382268.54342  24754909.5704   24754908.0164
 -11052813.13647  -8608675.65645  23028603.8454   23028598.9024
 -16810417.81848 -13094340.96846  21945300.8604   21945297.1034
 -24499832.20448 -19078984.24947  20435850.4214   20435846.9244
 10  3 18  0  4  0.0000000  0  9G30G 9G26G14G31G27G 2G12G29
 -27490785.81948 -21408397.12846  20104585.9094   20104581.8234
  36359320.36346  28335327.11643  24997541.0524   24997536.4724
   2168442.64746   1698736.74443  25144712.4764   25144710.2024
 -16982674.14747 -13228801.74045  22270882.7074   22270878.9594
 -14202139.94647 -11056771.46446  22552130.7534   22552126.6194
  37800227.69146  29459485.29043  24773767.0714   24773765.4764
 -11040412.59847  -8599012.88945  23030964.1274   23030957.5744
 -16750413.86348 -13047584.64746  21956719.2864   21956714.7804
 -24533779.84548 -19105436.94847  20429390.5904   20429386.3994
 10  3 18  0  4 30.0000000  0  9G30G 9G26G14G31G27G 2G12G29
 -27475662.01448 -21396612.35846  20107464.1814   20107459.8244
  36477643.18047  28427526.61243  25020057.3784   25020052.8354
   2281926.19246   1787165.01143  25166307.0384   25166306.6674
 -16920716.38447 -13180523.00045  22282673.0244   22282668.4664
 -14283963.91548 -11120530.40445  22536560.2794   22536555.5104
  37899457.53446  29536807.06743  24792650.5744   24792648.5504
 -11027464.59047  -8588923.52145  23033428.4034   23033420.7424
 -16690248.05948 -13000702.22246  21968168.3954   21968165.0054
 -24567233.11548 -19131504.43347  20423024.8604   20423020.9294
 10  3 18  0  5  0.0000000  0  9G30G 9G26G14G31G27G 2G12G29
 -27460210.83448 -21384572.48246  20110404.0444   20110400.2544
  36596024.96546  28519772.08044  25042584.6124   25042580.1584
   2395314.85646   1875519.39443  25187885.2754   25187883.8564
 -16858307.25547 -13131892.49045  22294549.0204   22294543.9284
 -14365548.87048 -11184103.07845  22521035.2064   22521030.2204
  37998821.61946  29614233.50043  24811559.5084   24811557.2774
 -11013968.19647  -8578406.84445  23035996.3094   23035989.9054
 -16629919.82447 -12953693.21946  21979648.6834   21979643.5544
 -24600190.44848 -19157185.46147  20416753.1134   20416749.1354
 10  3 18  0  5 30.0000000  0  9G30G 9G26G14G31G27G 2G12G29
 -27444432.73248 -21372277.84546  20113406.7084   20113402.7774
  36714463.27246  28612061.62243  25065122.1264   25065118.9904
   2508605.80446   1963797.65943  25209443.9094   25209443.7404
 -16795449.40647 -13082912.36245  22306510.8764   22306506.1534
 -14446892.75447 -11247487.90145  22505555.9894   22505551.4864
  38098318.11446  29691763.01443  24830492.7284   24830490.2714
 -10999923.80547  -8567463.16345  23038669.1234   23038662.8464
 -16569429.58148 -12906557.97946  21991159.4974   21991155.2774
 -24632652.14348 -19182480.29447  20410576.2144   20410572.4414
 10  3 18  0  6  0.0000000  0  9G30G 9G26G14G31G27G 2G12G29
 -27428328.49948 -21359729.09746  20116471.4634   20116467.5354
  36832956.02746  28704393.52042  25087669.8754   25087667.9324
   2621795.56346   2051997.04243  25230984.5344   25230983.4834
 -16732146.34447 -13033585.28445  22318556.9724   22318551.5554
 -14527993.82848 -11310683.55645  22490122.7554   22490118.3824
  38197944.71646  29769393.87743  24849451.2034   24849449.4644
 -10985332.04047  -8556092.93745  23041445.5694   23041439.7734
 -16508778.60548 -12859297.49946  22002701.4154   22002697.1114
 -24664618.74648 -19207389.33247  20404492.8164   20404489.1364
 10  3 18  0  6 30.0000000  0  9G30G 9G26G14G31G27G 2G12G29
 -27411897.13948 -21346925.44546  20119598.4254   20119594.1794
  36951502.66345  28796767.37342  25110226.1514   25110225.0724
   2734882.69446   2140116.44743  25252503.4814   25252503.1684
 -16668399.55347 -12983912.45845  22330687.2594   22330683.7384
 -14608848.96648 -11373687.54346  22474736.3824   22474732.3004
  38297700.74245  29847125.61742  24868435.1044   24868432.2984
 -10970192.22948  -8544295.67045  23044326.7074   23044320.5264
 -16447966.12748 -12811911.17346  22014273.0224   22014269.2044
 -24696089.20648 -19231911.75847  20398504.2544   20398500.3224
 10  3 18  0  7  0.0000000  0  9G30G 9G26G14G31G27G 2G12G29
 -27395139.17848 -21333867.29846  20122786.9994   20122783.7184
  38645520.59345  30116781.16942  25132796.1674   25132795.7394
   2847864.58846   2228153.88843  25274003.5014   25274002.5044
 -16604212.31448 -12933896.43345  22342901.2664   22342896.9664
 -14689456.37947 -11436498.50245  22459398.0024   22459392.3184
  38397584.34045  29924956.79642  24887442.3914   24887439.0014
 -10954504.78647  -8532071.70845  23047310.9754   23047304.7954
 -16386992.44948 -12764399.22446  22025876.4354   22025871.8704
 -24727063.61648 -19256047.65047  20392610.0244   20392606.3304
 10  3 18  0  7 30.0000000  0  9G30G 9G26G14G31G27G 2G12G29
 -27378055.92648 -21320555.67547  20126037.8514   20126034.0784
  38764167.24146  30209232.95043  25155375.8824   25155373.2194
   2960737.19946   2316106.18843  25295483.4924   25295481.6704
 -16539588.05647 -12883539.85845  22355198.9364   22355195.6604
 -14769814.58248 -11499115.29746  22444106.7294   22444101.1794
  38497592.71045  30002885.01142  24906471.8204   24906469.2314
 -10938270.91947  -8519421.93045  23050401.1104   23050394.5414
 -16325859.14247 -12716762.88246  22037509.4464   22037504.9364
 -24757542.88248 -19279797.71847  20386809.9474   20386806.0564
 10  3 18  0  8  0.0000000  0  9G30G 9G26G14G31G27G 2G12G29
 -27360645.78548 -21306989.33846  20129350.7114   20129346.7094
  38882862.12546  30301722.31143  25177963.0444   25177960.7074
   3073499.42946   2403972.46643  25316940.3734   25316940.4404
 -16474528.38147 -12832844.03045  22367579.2734   22367576.1954
 -14849920.01848 -11561535.08446  22428862.5554   22428857.7014
  38597725.60945  30080910.49342  24925528.1354   24925525.5324
 -10921489.29947  -8506345.32145  23053594.4384   23053589.1724
 -16264565.36547 -12669001.52046  22049173.5434   22049169.2634
 -24787525.56448 -19303160.83447  20381104.4004   20381100.6414
 10  3 18  0  8 30.0000000  0  9G30G 9G26G14G31G27G 2G12G29
 -27342909.23248 -21293168.65346  20132726.4674   20132722.3524
  39001602.87646  30394247.45643  25200558.4064   25200556.5644
   3186148.64746   2491750.65843  25338377.2804   25338377.8024
 -16409036.11647 -12781811.11945  22380042.0754   22380038.2464
 -14929771.07748 -11623756.68146  22413667.2634   22413662.2294
  38697980.86946  30159031.29542  24944606.4594   24944603.4064
 -10904160.74747  -8492842.54345  23056892.1524   23056886.2984
 -16203111.65447 -12621115.51546  22060867.5124   22060863.2234
 -24817012.12348 -19326137.36347  20375493.2094   20375489.6604
 10  3 18  0  9  0.0000000  0  9G30G 9G26G14G31G27G 2G12G29
 -27324847.12448 -21279094.27646  20136163.1034   20136159.4594
  39120387.23746  30486806.54743  25223162.2964   25223160.7094
   3298681.91246   2579438.61543  25359792.4204   25359793.6284
 -16343114.56047 -12730443.69345  22392586.9154   22392583.3564
 -15009365.62548 -11685778.41046  22398521.1674   22398515.9574
  38798356.39046  30237245.74642  24963707.1094   24963705.2204
 -10886285.97947  -8478914.15545  23060293.4394   23060286.9804
 -16141498.83648 -12573105.54046  22072592.5474   22072587.8994
 -24846002.68948 -19348727.41547  20369976.6654   20369972.7074
 10  3 18  0  9 30.0000000  0  9G30G 9G26G14G31G27G 2G12G29
 -27306459.21548 -21264766.04147  20139662.3004   20139658.1214
  39239213.70346  30579398.39043  25245774.4734   25245772.3964
   3411096.77846   2667034.43743  25381184.4894   25381184.9994
 -16276766.18747 -12678743.65745  22405212.9204   22405208.2124
 -15088701.16448 -11747598.30146  22383424.2084   22383420.4374
  38898850.88846  30315552.89143  24982830.8384   24982829.3024
 -10867865.23447  -8464560.31945  23063798.9764   23063793.3154
 -16079727.12447 -12524971.74346  22084346.8034   22084341.9894
 -24874497.39148 -19370931.07347  20364554.3574   20364549.9874
 10  3 18  0 10  0.0000000  0  8G30G 9G26G14G31G 2G12G29
 -27287743.14948 -21250182.09746  20143224.0334   20143219.8264
  39358083.04845  30672023.65742  25268393.7134   25268391.5974
   3523393.49546   2754538.32443  25402553.6394   25402554.5834
 -16209991.25947 -12626711.25345  22417920.1874   22417915.1484
 -15167773.05848 -11809212.74446  22368376.6054   22368372.2974
 -10848896.30846  -8449779.32745  23067408.5874   23067402.6164
 -16017794.22948 -12476712.36246  22096132.2844   22096128.2034
 -24902493.37348 -19392746.12847  20359226.6354   20359223.3324
 10  3 18  0 10 30.0000000  0  9G30G 9G26G14G24G31G 2G12G29
 -27268703.90848 -21235346.32846  20146846.8544   20146843.2754
  39476988.34145  30764676.84642  25291022.2014   25291019.6764
   3635564.52746   2841944.27743  25423899.5544   25423900.4484
 -16142797.40647 -12574352.38245  22430705.8614   22430701.8864
                                  24922411.4594
 -15246583.80948 -11870623.72546  22353380.2744   22353374.8404
 -10829384.12147  -8434575.01845  23071121.3194   23071115.9574
 -15955705.50648 -12428331.54746  22107947.6564   22107943.4044
 -24929995.83248 -19414176.60747  20353993.1414   20353989.4324
 10  3 18  0 11  0.0000000  0  9G30G 9G26G14G24G31G 2G12G29
 -27249339.70648 -21220257.34146  20150531.7424   20150527.6654
  39595929.96145  30857358.42842  25313656.5674   25313653.5854
   3747609.17146   2929251.77543  25445220.7624   25445221.0324
 -16075185.57247 -12521667.85345  22443572.4964   22443567.9334
                                  24902064.3054
 -15325129.09148 -11931827.84146  22338433.8574   22338427.5484
 -10809327.25447  -8418946.31645  23074938.3154   23074931.9324
 -15893459.73348 -12379828.36246  22119792.7424   22119788.7254
 -24957002.84948 -19435221.02847  20348854.1274   20348850.1954
 10  3 18  0 11 30.0000000  0  8G30G 9G26G14G31G 2G12G29
 -27229649.89848 -21204914.63246  20154278.4964   20154274.6014
  39714906.81646  30950067.48542  25336297.4284   25336294.5674
   3859525.31146   3016459.02943  25466518.2814   25466518.1934
 -16007157.87447 -12468659.24945  22456517.0114   22456513.1484
 -15403406.07248 -11992822.87546  22323537.6674   22323533.1064
 -10788725.46047  -8402892.93445  23078858.4454   23078852.5574
 -15831055.46747 -12331201.66646  22131667.8254   22131663.1294
 -24983513.48748 -19455878.66147  20343809.0694   20343805.0024
 10  3 18  0 12  0.0000000  0  8G30G 9G26G14G31G 2G12G29
 -27209634.75748 -21189318.43446  20158087.2884   20158083.4604
  39833916.67946  31042802.19243  25358944.0514   25358942.3954
   3971311.02446   3103564.82743  25487790.3184   25487789.4084
 -15938717.10947 -12415328.79345  22469541.3444   22469537.6514
 -15481412.49448 -12053607.08846  22308693.1654   22308689.8084
 -10767579.12247  -8386415.25045  23082882.4534   23082877.1634
 -15768493.63548 -12282452.20046  22143573.1984   22143568.4114
 -25009528.01448 -19476149.71047  20338858.7264   20338854.7994
 10  3 18  0 12 30.0000000  0  8G30G 9G26G14G31G 2G12G29
 -27189294.70848 -21173469.04646  20161957.8004   20161954.2504
  39952957.38746  31135560.95943  25381597.4054   25381595.4894
   4082963.24846   3190566.72843  25509037.1294   25509035.2784
 -15869866.34847 -12361678.85445  22482642.7964   22482640.4324
 -15559146.42548 -12114178.98646  22293901.2784   22293896.5234
 -10745889.01147  -8369513.88345  23087009.8534   23087003.1464
 -15705775.09747 -12233580.61446  22155507.7964   22155503.7284
 -25035046.97248 -19496034.60847  20334002.4494   20333998.6864
 10  3 18  0 13  0.0000000  0  8G30G 9G26G14G31G 2G12G29
 -27168629.38548 -21157366.19346  20165890.4194   20165886.3714
  40072027.60246  31228342.74543  25404255.9254   25404253.7564
   4194480.40346   3277463.61643  25530257.1574   25530257.0494
 -15800607.92847 -12307711.27845  22495822.7094   22495819.6844
 -15636605.03648 -12174536.34146  22279161.1224   22279156.2374
 -10723655.21347  -8352188.84045  23091240.5254   23091234.3294
 -15642899.36148 -12184586.53646  22167472.6814   22167468.1814
 -25060069.88748 -19515532.97847  20329240.8924   20329237.1794
 10  3 18  0 13 30.0000000  0  8G30G 9G26G14G31G 2G12G29
 -27147638.89048 -21141009.96646  20169884.6104   20169880.5034
  40191125.79446  31321146.24842  25426919.1004   25426917.4434
   4305859.70745   3364253.13643  25551450.6004   25551451.4084
 -15730944.91747 -12253428.41345  22509078.9124   22509075.3934
 -15713785.99048 -12234677.34646  22264474.5694   22264468.6774
 -10700878.07847  -8334440.41145  23095575.2144   23095569.3734
 -15579867.04348 -12135470.44546  22179467.0284   22179462.5594
 -25084596.75848 -19534644.81847  20324573.5154   20324569.4124
 10  3 18  0 14  0.0000000  0  8G30G26G14G24G31G 2G12G29
 -27126324.90248 -21124401.67546  20173940.8094   20173936.9244
   4417097.17145   3450932.26243  25572616.7914   25572617.8694
 -15660881.60147 -12198833.64145  22522411.8124   22522408.7084
                                  24779673.9914
 -15790688.77548 -12294601.58746  22249840.4004   22249834.9964
 -10677559.65247  -8316270.20645  23100012.3114   23100006.7514
 -15516679.79048 -12086233.62946  22191491.4194   22191487.0834
 -25108629.88148 -19553371.92147  20320000.0294   20319996.2624
 10  3 18  0 14 30.0000000  0  8G30G26G14G24G31G 2G12G29
 -27104683.95048 -21107538.59746  20178058.6614   20178055.1424
  36036593.20645                  25593758.8714
 -15590417.48547 -12143926.53145  22535820.6974   22535817.2444
   -553677.39645                  24759224.1744
 -15867307.46948 -12354304.46446  22235259.9314   22235255.5194
 -10653696.79447  -8297675.75445  23104553.3974   23104547.2534
 -15453334.52048 -12036873.67545  22203545.5624   22203540.6074
 -25132164.94048 -19571710.93047  20315521.7024   20315518.0494
 10  3 18  0 15  0.0000000  0  8G30G26G14G24G31G 2G12G29
 -27082718.82248 -21090422.92346  20182238.3704   20182235.0594
  36147543.38945                  25614872.6994
 -15519557.89647 -12088711.27845  22549304.3224   22549300.7574
   -661209.18745                  24738758.5124
 -15943642.21248 -12413786.07946  22220734.4464   22220729.0654
 -10629293.15347  -8278659.90845  23109197.3204   23109190.4764
 -15389834.00748 -11987392.78146  22215629.0834   22215624.6984
 -25155205.30248 -19589664.44247  20311137.1984   20311133.5174
 10  3 18  0 15 30.0000000  0  8G30G26G14G24G31G 2G12G29
 -27060430.40248 -21073055.32546  20186479.9444   20186475.9344
  36258344.15346                  25635957.3014
 -15448306.52547 -12033190.72645  22562862.8014   22562858.4324
                                  24718281.4674
 -16019691.44948 -12473045.21046  22206262.0884   22206257.8364
 -10604349.52447  -8259223.33745  23113944.0254   23113937.5494
 -15326179.62847 -11937791.98046  22227742.0674   22227737.4104
 -25177751.82048 -19607233.14947  20306846.6564   20306842.7234
 10  3 18  0 16  0.0000000  0  7G30G26G14G31G 2G12G29
 -27037817.43248 -21055434.83746  20190783.0404   20190779.2214
  36368994.44245                  25657013.3544
 -15376664.76247 -11977365.97944  22576496.0594   22576491.3984
 -16095451.91348 -12532079.33746  22191845.4434   22191840.6714
 -10578865.34947  -8239365.53345  23118793.5454   23118788.5124
 -15262369.84147 -11888070.07846  22239884.6464   22239880.6634
 -25199803.42548 -19624416.21847  20302650.5654   20302646.7284
 10  3 18  0 16 30.0000000  0  8G30G26G14G24G31G 2G12G29
 -27014881.75148 -21037562.87246  20195147.5344   20195143.9554
  36479489.96545                  25678039.4114
 -15304637.08047 -11921240.52944  22590202.4204   22590198.6114
   -734368.24945                  24677301.3654
 -16170922.57648 -12590887.64246  22177483.7004   22177478.6974
 -10552842.77647  -8219088.18045  23123745.9194   23123739.6204
 -15198406.56948 -11838228.58946  22252056.9654   22252053.0324
 -25221361.77648 -19641214.92447  20298547.9294   20298544.2924
 10  3 18  0 17  0.0000000  0  7G30G14G24G31G 2G12G29
 -26991617.97748 -21019435.27146  20199574.7194   20199570.6174
 -15232221.39547 -11864812.72745  22603983.0134   22603978.0064
   -842146.32045                  24656788.3434
 -16246095.43648 -12649463.89046  22163179.2104   22163173.8344
 -10526277.17147  -8198387.69545  23128800.9204   23128794.5534
 -15134285.10747 -11788263.83246  22264259.0394   22264254.8614
 -25242421.85848 -19657625.36847  20294540.7834   20294536.5734
 10  3 18  0 17 30.0000000  0  7G30G14G24G31G 2G12G29
 -26968021.65948 -21001048.53646  20204064.9564   20204061.1824
 -15159415.51447 -11808080.86645  22617837.7624   22617833.2674
                                  24636267.7394
 -16320964.05948 -12707803.07546  22148932.1394   22148927.8674
 -10499164.52947  -8177260.97445  23133960.4954   23133953.8124
 -15070000.86648 -11738172.23146  22276491.7494   22276488.0464
 -25262978.90748 -19673643.84647  20290628.9454   20290624.8114
 10  3 18  0 18  0.0000000  0  7G30G14G24G31G 2G12G29
 -26944122.20648 -20982425.58846  20208612.4294   20208609.0444
 -15086251.91347 -11751070.26745  22631760.1664   22631756.4674
    517549.71645                  24615738.5254
 -16395555.51148 -12765926.29246  22134737.8774   22134733.9114
 -10471534.55647  -8155731.13945  23139218.0674   23139212.2384
 -15005583.47648 -11687976.87746  22288750.0694   22288745.5164
 -25283062.89248 -19689293.70547  20286806.9414   20286802.7094
 10  3 18  0 18 30.0000000  0  7G30G14G24G31G 2G12G29
 -26919891.27248 -20963544.35146  20213223.9084   20213220.1484
 -15012705.07447 -11693761.06644  22645755.7194   22645751.8694
    409608.46845                  24595196.6654
 -16469838.61248 -12823809.22146  22120601.8864   22120597.4624
 -10443359.64147  -8133776.63245  23144579.4104   23144574.1524
 -14941004.58048 -11637655.65246  22301038.8784   22301034.5164
 -25302645.37448 -19704552.77647  20283080.4254   20283076.5734
 10  3 18  0 19  0.0000000  0  7G30G14G24G31G 2G12G29
 -26895335.98648 -20944410.36546  20217896.8304   20217892.5984
 -14938784.76147 -11636160.83445  22659821.8994   22659817.9124
    301620.82945                  24574647.1344
 -16543817.86948 -12881455.38446  22106524.3174   22106519.4544
 -10414647.45947  -8111403.50145  23150043.8154   23150036.9074
 -14876271.54748 -11587214.34346  22313357.0784   22313353.2434
 -25321733.69048 -19719426.78047  20279447.8954   20279443.8034
 10  3 18  0 19 30.0000000  0  7G30G14G24G31G 2G12G29
 -26870458.05548 -20925024.96746  20222630.4694   20222626.8124
 -14864495.52247 -11578273.11944  22673958.8684   22673954.5804
    193587.62445                  24554087.7684
 -16617492.96148 -12938864.54246  22092504.5074   22092500.4624
 -10385400.31147  -8088613.55145  23155608.5634   23155603.2404
 -14811386.00648 -11536654.21246  22325704.6574   22325700.4944
 -25340329.70548 -19733917.16947  20275909.3504   20275905.4934
 10  3 18  0 20  0.0000000  0  7G30G14G24G31G 2G12G29
 -26845256.01548 -20905387.01346  20227426.2934   20227422.3844
 -14789839.03347 -11520099.24244  22688164.9114   22688160.9144
     85513.15545                  24533520.5444
 -16690860.06648 -12996033.71746  22078543.3014   22078538.9614
 -10355617.28946  -8065406.00145  23161276.5274   23161270.7924
 -14746346.83347 -11485974.35246  22338081.0574   22338076.5854
 -25358432.46948 -19748023.21547  20272464.5774   20272460.2084
 10  3 18  0 20 30.0000000  0  7G30G14G24G31G 2G12G29
 -26819731.67148 -20885497.92646  20232283.7914   20232279.6244
 -14714819.69247 -11461642.62444  22702441.0054   22702437.6864
    -22601.36145                  24512947.3094
 -16763918.21048 -13052962.14046  22064640.7264   22064635.6104
 -10325300.73147  -8041782.69745  23167045.0074   23167039.7414
 -14681155.92248 -11435176.25645  22350486.5474   22350481.5874
 -25376043.60148 -19761746.17747  20269113.1864   20269109.0364
 10  3 18  0 21  0.0000000  0  7G30G14G24G31G 2G12G29
 -26793884.73948 -20865357.46546  20237202.0654   20237198.8554
 -14639440.24547 -11402905.42444  22716785.7764   22716781.4074
   -130753.11846                  24492366.9154
 -16836665.05648 -13109647.99646  22050797.7214   22050792.4814
 -10294451.43347  -8017744.27345  23172916.0854   23172910.5634
 -14615813.58448 -11384260.16845  22362921.3314   22362915.6714
 -25393163.47748 -19775086.33747  20265855.3054   20265850.9804
 10  3 18  0 21 30.0000000  0  7G30G14G24G31G 2G12G29
 -26767715.40948 -20844965.78346  20242181.9174   20242178.5554
 -14563703.72347 -11343889.94144  22731197.4564   22731192.4034
   -238938.78046                  24471780.1834
 -16909098.07848 -13166089.30846  22037013.8794   22037009.6204
 -10263069.96347  -7993291.17845  23178887.3564   23178881.8414
 -14550319.87348 -11333226.10545  22375384.0234   22375378.7774
 -25409791.96648 -19788043.59047  20262691.0954   20262687.1284
 10  3 18  0 22  0.0000000  0  8G30G21G14G24G31G 2G12G29
 -26741223.37348 -20824322.65546  20247223.3734   20247219.9714
    325363.08145                  25052984.0044
 -14487613.06647 -11284598.53944  22745677.3954   22745672.9834
   -347156.08746                  24451186.3514
 -16981214.75347 -13222284.11546  22023290.6404   22023285.8014
 -10231156.76647  -7968423.75445  23184960.4714   23184953.3264
 -14484674.43948 -11282073.82846  22387876.0144   22387871.4384
 -25425929.50748 -19800618.29047  20259620.0984   20259616.3174
 10  3 18  0 22 30.0000000  0  8G30G21G14G24G31G 2G12G29
 -26714415.02648 -20803433.03646  20252324.5034   20252321.2804
    228960.57345                  25034636.8904
 -14411176.77747 -11225037.79344  22760222.9774   22760218.5434
   -455407.47946   -531485.28643  24430586.5024   24430582.3944
 -17053018.84447 -13278235.34446  22009626.7904   22009621.7854
 -10198719.02447  -7943147.58845  23191133.1594   23191127.0994
 -14418883.71148 -11230808.33645  22400395.8264   22400390.1154
 -25441582.77148 -19812815.63147  20256641.2094   20256637.5674
 10  3 18  0 23  0.0000000  0  8G30G21G14G24G31G 2G12G29
 -26687278.42048 -20782287.63246  20257488.3324   20257484.4514
    132496.86245                  25016279.9284
 -14334386.08547 -11165200.88545  22774835.3234   22774830.7724
   -563678.71046   -615852.13843  24409982.5384   24409980.8934
 -17124495.89448 -13333931.75446  21996025.0104   21996020.1944
 -10165745.66747  -7917454.05645  23197407.7384   23197402.9924
 -14352936.45447 -11179420.86545  22412943.9184   22412939.1494
 -25456740.20248 -19824626.60647  20253756.7724   20253753.0584
 10  3 18  0 23 30.0000000  0  8G30G21G14G24G31G 2G12G29
 -26659819.77348 -20760891.29446  20262714.1684   20262710.2874
     35968.18445                  24997909.9744
 -14257250.59747 -11105095.32744  22789513.6934   22789510.1494
   -671972.67846   -700236.63543  24389375.2634   24389373.1494
 -17195649.63148 -13389376.20746  21982484.5834   21982480.2344
 -10132243.51147  -7891348.46045  23203782.6314   23203777.2824
 -14286838.36048 -11127915.86745  22425522.6314   22425517.8034
 -25471408.02148 -19836056.07747  20250965.5204   20250962.1884
 10  3 18  0 24  0.0000000  0  8G30G21G14G24G31G 2G12G29
 -26632039.50248 -20739244.33146  20268000.4854   20267996.3514
    -60623.05545                  24979527.8264
 -14179772.97147 -11044723.17944  22804256.9984   22804252.8434
   -780286.87446   -784636.83943  24368763.6164   24368761.6894
 -17266478.00548 -13444567.13546  21969006.9954   21969002.1144
 -10098213.64147  -7864831.66445  23210258.4514   23210252.0514
 -14220589.93948 -11076293.73145  22438129.2784   22438124.6544
 -25485586.59548 -19847104.31547  20248267.7034   20248264.0634
 10  3 18  0 24 30.0000000  0  8G30G21G14G24G31G 2G12G29
 -26603936.72948 -20717346.07646  20273347.8984   20273344.0684
   -157274.13745                  24961134.9354
 -14101955.52947 -10984086.20944  22819065.4704   22819061.1124
   -888618.23746   -869050.61543  24348148.0334   24348146.4444
 -17336978.04048 -13499502.24146  21955591.4314   21955586.3364
 -10063655.98347  -7837903.63945  23216834.5254   23216827.8374
 -14154190.52447 -11024553.94545  22450764.3464   22450760.5534
 -25499275.99948 -19857771.36847  20245662.9214   20245659.1494
 10  3 18  0 25  0.0000000  0  8G30G21G14G24G31G 2G12G29
 -26575513.82448 -20695198.35846  20278756.7884   20278752.9474
   -253984.06445                  24942732.3834
 -14023803.01046 -10923188.16644  22833937.1514   22833932.7964
   -996965.23546   -953476.55343  24327530.0374   24327527.9654
 -17407149.17548 -13554181.02146  21942238.0784   21942233.4804
 -10028573.32947  -7810566.51745  23223510.1924   23223505.4794
 -14087642.24447 -10972698.15745  22463428.2274   22463423.5744
 -25512478.20848 -19868058.79347  20243150.0514   20243146.3864
 10  3 18  0 25 30.0000000  0  8G30G21G14G24G31G 2G12G29
 -26546769.53348 -20672800.21146  20284226.7134   20284222.8814
   -350749.83246                  24924319.3284
 -13945317.65247 -10862030.75244  22848872.9514   22848868.3834
  -1105323.76946  -1037911.32243  24306909.8754   24306907.5714
 -17476987.97448 -13608600.87146  21928948.1704   21928943.0834
  -9992965.88347  -7782820.42045  23230286.1854   23230281.7664
 -14020944.76147 -10920726.10845  22476120.1174   22476116.1504
 -25525192.97148 -19877966.39947  20240730.9594   20240727.3514
 10  3 18  0 26  0.0000000  0  8G30G21G14G24G31G 2G12G29
 -26517704.68048 -20650152.28646  20289757.4354   20289753.4994
   -447569.84846                  24905894.2804
 -13866503.03747 -10800616.77144  22863870.5244   22863865.7514
  -1213692.28146  -1122354.01843  24286287.1944   24286284.8844
 -17546492.67748 -13662760.40446  21915722.4674   21915716.1264
  -9956835.02747  -7754666.50445  23237161.7934   23237156.0724
 -13954098.72547 -10868638.30545  22488840.6974   22488836.7484
 -25537421.40348 -19887495.05047  20238403.5854   20238399.8984
 10  3 18  0 26 30.0000000  0  8G30G21G14G24G31G 2G12G29
 -26488317.83848 -20627253.45246  20295349.3514   20295346.0794
   -544440.23846                  24887460.0264
 -13787360.93247 -10738947.60044  22878930.8534   22878926.1394
  -1322066.46947  -1206801.13943  24265664.4744   24265662.6164
 -17615659.69848 -13716656.75146  21902559.7264   21902554.2094
  -9920180.49747  -7726104.55145  23244136.4664   23244130.6824
 -13887102.81748 -10816433.73045  22501589.9614   22501585.6834
 -25549162.55748 -19896643.99547  20236169.1044   20236165.2184
 10  3 18  0 27  0.0000000  0  8G30G21G14G24G31G 2G12G29
 -26458610.74548 -20604105.07946  20301002.5194   20300999.1554
   -641360.04346                  24869016.8284
 -13707895.76146 -10677026.67644  22894052.5824   22894046.8544
  -1430444.89547  -1291251.66043  24245040.5924   24245038.6794
 -17684488.15347 -13770289.31346  21889462.2344   21889458.1994
  -9883004.46747  -7697136.19945  23251211.2944   23251206.0554
 -13819958.75647 -10764113.68645  22514367.3244   22514362.5574
 -25560418.49148 -19905414.84647  20234027.4444   20234023.4414
 10  3 18  0 27 30.0000000  0  8G30G21G14G24G31G 2G12G29
 -26428582.60248 -20580706.52646  20306716.8154   20306713.4234
   -738326.46646                  24850565.7674
 -13628109.76246 -10614855.77744  22909235.1294   22909230.7394
  -1538823.77946  -1375702.52743  24224416.5594   24224413.8194
 -17752974.95948 -13823655.67946  21876429.5774   21876425.1034
  -9845307.61647  -7667762.01445  23258384.3014   23258379.1224
 -13752665.89947 -10711677.70545  22527172.9144   22527168.0234
 -25571188.55748 -19913807.09947  20231978.1184   20231974.4304
 10  3 18  0 28  0.0000000  0  8G30G21G14G24G31G 2G12G29
 -26398233.85448 -20557058.16446  20312491.8084   20312488.5164
   -835337.14046   -643052.88843  24832104.7664   24832101.6404
 -13548006.42746 -10552437.62144  22924478.6244   22924474.5114
  -1647200.24946  -1460151.54043  24203792.2064   24203790.7484
 -17821117.97347 -13876754.10746  21863462.0894   21863456.5544
  -9807091.04247  -7637982.86445  23265656.8014   23265650.9074
 -13685224.60247 -10659126.05245  22540006.2344   22540001.2864
 -25581473.92848 -19921821.67147  20230020.5994   20230017.2874
 10  3 18  0 28 30.0000000  0  8G30G21G14G24G31G 2G12G29
 -26367564.92548 -20533160.30846  20318327.9044   20318323.8654
   -932389.98946   -718678.18443  24813635.3224   24813631.6834
 -13467588.74346 -10489774.49544  22939781.3044   22939777.4824
  -1755571.72746  -1544596.74743  24183170.3924   24183167.5894
 -17888915.09447 -13929583.04246  21850561.0544   21850554.9914
  -9768355.95947  -7607799.69245  23273027.9934   23273022.8744
 -13617635.45547 -10606459.18745  22552868.2374   22552863.7344
 -25591275.58748 -19929459.31647  20228155.8824   20228152.0094
 10  3 18  0 29  0.0000000  0  8G30G21G14G24G31G 2G12G29
 -26336575.71948 -20509012.87246  20324225.0114   20324221.1134
  -1029482.98146   -794334.82143  24795158.9654   24795155.1814
 -13386860.16246 -10426869.12544  22955143.5284   22955139.9744
  -1863935.43046  -1629035.83543  24162549.8324   24162546.4684
 -17956363.98348 -13982140.61446  21837725.7784   21837721.4674
  -9729103.36147  -7577213.23745  23280497.3504   23280492.4974
 -13549898.55748 -10553677.19545  22565757.9764   22565752.6254
 -25600593.68848 -19936720.17047  20226382.6944   20226378.8394
 10  3 18  0 29 30.0000000  0  8G30G21G14G24G31G 2G12G29
 -26305266.61148 -20484616.15946  20330183.1134   20330178.6664
  -1126613.28246   -870020.52243  24776675.4544   24776672.5804
 -13305823.66346 -10363723.82544  22970564.8024   22970560.0544
  -1972288.69846  -1713466.78743  24141930.4324   24141926.9924
 -18023462.52747 -14034425.18846  21824957.0264   21824952.8064
  -9689334.49647  -7546224.52444  23288065.2264   23288059.7734
 -13482014.51447 -10500780.54745  22578675.8374   22578671.3194
 -25609429.07348 -19943604.87547  20224701.3234   20224697.5444
 10  3 18  0 30  0.0000000  0  8G30G21G14G24G31G 2G12G29
 -26273637.75248 -20459970.30546  20336202.1164   20336198.0434
  -1223778.74246   -945733.64343  24758184.8834   24758182.2624
 -13224482.44046 -10300341.07244  22986043.1124   22986038.9514
  -2080628.56946  -1797887.29443  24121313.8724   24121311.1594
 -18090208.26147 -14086434.85946  21812256.0724   21812250.9304
  -9649050.83047  -7514834.65545  23295731.1784   23295725.1354
 -13413983.03647 -10447769.02946  22591621.7544   22591618.3224
 -25617782.23448 -19950113.83447  20223111.6334   20223107.6534
 10  3 18  0 30 30.0000000  0  8G30G21G14G24G31G 2G12G29
 -26241689.33548 -20435075.43746  20342281.7034   20342277.9394
  -1320977.16146  -1021472.45143  24739688.3534   24739685.9574
 -13142839.46447 -10236723.18044  23001579.2174   23001575.0804
  -2188952.07346  -1882295.08843  24100700.0464   24100698.7414
 -18156599.16447 -14138168.01546  21799622.2424   21799617.1514
  -9608253.24247  -7483044.32545  23303494.5164   23303488.7764
 -13345804.90447 -10394643.22245  22604595.1624   22604591.8954
 -25625654.30248 -19956247.91447  20221613.4844   20221610.0464
 10  3 18  0 31  0.0000000  0  8G30G21G14G24G31G 2G12G29
 -26209421.73348 -20409931.85846  20348421.6764   20348418.1874
  -1418206.23646  -1097235.17943  24721186.7884   24721183.0964
 -13060898.17847 -10172872.82344  23017172.2934   23017168.0274
  -2297256.47146  -1966688.00043  24080090.3714   24080089.7314
 -18222632.89848 -14189622.87046  21787056.5524   21787052.0084
  -9566943.06247  -7450854.56945  23311355.9764   23311351.0594
 -13277480.00047 -10341403.05745  22617597.6344   22617593.5754
 -25633045.66548 -19962007.41347  20220206.8054   20220203.5334
 10  3 18  0 31 30.0000000  0  8G30G21G14G24G31G 2G12G29
 -26176835.36948 -20384539.89046  20354622.4954   20354618.5824
  -1515463.99546  -1173020.29943  24702678.0624   24702674.6474
 -12978661.81046 -10108792.55344  23032821.4374   23032817.1714
  -2405539.28846  -2051064.09743  24059484.4124   24059484.0964
 -18288307.28047 -14240797.70746  21774559.0724   21774553.9174
  -9525121.80447  -7418266.54845  23319314.2084   23319309.1034
 -13209008.81747 -10288048.92545  22630626.9694   22630623.0094
 -25639957.70048 -19967393.41247  20218891.6344   20218887.9764
 10  3 18  0 32  0.0000000  0  8G30G21G14G24G31G 2G12G29
 -26143929.24548 -20358898.76946  20360884.6254   20360880.4474
  -1612747.22546  -1248825.21243  24684166.1054   24684162.0144
 -12896132.72946 -10044484.20544  23048525.7004   23048521.6524
  -2513796.84146  -2135420.51143  24038884.7574   24038883.2534
 -18353619.58948 -14291690.41246  21762130.4404   21762125.8964
  -9482789.79647  -7385280.56744  23327369.6114   23327362.6534
 -13140390.95547 -10234580.47245  22643684.5754   22643680.2034
 -25646389.76748 -19972405.40447  20217667.7074   20217663.9984
 10  3 18  0 32 30.0000000  0  8G30G21G14G24G31G 2G12G29
 -26110704.03248 -20333008.99846  20367207.0574   20367203.5324
  -1710053.96046  -1324648.47543  24665648.7874   24665644.3494
 -12813314.64046  -9979950.62444  23064285.1104   23064279.6924
  -2622026.52846  -2219755.18543  24018288.5064   24018287.9594
 -18418567.65647 -14342299.29346  21749771.2864   21749766.3474
  -9439948.77447  -7351897.96545  23335521.9054   23335515.6644
 -13071627.07447 -10180998.24145  22656769.6164   22656766.0394
 -25652343.01048 -19977044.29547  20216534.6794   20216531.2014
 10  3 18  0 33  0.0000000  0  8G30G21G14G24G31G 2G12G29
 -26077159.90748 -20306870.72546  20373590.4394   20373586.7204
  -1807381.60846  -1400487.98843  24647128.3054   24647123.6204
 -12730210.33647  -9915194.04244  23080100.1434   23080095.5084
  -2730225.35546  -2304065.85443  23997698.7734   23997696.5034
 -18483149.05847 -14392622.48246  21737482.1334   21737476.6064
  -9396599.91747  -7318119.65545  23343771.6304   23343766.5834
 -13002717.29448 -10127302.33245  22669883.0084   22669878.5044
 -25657817.93548 -19981310.46647  20215493.0774   20215489.4354
 10  3 18  0 33 30.0000000  0  8G30G21G14G24G31G 2G12G29
 -26043297.27348 -20280484.26946  20380034.0124   20380030.6934
  -1904728.20146  -1476342.33243  24628602.9134   24628599.2894
 -12646823.33047  -9850217.17144  23095968.1384   23095964.5194
  -2838391.03646  -2388350.70743  23977115.5104   23977112.9464
 -18547362.25948 -14442658.70946  21725262.2224   21725258.1774
  -9352745.13747  -7283947.07945  23352116.8314   23352111.3874
 -12933662.33748 -10073493.27945  22683023.7034   22683018.7304
 -25662816.22548 -19985205.23447  20214541.9144   20214538.4994
 10  3 18  0 34  0.0000000  0  8G30G21G14G24G31G 2G12G29
 -26009116.85648 -20253850.17746  20386538.4844   20386534.5964
  -2002091.75046  -1552209.86443  24610075.6654   24610071.7674
 -12563157.28247  -9785022.86844  23111890.2264   23111884.7964
  -2946520.84747  -2472607.64343  23956540.1694   23956535.5624
 -18611205.00047 -14492406.32646  21713113.6484   21713109.1614
  -9308385.47947  -7249381.11145  23360557.5884   23360551.2884
 -12864462.42347 -10019571.26845  22696191.6894   22696187.4264
 -25667338.74248 -19988729.26747  20213681.4084   20213677.5294
 10  3 18  0 34 30.0000000  0  8G30G21G14G24G31G 2G12G29
 -25974618.52648 -20226968.37746  20393103.1204   20393099.3004
  -2099469.59446  -1628088.56043  24591545.7994   24591541.9084
 -12479215.16947  -9719613.41044  23127862.4324   23127858.7244
  -3054611.46847  -2556834.01343  23935970.2664   23935967.1584
 -18674675.03048 -14541863.48846  21701035.6334   21701030.4194
  -9263522.11747  -7214422.65645  23369095.0594   23369088.6844
 -12795117.49947  -9965536.27745  22709387.3274   22709383.1884
 -25671385.84848 -19991882.85447  20212911.3424   20212907.1714
 10  3 18  0 35  0.0000000  0  8G30G21G14G24G31G 2G12G29
 -25939802.16748 -20199838.76246  20399728.8524   20399724.5194
  -2196859.36046  -1703976.54543  24573012.0664   24573009.1964
 -12394999.75147  -9653991.02944  23143888.7594   23143884.5354
  -3162659.71147  -2641027.33543  23915409.5064   23915405.9894
 -18737769.64148 -14591028.11046  21689028.7664   21689024.4364
  -9218156.38347  -7179072.73445  23377728.0324   23377721.4504
 -12725627.56747  -9911388.30145  22722611.3754   22722607.4304
 -25674958.45848 -19994666.71047  20212231.5314   20212227.5054
 10  3 18  0 35 30.0000000  0  8G30G21G14G24G31G 2G12G29
 -25904667.79348 -20172461.33746  20406414.5694   20406410.4734
  -2294258.27446  -1779871.66043  24554477.5544   24554473.3334
 -12310514.15347  -9588158.11044  23159965.9324   23159962.7474
  -3270662.79347  -2725185.49843  23894856.9214   23894853.1434
 -18800486.47448 -14639898.38146  21677094.5424   21677089.8784
  -9172289.26947  -7143332.12245  23386456.5234   23386450.9144
 -12655992.78747  -9857127.47545  22735862.9544   22735858.1054
 -25678056.63348 -19997080.86847  20211641.6014   20211637.8434
 10  3 18  0 36  0.0000000  0  8G30G21G14G24G31G 2G12G29
 -25869215.77248 -20144836.38246  20413160.9204   20413156.8364
  -2391664.32446  -1855772.30643  24535941.4614   24535936.9694
 -12225761.79547  -9522117.35044  23176092.7424   23176090.0504
  -3378618.01946  -2809306.36043  23874313.4244   23874309.4674
 -18862823.78548 -14688472.90846  21665232.0464   21665227.8394
  -9125922.75147  -7107202.35245  23395279.4404   23395273.7114
 -12586213.90847  -9802754.33445  22749140.9034   22749136.5764
 -25680681.86848 -19999126.50147  20211142.1644   20211138.3524
 10  3 18  0 36 30.0000000  0  8G30G21G14G24G31G 2G12G29
 -25833445.80848 -20116963.68146  20419967.3704   20419963.7424
  -2489075.10746  -1931676.65843  24517405.5634   24517401.3674
 -12140745.49447  -9455870.90944  23192271.4384   23192268.8004
  -3486522.17347  -2893387.44443  23853780.7944   23853776.1044
 -18924778.68948 -14736749.45846  21653442.4334   21653438.0704
  -9079057.62547  -7070684.08145  23404197.0554   23404190.8524
 -12516290.45847  -9748268.54145  22762447.1064   22762443.1004
 -25682834.43348 -20000803.81247  20210732.7504   20210728.8994
 10  3 18  0 37  0.0000000  0  8G30G21G14G24G31G 2G12G29
 -25797358.78048 -20088843.93546  20426834.7114   20426831.1624
  -2586488.28146  -2007582.89643  24498867.0714   24498865.2554
 -12055469.07147  -9389421.76844  23208499.1214   23208495.8414
  -3594372.79547  -2977426.75743  23833257.3584   23833254.0194
 -18986349.58748 -14784726.78046  21641726.0054   21641720.8854
  -9031695.84947  -7033778.79645  23413210.5224   23413203.8884
 -12446223.11947  -9693670.63045  22775780.4394   22775776.7564
 -25684515.77448 -20002113.94547  20210412.6514   20210409.4174
 10  3 18  0 37 30.0000000  0  8G30G21G14G24G31G 2G12G29
 -25760954.56148 -20060477.02846  20433762.3524   20433758.3704
  -2683901.50246  -2083489.22043  24480330.4024   24480327.8644
 -11969935.16047  -9322771.98144  23224775.5164   23224771.4854
  -3702166.43446  -3061421.68444  23812744.7824   23812743.4634
 -19047534.15748 -14832403.06146  21630083.3134   21630078.3564
  -8983838.65647  -6996487.47945  23422316.9664   23422311.8774
 -12376011.96547  -9638960.66445  22789141.7944   22789137.4694
 -25685726.57248 -20003057.41747  20210181.8834   20210178.2234
 10  3 18  0 38  0.0000000  0  8G30G21G14G24G31G 2G12G29
 -25724234.09248 -20031863.68046  20440749.8464   20440745.8184
  -2781312.75246  -2159393.99743  24461794.7654   24461791.7074
 -11884147.59447  -9255924.55344  23241100.3554   23241096.8934
  -3809900.81646  -3145370.49343  23792243.8264   23792241.5214
 -19108330.39948 -14879776.76946  21618514.0314   21618509.8424
  -8935488.03247  -6958811.64645  23431517.7114   23431512.3774
 -12305657.91447  -9584139.32245  22802529.1524   22802524.6764
 -25686468.29648 -20003635.38547  20210041.1474   20210037.6034
 10  3 18  0 38 30.0000000  0  8G30G21G14G24G31G 2G12G29
 -25687197.29248 -20003003.84146  20447797.8084   20447793.5824
  -2878719.12846  -2235294.94944  24443258.7614   24443255.2844
 -11798109.37947  -9188881.79243  23257472.8984   23257468.9124
  -3917572.67146  -3229270.57043  23771753.3984   23771751.7684
 -19168736.06848 -14926846.11046  21607018.9454   21607013.8004
  -8886645.21747  -6920752.33444  23440812.5964   23440806.1314
 -12235161.03547  -9529206.71345  22815944.4364   22815938.9064
 -25686741.44548 -20003848.23047  20209988.9744   20209985.3474
 10  3 18  0 39  0.0000000  0  8G30G21G14G24G31G 2G12G29
 -25649843.83848 -19973897.24846  20454905.8164   20454901.9954
  -2976118.63547  -2311190.54143  24424724.2824   24424719.8564
 -11711823.83447  -9121646.30344  23273893.0174   23273887.0074
  -4025178.81546  -3313119.46843  23751277.3234   23751274.9744
 -19228748.71948 -14973609.22546  21595599.1924   21595593.8334
  -8837311.65747  -6882310.59544  23450200.4054   23450193.5274
 -12164520.84647  -9474162.41645  22829386.8404   22829382.5944
 -25686547.07048 -20003696.76547  20210026.2474   20210022.6504
 10  3 18  0 39 30.0000000  0  8G30G21G14G24G31G 2G12G29
 -25612174.02448 -19944544.14546  20462074.2784   20462070.3994
  -3073508.84246  -2387078.87843  24406190.5604   24406186.2784
 -11625293.95047  -9054220.41544  23290358.9014   23290353.7814
  -4132716.57947  -3396915.06744  23730813.5824   23730810.9684
 -19288366.09248 -15020064.31146  21584254.3184   21584250.0504
  -8787488.67247  -6843487.49545  23459681.3014   23459675.7094
 -12093737.75147  -9419006.74345  22842855.9204   22842851.6794
 -25685885.70548 -20003181.41947  20210151.7344   20210147.6114
 10  3 18  0 40  0.0000000  0  8G30G21G14G24G31G 2G12G29
 -25574188.06448 -19914944.69646  20469302.5514   20469299.0164
  -3170886.79046  -2462957.72843  24387660.5184   24387655.4414
 -11538522.53747  -8986606.35244  23306870.9604   23306866.0694
  -4240182.89347  -3480654.97644  23710363.6014   23710360.7804
 -19347586.07248 -15066209.77246  21572985.2944   21572980.2004
  -8737177.37147  -6804283.85744  23469255.0074   23469249.4714
 -12022811.59947  -9363739.63845  22856352.8164   22856348.2594
 -25684757.78748 -20002302.52847  20210366.5624   20210362.9404
 10  3 18  0 40 30.0000000  0  8G30G21G14G24G31G 2G12G29
 -25535886.17148 -19885099.08346  20476591.1794   20476587.2304
  -3268250.54147  -2538825.42743  24369133.2924   24369128.1904
 -11451513.18047  -8918806.87944  23323428.0834   23323423.6674
  -4347575.09347  -3564337.12144  23689928.0064   23689924.0984
 -19406406.68348 -15112043.99946  21561791.5364   21561786.3924
  -8686379.54147  -6764701.12544  23478921.7344   23478914.4384
 -11951743.13347  -9308361.63145  22869877.0194   22869872.7204
 -25683164.73448 -20001061.17547  20210669.4674   20210665.9564
 10  3 18  0 41  0.0000000  0  8G30G21G14G24G31G 2G12G29
 -25497268.44948 -19855007.35646  20483940.0684   20483936.1054
  -3365597.55646  -2614680.11444  24350608.3584   24350604.2654
 -11364269.13747  -8850824.54744  23340029.8094   23340026.7204
  -4454889.78247  -3647958.90244  23669505.4044   23669503.1924
 -19464825.17848 -15157564.90646  21550675.0194   21550669.9304
  -8635096.95447  -6724740.69744  23488680.1054   23488673.4844
 -11880532.78347  -9252873.05045  22883427.7574   22883424.2534
 -25681107.95648 -19999458.49047  20211061.1514   20211057.6204
 10  3 18  0 41 30.0000000  0  8G30G21G14G24G31G 2G12G29
 -25458335.04348 -19824669.64446  20491349.0194   20491345.5784
  -3462925.22447  -2690519.75844  24332086.9424   24332083.9204
 -11276793.45047  -8782661.68644  23356676.5874   23356672.7984
  -4562123.82046  -3731517.87844  23649099.5864   23649097.0934
 -19522839.53748 -15202770.89746  21539635.1454   21539630.8024
  -8583331.01947  -6684403.62744  23498531.0654   23498525.4044
 -11809180.02747  -9197273.53445  22897005.6444   22897002.4064
 -25678587.69048 -19997494.63947  20211540.6384   20211536.6374
 10  3 18  0 42  0.0000000  0  8G30G21G14G24G31G 2G12G29
 -25419086.80947 -19794086.61946  20498817.7774   20498814.3164
  -3560231.91347  -2766343.05844  24313570.1574   24313567.3314
 -11189089.64347  -8714321.08744  23373366.2374   23373363.0294
  -4669275.16746  -3815012.44044  23628710.0694   23628706.4304
 -19580448.11848 -15247660.71246  21528673.0024   21528668.5974
  -8531083.94747  -6643691.59944  23508473.2824   23508468.1784
 -11737685.84147  -9141563.77645  22910610.5884   22910607.2724
 -25675605.80948 -19995171.09747  20212108.3164   20212104.2784
 10  3 18  0 42 30.0000000  0  8G30G21G14G24G31G 2G12G29
 -25379523.53348 -19763258.09846  20506346.3614   20506342.7314
  -3657514.90847  -2842147.91243  24295057.6754   24295053.7144
 -11101160.71147  -8645805.05844  23390098.3874   23390094.0784
  -4776340.32846  -3898439.82244  23608336.3794   23608333.2014
 -19637648.78248 -15292232.66346  21517788.1494   21517783.0344
  -8478356.79847  -6602605.52044  23518506.5264   23518500.3034
 -11666050.39647  -9085743.97145  22924242.3214   22924238.5784
 -25672162.98948 -19992488.37847  20212763.2954   20212759.5274
 10  3 18  0 43  0.0000000  0  8G30G21G14G24G31G 2G12G29
 -25339645.80148 -19732184.54946  20513934.9204   20513930.9814
  -3754771.99447  -2917932.57643  24276549.9814   24276545.2324
 -11013010.56647  -8577116.64544  23406873.2494   23406869.3364
  -4883316.82346  -3981798.10643  23587978.3414   23587976.1404
 -19694439.67747 -15336485.30446  21506981.4714   21506975.9324
  -8425151.66247  -6561146.97244  23528631.3074   23528624.0104
 -11594273.89347  -9029814.24445  22937900.9924   22937896.8364
 -25668260.59148 -19989447.54147  20213505.8614   20213501.8184
 10  3 18  0 43 30.0000000  0  8G30G21G14G24G31G 2G12G29
 -25299453.70148 -19700866.03446  20521583.2334   20521579.3104
  -3852001.03847  -2993695.35943  24258048.4374   24258042.9654
 -10924642.32447  -8508258.28344  23423689.0594   23423685.1654
  -4990201.66646  -4065084.93744  23567638.9134   23567637.2064
 -19750818.26348 -15380416.66446  21496252.6444   21496248.1474
  -8371470.08747  -6519317.17244  23538846.8644   23538841.1294
 -11522356.63647  -8973774.84845  22951586.2634   22951583.1824
 -25663899.51248 -19986049.29347  20214335.7374   20214332.2584
 10  3 18  0 44  0.0000000  0  8G30G21G14G24G31G 2G12G29
 -25258946.74148 -19669302.18246  20529291.2344   20529287.8214
  -3949198.91647  -3069433.87043  24239552.4664   24239547.1864
 -10836058.27147  -8439231.76144  23440545.9084   23440541.9454
  -5096991.19446  -4148297.47544  23547317.4664   23547316.1374
 -19806781.70747 -15424024.53546  21485602.8704   21485598.7044
  -8317312.73347  -6477116.62944  23549152.5034   23549147.3934
 -11450298.17947  -8917625.39845  22965298.8784   22965294.6484
 -25659079.76048 -19982293.64647  20215253.0664   20215248.7664
 10  3 18  0 44 30.0000000  0  8G30G21G14G24G31G 2G12G29
 -25218125.99348 -19637493.80546  20537059.2484   20537055.4144
  -4046363.20747  -3145146.21143  24221061.8794   24221057.9424
 -10747262.04747  -8370039.90043  23457442.9234   23457439.7204
  -5203682.97146  -4231433.91344  23527014.4034   23527013.1974
 -19862328.45248 -15467307.72746  21475033.1404   21475027.9784
  -8262682.11447  -6434547.33144  23559548.3974   23559542.5544
 -11378098.99347  -8861366.31345  22979038.2464   22979033.4114
 -25653803.16948 -19978182.01947  20216256.9204   20216253.1924
 10  3 18  0 45  0.0000000  0  9G30G21G16G14G24G31G 2G12G29
 -25176991.55647 -19605441.01846  20544887.0684   20544883.3804
  -4143491.82147  -3220830.78643  24202579.0894   24202574.4014
   -324786.48945                  25122986.5124
 -10658257.10547  -8300685.42244  23474379.3594   23474376.9094
  -5310273.97046  -4314491.79244  23506731.6214   23506729.7044
 -19917456.64248 -15510264.74746  21464542.2314   21464537.6434
  -8207580.03747  -6391610.64844  23570034.1484   23570027.0404
 -11305759.64247  -8804997.97445  22992803.0924   22992799.0174
 -25648071.13948 -19973715.50647  20217348.2384   20217344.5254
 10  3 18  0 45 30.0000000  0  9G30G21G16G14G24G31G 2G12G29
 -25135548.31147 -19573147.58946  20552772.9354   20552769.8224
  -4240587.02946  -3296489.34643  24184102.5224   24184096.8594
   -411277.63946   -315354.65843  25106527.3674   25106522.6324
 -10569051.69846  -8231174.75644  23491354.5474   23491352.1364
  -5416765.68746  -4397472.29344  23486466.0824   23486465.2204
 -19972168.75748 -15552897.55646  21454130.8414   21454126.6794
  -8152012.81147  -6348311.49244  23580608.7654   23580602.0494
 -11233284.77647  -8748524.06445  23006594.8824   23006591.0324
 -25641888.82748 -19968898.11747  20218524.3404   20218520.2514
 10  3 18  0 46  0.0000000  0  9G30G21G16G14G24G31G 2G12G29
 -25093787.30947 -19540606.56346  20560719.6734   20560716.2194
  -4337637.60846  -3372113.10543  24165633.9884   24165629.0244
   -497758.86745   -382742.62342  25090072.7214   25090066.9944
 -10479639.46046  -8161502.90343  23508369.3504   23508367.0204
  -5523146.22846  -4480366.19244  23466222.6264   23466221.3024
 -20026453.48747 -15595197.35646  21443801.1764   21443795.9714
  -8095973.14947  -6304644.22345  23591271.6424   23591267.0544
 -11160665.76747  -8691937.84645  23020414.6724   23020409.9414
 -25635248.59248 -19963723.90647  20219787.9304   20219784.2344
 10  3 18  0 46 30.0000000  0  9G30G21G16G14G24G31G 2G12G29
 -25051713.33747 -19507821.66746  20568726.3774   20568722.8394
  -4434645.30547  -3447703.45644  24147174.1154   24147169.4414
   -584234.34746   -450126.05242  25073614.4724   25073610.2574
 -10390028.11247  -8091675.90744  23525422.6764   23525418.4894
  -5629416.96646  -4563174.54644  23446000.5534   23445997.5994
 -20080313.19948 -15637165.95546  21433551.5494   21433546.8424
  -8039466.92647  -6260613.41644  23602024.8694   23602018.9324
 -11087907.54647  -8635243.11845  23034259.8374   23034255.4234
 -25628155.89748 -19958197.12847  20221137.5314   20221133.6534
 10  3 18  0 47  0.0000000  0  9G30G21G16G14G24G31G 2G12G29
 -25009325.35548 -19474792.07846  20576793.1934   20576788.5534
  -4531606.86847  -3523257.83344  24128723.0534   24128718.5324
   -670702.25946   -517503.62443  25057160.6684   25057155.7074
 -10300219.78947  -8021695.38644  23542513.2024   23542509.0444
  -5735573.90446  -4645894.21144  23425799.5384   23425795.8864
 -20133744.98247 -15678801.10646  21423383.9354   21423379.2734
  -7982495.03647  -6216219.73644  23612867.0964   23612859.6474
 -11015008.30347  -8578438.52145  23048131.3914   23048127.4444
 -25620610.82848 -19952317.85147  20222573.3984   20222569.2934
 10  3 18  0 47 30.0000000  0  9G30G21G16G14G24G31G 2G12G29
 -24966624.11048 -19441518.37846  20584918.4434   20584914.7374
  -4628520.12247  -3598774.58043  24110280.9084   24110276.2634
   -757163.33146   -584875.94542  25040708.3894   25040702.9494
 -10210218.67647  -7951564.67344  23559638.7094   23559635.7604
  -5841614.65246  -4728523.33244  23405620.3604   23405616.3904
 -20186746.93647 -15720101.33446  21413298.2664   21413293.5484
  -7925059.71247  -6171464.95244  23623795.7654   23623790.0474
 -10941969.37347  -8521525.08745  23062030.1564   23062026.0414
 -25612615.05548 -19946087.37747  20224094.9954   20224090.6144
 10  3 18  0 48  0.0000000  0  9G30G21G16G14G24G31G 2G12G29
 -24923611.31947 -19408001.92946  20593103.3504   20593100.0544
  -4725384.07347  -3674252.90344  24091847.7924   24091844.1154
   -843618.60346   -652243.61142  25024256.9154   25024249.7904
 -10120028.79147  -7881286.85244  23576801.4014   23576797.7844
  -5947537.35746  -4811060.49344  23385464.1694   23385460.2804
 -20239318.51347 -15761066.18846  21403293.9854   21403289.2624
  -7867163.94347  -6126351.34244  23634812.3734   23634807.9974
 -10868792.13147  -8464503.89345  23075955.5594   23075951.8864
 -25604170.86448 -19939507.48647  20225701.6444   20225697.5794
 10  3 18  0 48 30.0000000  0  9G30G21G16G14G24G31G 2G12G29
 -24880285.86147 -19374241.84246  20601347.5804   20601344.5944
  -4822195.07247  -3749689.98244  24073426.2624   24073421.8174
   -930066.03746   -719605.25343  25007806.0784   25007799.9054
 -10029652.60647  -7810863.88443  23593999.3104   23593996.2734
  -6053337.83746  -4893502.40344  23365330.4584   23365327.0594
 -20291456.30048 -15801693.03546  21393372.8124   21393367.9834
  -7808808.33847  -6080879.44844  23645917.4654   23645911.3184
 -10795475.84747  -8407374.33445  23089907.2554   23089903.2274
 -25595278.29548 -19932578.21447  20227394.1164   20227389.8824
 10  3 18  0 49  0.0000000  0  9G30G21G16G14G24G31G 2G12G29
 -24836648.69547 -19340238.87546  20609652.1564   20609648.7254
  -4918951.12247  -3825084.25244  24055013.9684   24055009.8284
  -1016505.72246   -786960.81642  24991356.5074   24991351.8664
  -9939093.45646  -7740298.33443  23611231.7254   23611228.0524
  -6159013.62646  -4975847.15244  23345221.4734   23345218.2924
 -20343158.67348 -15841980.60146  21383533.7094   21383528.9344
  -7749995.40547  -6035051.19744  23657109.7414   23657102.8064
 -10722021.05247  -8350136.83045  23103885.3074   23103880.3084
 -25585938.91748 -19925300.77347  20229170.9634   20229167.2954
 10  3 18  0 49 30.0000000  0  9G30G21G16G14G24G31G 2G12G29
 -24792700.11348 -19305993.24146  20618015.1844   20618011.7154
  -5015649.86947  -3900433.87244  24036612.8424   24036608.8504
  -1102937.93646   -854310.59242  24974909.1564   24974905.3114
  -9848354.76246  -7669592.91443  23628498.8874   23628494.2204
  -6264561.77146  -5058092.42744  23325135.6754   23325133.1604
 -20394423.90247 -15881927.52746  21373778.0364   21373774.3854
  -7690726.57947  -5988867.68244  23668387.8774   23668382.3384
 -10648427.80247  -8292791.42445  23117889.6684   23117884.4154
 -25576154.04548 -19917676.18947  20231033.2684   20231029.2634
 10  3 18  0 50  0.0000000  0  9G30G21G16G14G24G31G 2G12G29
 -24748439.61948 -19271504.54646  20626437.7714   20626434.2334
  -5112288.53947  -3975736.69344  24018222.7204   24018218.3844
  -1189361.60446   -921653.67042  24958463.9424   24958458.2584
  -9757439.30646  -7598749.71743  23645800.0334   23645794.9974
  -6369978.89646  -5140235.57844  23305075.3824   23305073.6674
 -20445249.29448 -15921531.73646  21364106.5114   21364102.1794
  -7631003.25647  -5942330.03344  23679752.8074   23679747.7984
 -10574695.92747  -8235338.02645  23131920.4814   23131915.0994
