     2.1            OBSERVATION DATA    G (GPS)             RINEX VERSION / TYPE
GPSNet 2.70 3641                        17-Mar-10 23:59:45  PGM / RUN BY / DATE
MATA                                                        MARKER NAME
13490M001                                                   MARKER NUMBER
                                                            OBSERVER / AGENCY
Unknown             TRIMBLE NETRS       1.15                REC # / TYPE / VERS
     0                                                      RCV CLOCK OFFS APPL
0220080344          TRM29659.00                             ANT # / TYPE
  4776835.5870   202618.9947  4207574.6304                  APPROX POSITION XYZ
        0.0300        0.0000        0.0000                  ANTENNA: DELTA H/E/N
     1     1     0                                          WAVELENGTH FACT L1/2
     8    C1    P2    L1    L2    S1    S2    D1    D2      # / TYPES OF OBSERV
    30.000                                                  INTERVAL
  2010     3    18     0     0    0.0000000     GPS         TIME OF FIRST OBS
coordenades ajust ICC 2006.0                                COMMENT
                                                            END OF HEADER
 10  3 18  0  0  0.0000000  0  9G30G09G26G14G31G27G02G12G29
  20070488.536    20070484.439   -27787707.16308 -21646176.21348        54.000
        47.000        -383.036        -298.470
  24810882.247    24810878.671    -2729654.49104  -2115623.20046        38.000
        22.000       -3937.899       -3068.493
  25005691.903    25005688.776     1803263.92103   1411315.97745        37.000
        19.000       -3802.890       -2963.291
  22220592.097    22220588.255   -16627289.89406 -12945131.32547        47.000
        36.000       -1951.303       -1520.496
  22689488.013    22689483.206   -14250068.06007 -11098217.23447        48.000
        38.000        2794.859        2177.813
  24617574.335    24617571.039    -1414489.69203  -1090950.43546        37.000
        21.000       -3279.628       -2555.554
  22970934.564    22970928.351   -12350409.60306  -9612542.68247        47.000
        34.000        -268.661        -209.346
  21830872.228    21830867.512   -17651078.29407 -13744949.89847        51.000
        43.000       -1946.112       -1516.451
  20499556.653    20499552.426   -24413223.50308 -19017997.49348        53.000
        49.000        1284.019        1000.535
 10  3 18  0  0 30.0000000  0  9G30G09G26G14G31G27G02G12G29
  20072706.908    20072702.483   -27776049.92708 -21637092.65048        54.000
        47.000        -394.104        -307.094
  24833369.806    24833366.607    -2611481.25803  -2023540.24646        36.000
        22.000       -3940.423       -3070.459
  25027395.175    25027392.773     1917313.41704   1500185.45245        39.000
        19.000       -3800.530       -2961.452
  22231776.866    22231772.687   -16568513.45406 -12899331.51747        47.000
        35.000       -1967.049       -1532.765
  22673554.224    22673549.406   -14333799.39007 -11163462.42747        48.000
        38.000        2787.356        2171.966
  24636310.794    24636308.492    -1316023.22304  -1014223.44646        38.000
        22.000       -3284.627       -2559.449
  22972521.499    22972514.664   -12342073.69506  -9606047.16147        47.000
        35.000        -287.024        -223.655
  21841999.053    21841994.231   -17592607.58507 -13699388.31447        50.000
        42.000       -1951.839       -1520.913
  20492273.125    20492269.334   -24451498.47508 -19047822.14248        53.000
        48.000        1267.649         987.778
 10  3 18  0  1  0.0000000  0  9G30G09G26G14G31G27G02G12G29
  20074987.945    20074983.672   -27764061.36808 -21627750.91848        54.000
        47.000        -404.954        -315.549
  24855870.927    24855867.626    -2493236.55803  -1931401.56946        36.000
        22.000       -3942.415       -3072.012
  25049083.062    25049081.504     2031284.85503   1588994.08246        36.000
        21.000       -3797.318       -2958.949
  22243050.721    22243046.297   -16509269.02707 -12853167.03847        48.000
        35.000       -1982.337       -1544.678
  22657662.874    22657658.422   -14417307.29406 -11228533.51047        47.000
        38.000        2780.041        2166.266
  24655077.026    24655072.835    -1217411.88304   -937383.55245        38.000
        20.000       -3289.095       -2562.931
  22974211.974    22974205.675   -12333188.22607  -9599123.40147        48.000
        33.000        -305.057        -237.707
  21853158.141    21853153.219   -17533967.01407 -13653694.38247        50.000
        42.000       -1957.269       -1525.144
  20485083.159    20485078.914   -24489283.43008 -19077264.95648        53.000
        49.000        1251.613         975.283
 10  3 18  0  1 30.0000000  0  9G30G09G26G14G31G27G02G12G29
  20077332.515    20077328.206   -27751740.55308 -21618150.28848        54.000
        46.000        -416.194        -324.307
  24878385.411    24878382.223    -2374920.92603  -1839207.61846        36.000
        21.000       -3944.885       -3073.936
  25070755.524    25070754.679     2145176.62802   1677740.58546        34.000
        21.000       -3794.914       -2957.076
  22254413.176    22254408.799   -16449557.96107 -12806638.94147        48.000
        35.000       -1998.132       -1556.986
  22641814.785    22641810.168   -14500588.55707 -11293427.98847        48.000
        38.000        2772.224        2160.175
  24673869.126    24673866.245    -1118656.12503   -860431.07945        37.000
        20.000       -3294.431       -2567.089
  22976007.511    22976001.259   -12323752.05506  -9591770.55147        47.000
        33.000        -323.664        -252.206
  21864349.269    21864344.548   -17475156.00707 -13607867.63847        50.000
        42.000       -1963.127       -1529.709
  20477986.175    20477982.394   -24526576.87808 -19106324.78048        53.000
        48.000        1234.993         962.332
 10  3 18  0  2  0.0000000  0  9G30G09G26G14G31G27G02G12G29
  20079740.063    20079736.258   -27739088.51208 -21608291.55148        54.000
        46.000        -427.395        -333.035
  24900913.211    24900910.208    -2256537.45103  -1746960.80346        36.000
        22.000       -3947.156       -3075.706
  25092413.567    25092411.743     2258985.09204   1766422.10345        39.000
        19.000       -3792.204       -2954.964
  22265864.495    22265859.674   -16389384.09006 -12759750.21747        47.000
        35.000       -2013.484       -1568.948
  22626010.833    22626005.768   -14583641.48507 -11358144.53847        48.000
        38.000        2764.524        2154.175
  24692690.052    24692685.562    -1019758.66804   -783368.23445        38.000
        18.000       -3298.967       -2570.624
  22977907.508    22977901.533   -12313766.45006  -9583989.55947        47.000
        33.000        -342.131        -266.596
  21875572.590    21875567.996   -17416176.45307 -13561909.55347        50.000
        42.000       -1968.908       -1534.214
  20470983.022    20470979.056   -24563379.65408 -19135002.26748        53.000
        49.000        1218.474         949.461
 10  3 18  0  2 30.0000000  0  9G30G09G26G14G31G27G02G12G29
  20082210.739    20082206.545   -27726105.52808 -21598174.94448        56.000
        47.000        -438.427        -341.631
  24923453.794    24923449.996    -2138088.04904  -1654662.60946        38.000
        21.000       -3949.594       -3077.605
  25114054.590    25114052.104     2372707.63404   1855036.78545        39.000
        19.000       -3789.320       -2952.717
  22277402.655    22277397.993   -16328750.25006 -12712503.06847        44.000
        34.000       -2028.832       -1580.908
  22610249.783    22610244.976   -14666464.00606 -11422681.56247        47.000
        38.000        2756.769        2148.132
  24711534.883    24711532.281     -920721.38603   -706196.42546        37.000
        21.000       -3303.539       -2574.186
  22979912.578    22979906.108   -12303231.00906  -9575780.11447        47.000
        33.000        -360.482        -280.895
  21886828.163    21886823.700   -17357028.04007 -13515819.88647        49.000
        42.000       -1974.603       -1538.652
  20464073.457    20464069.161   -24599691.70008 -19163297.36148        54.000
        49.000        1202.071         936.679
 10  3 18  0  3  0.0000000  0  9G30G09G26G14G31G27G02G12G29
  20084744.721    20084740.269   -27712790.82808 -21587799.85848        53.000
        47.000        -449.298        -350.103
  24946005.869    24946003.751    -2019573.96703  -1562314.09045        36.000
        20.000       -3951.476       -3079.072
  25135679.271    25135677.734     2486342.01002   1943582.66045        35.000
        20.000       -3786.232       -2950.311
  22289028.054    22289023.828   -16267658.29106 -12664898.94947        45.000
        34.000       -2043.962       -1592.697
  22594533.870    22594528.916   -14749053.10407 -11487036.68647        49.000
        39.000        2749.091        2142.148
  24730407.623    24730405.374     -821545.23604   -628916.43446        38.000
        21.000       -3308.024       -2577.681
  22982022.244    22982015.566   -12292145.74206  -9567142.24247        44.000
        34.000        -378.654        -295.055
  21898116.171    21898111.017   -17297710.97207 -13469598.78447        50.000
        42.000       -1979.933       -1542.805
  20457256.675    20457252.832   -24635512.05608 -19191209.31948        54.000
        49.000        1185.951         924.117
 10  3 18  0  3 30.0000000  0  9G30G09G26G14G31G27G02G12G29
  20087341.295    20087337.147   -27699144.93508 -21577166.70448        54.000
        47.000        -460.434        -358.780
  24968570.468    24968567.684    -1900997.20702  -1469916.68245        35.000
        20.000       -3953.558       -3080.695
  25157285.750    25157283.959     2599885.46203   2032057.73245        36.000
        19.000       -3783.129       -2947.893
  22300740.103    22300735.866   -16206110.65406 -12616939.77347        44.000
        34.000       -2059.232       -1604.597
  22578862.994    22578857.601   -14831406.98107 -11551208.52647        49.000
        39.000        2741.158        2135.967
  24749307.830    24749303.665     -722232.20604   -551529.79346        38.000
        21.000       -3312.743       -2581.358
  22984236.097    22984229.956   -12280510.58706  -9558075.86447        47.000
        35.000        -397.050        -309.390
  21909435.730    21909430.824   -17238225.89207 -13423246.77847        50.000
        42.000       -1985.727       -1547.319
  20450534.015    20450529.775   -24670840.32008 -19218737.83448        53.000
        49.000        1169.347         911.179
 10  3 18  0  4  0.0000000  0  9G30G09G26G14G31G27G02G12G29
  20090000.842    20089996.764   -27685168.13708 -21566275.68448        54.000
        46.000        -471.418        -367.338
  24991146.992    24991143.586    -1782359.92803  -1377472.13845        37.000
        20.000       -3955.548       -3082.245
  25178874.900    25178872.283     2713335.48603   2120459.99545        36.000
        19.000       -3780.080       -2945.517
  22312538.457    22312533.920   -16144110.27206 -12568627.78947        47.000
        34.000       -2074.255       -1616.302
  22563236.626    22563230.999   -14913523.62907 -11615195.52847        50.000
        39.000        2733.246        2129.802
  24768230.835    24768228.416     -622784.21903   -474038.02845        37.000
        19.000       -3317.184       -2584.819
  22986555.399    22986548.660   -12268325.59606  -9548581.06447        47.000
        34.000        -415.407        -323.694
  21920787.215    21920782.508   -17178572.84707 -13376763.90947        51.000
        43.000       -1991.276       -1551.644
  20443904.643    20443900.546   -24705676.83108 -19245883.16348        53.000
        49.000        1152.967         898.416
 10  3 18  0  4 30.0000000  0  9G30G09G26G14G31G27G02G12G29
  20092723.627    20092719.478   -27670859.99508 -21555126.48548        53.000
        46.000        -482.510        -375.982
  25013733.599    25013731.173    -1663663.31103  -1284981.31946        36.000
        22.000       -3957.705       -3083.926
  25200445.072    25200444.636     2826689.32304   2208787.29845        38.000
        20.000       -3776.851       -2943.000
  22324421.962    22324417.669   -16081659.66406 -12519964.98247        47.000
        34.000       -2089.194       -1627.943
  22547655.951    22547650.798   -14995400.38307 -11678995.58247        49.000
        39.000        2725.103        2123.457
  24787180.016    24787177.445     -523202.34203   -396441.94545        37.000
        19.000       -3321.596       -2588.257
  22988978.184    22988972.167   -12255590.82806  -9538657.85247        47.000
        35.000        -433.760        -337.995
  21932170.689    21932166.113   -17118752.29507 -13330150.50747        50.000
        42.000       -1996.880       -1556.010
  20437369.177    20437364.997   -24740021.14008 -19272644.95048        53.000
        49.000        1136.563         885.633
 10  3 18  0  5  0.0000000  0  9G30G09G26G14G31G27G02G12G29
  20095509.515    20095505.170   -27656220.51508 -21543719.10048        54.000
        47.000        -493.669        -384.677
  25036333.138    25036329.672    -1544909.39702  -1192445.95145        35.000
        20.000       -3959.592       -3085.396
  25221998.124    25221996.445     2939944.62304   2297037.79246        38.000
        21.000       -3773.708       -2940.552
  22336391.882    22336386.913   -16018761.23207 -12470953.21247        48.000
        35.000       -2104.143       -1639.592
  22532121.827    22532115.736   -15077034.84907 -11742606.85647        49.000
        39.000        2716.971        2117.120
  24806155.926    24806153.444     -423488.10703   -318742.71445        36.000
        19.000       -3326.056       -2591.732
  22991506.279    22991500.567   -12242306.24806  -9528306.22447        47.000
        35.000        -452.033        -352.234
  21943585.988    21943581.382   -17058764.61607 -13283406.87647        51.000
        43.000       -2002.497       -1560.387
  20430927.717    20430923.544   -24773872.58208 -19299022.69148        53.000
        49.000        1120.047         872.764
 10  3 18  0  5 30.0000000  0  9G30G09G26G14G31G27G02G12G29
  20098358.273    20098354.396   -27641250.07808 -21532053.82348        54.000
        47.000        -504.482        -393.103
  25058938.635    25058936.258    -1426100.46902  -1099867.63445        34.000
        20.000       -3961.108       -3086.578
  25243530.943    25243529.404     3053098.68304   2385209.29545        39.000
        20.000       -3769.995       -2937.658
  22348445.337    22348440.472   -15955417.72306 -12421594.64247        47.000
        35.000       -2118.813       -1651.023
  22516633.329    22516628.201   -15158424.89807 -11806027.67547        49.000
        39.000        2708.936        2110.859
  24825156.584    24825153.201     -323643.28304   -240941.71545        38.000
        20.000       -3330.234       -2594.988
  22994138.830    22994133.035   -12228472.15007  -9517526.40147        48.000
        35.000        -470.263        -366.439
  21955033.006    21955028.317   -16998610.04707 -13236533.20347        51.000
        42.000       -2007.881       -1564.582
  20424579.554    20424575.250   -24807231.39208 -19325016.56748        53.000
        49.000        1103.799         860.103
 10  3 18  0  6  0.0000000  0  9G30G09G26G14G31G27G02G12G29
  20101270.021    20101266.222   -27625948.40408 -21520130.44248        54.000
        47.000        -515.599        -401.766
  25081559.615    25081556.464    -1307237.77702  -1007247.46545        34.000
        19.000       -3963.026       -3088.072
  25265043.769    25265041.767     3166149.52803   2473300.46445        37.000
        18.000       -3766.688       -2935.082
  22360583.117    22360578.725   -15891631.58606 -12371891.15747        47.000
        34.000       -2133.642       -1662.578
  22501192.249    22501187.169   -15239567.80307 -11869255.90347        49.000
        39.000        2700.611        2104.373
  24844180.870    24844177.549     -223669.19502   -163040.00845        35.000
        18.000       -3334.725       -2598.487
  22996876.167    22996870.394   -12214088.15807  -9506318.08447        49.000
        34.000        -488.627        -380.748
  21966511.612    21966507.209   -16938288.98207 -13189529.80347        51.000
        43.000       -2013.524       -1568.980
  20418325.493    20418321.559   -24840097.05008 -19350626.16048        53.000
        49.000        1087.301         847.247
 10  3 18  0  6 30.0000000  0  9G30G09G26G14G31G27G02G12G29
  20104244.952    20104240.850   -27610316.44108 -21507949.70048        54.000
        47.000        -526.516        -410.272
  25104188.958    25104185.156    -1188323.87003   -914587.39246        36.000
        21.000       -3964.455       -3089.186
  25286536.232    25286534.697     3279093.37203   2561308.22945        36.000
        19.000       -3762.922       -2932.147
  22372804.933    22372800.310   -15827406.24206 -12321845.45147        47.000
        34.000       -2148.039       -1673.797
  22485798.288    22485793.328   -15320462.31107 -11932290.57747        49.000
        39.000        2692.361        2097.944
  24863229.624    24863226.796     -123568.48603    -85039.64346        37.000
        21.000       -3338.674       -2601.564
  22999717.696    22999711.560   -12199155.53006  -9494682.26247        47.000
        33.000        -506.814        -394.920
  21978022.067    21978017.457   -16877802.49707 -13142397.48347        50.000
        42.000       -2018.884       -1573.156
  20412164.913    20412160.697   -24872470.44407 -19375852.17648        52.000
        49.000        1071.009         834.552
 10  3 18  0  7  0.0000000  0  9G30G09G26G14G31G27G02G12G29
  20107282.638    20107278.715   -27594353.52908 -21495511.06448        54.000
        47.000        -537.635        -418.936
  25126826.787    25126822.824    -1069360.06703   -821888.44845        36.000
        20.000       -3966.228       -3090.567
  25308007.639    25308007.991     3391928.77202   2649231.50445        34.000
        19.000       -3759.300       -2929.324
  22385109.849    22385105.110   -15762743.89806 -12271459.21447        47.000
        34.000       -2162.761       -1685.269
  22470452.468    22470446.690   -15401105.54007 -11995129.44447        48.000
        38.000        2683.943        2091.384
  24882301.903    24882299.322      -23341.84603     -6941.15745        36.000
        19.000       -3342.986       -2604.924
  23002663.070    23002657.690   -12183673.59206  -9482618.40147        47.000
        34.000        -525.252        -409.287
  21989563.841    21989558.691   -16817149.78407 -13095135.63247        49.000
        41.000       -2024.593       -1577.605
  20406098.576    20406093.984   -24904350.45708 -19400693.73648        53.000
        49.000        1054.431         821.634
 10  3 18  0  7 30.0000000  0  9G30G09G26G14G31G27G02G12G29
  20110382.830    20110378.533   -27578059.93408 -21482814.76348        54.000
        47.000        -548.762        -427.607
  25149473.351    25149470.233     -950347.92403   -729151.88345        36.000
        20.000       -3967.946       -3091.906
  25329458.718    25329458.800     3504652.57502   2737067.70245        34.000
        19.000       -3755.671       -2926.497
  22397497.781    22397492.995   -15697646.99706 -12220734.34447        47.000
        34.000       -2177.087       -1696.432
  22455154.793    22455149.661   -15481494.97807 -12057770.55347        48.000
        38.000        2675.305        2084.654
  24901398.219    24901395.458       77008.86903     71253.97745        36.000
        19.000       -3347.214       -2608.219
  23005713.865    23005708.367   -12167642.42506  -9470126.57847        46.000
        33.000        -543.664        -423.634
  22001137.647    22001132.476   -16756331.43207 -13047744.72547        49.000
        42.000       -2030.144       -1581.930
  20400125.621    20400121.623   -24935737.02308 -19425150.80048        53.000
        49.000        1037.908         808.759
 10  3 18  0  8  0.0000000  0  9G30G09G26G14G31G27G02G12G29
  20113546.396    20113542.269   -27561435.94608 -21469861.00848        54.000
        46.000        -559.890        -436.278
  25172130.781    25172127.648    11772070.08602   9184420.41445        34.000
        18.000       -3969.338       -3092.991
  25350888.491    25350887.558     3617262.47102   2824815.33045        35.000
        18.000       -3751.985       -2923.625
  22409966.781    22409962.555   -15632118.97106 -12169673.55547        46.000
        34.000       -2191.648       -1707.777
  22439905.602    22439900.489   -15561628.85907 -12120212.52347        49.000
        39.000        2666.619        2077.885
  24920518.577    24920514.515      177481.53704    149544.12045        38.000
        19.000       -3351.379       -2611.464
  23008869.198    23008863.306   -12151062.70106  -9457207.31347        47.000
        34.000        -562.024        -437.941
  22012742.017    22012737.055   -16695348.42906 -13000225.49447        47.000
        41.000       -2035.730       -1586.283
  20394247.077    20394242.514   -24966630.54707 -19449223.67048        52.000
        49.000        1021.311         795.827
 10  3 18  0  8 30.0000000  0  9G30G09G26G14G31G27G02G12G29
  20116772.832    20116768.887   -27544481.64308 -21456649.87348        53.000
        47.000        -570.769        -444.755
  25194794.613    25194791.598    11891171.96102   9277226.89945        34.000
        18.000       -3970.974       -3094.265
  25372295.718    25372295.484     3729755.80602   2912472.13945        35.000
        19.000       -3747.834       -2920.390
  22422517.789    22422513.618   -15566162.38406 -12118278.81547        47.000
        34.000       -2205.827       -1718.827
  22424705.702    22424700.388   -15641505.26907 -12182453.86847        49.000
        39.000        2658.152        2071.287
  24939660.369    24939656.789      278074.31203    227927.87545        37.000
        18.000       -3355.290       -2614.512
  23012128.331    23012122.501   -12133934.84106  -9443860.93347        46.000
        34.000        -580.227        -452.125
  22024377.701    22024373.156   -16634201.00206 -12952578.15247        47.000
        42.000       -2041.155       -1590.510
  20388461.794    20388457.672   -24997031.08007 -19472912.38748        52.000
        49.000        1004.944         783.073
 10  3 18  0  9  0.0000000  0  9G30G09G26G14G31G27G02G12G29
  20120061.734    20120057.337   -27527197.15108 -21443181.42948        54.000
        47.000        -581.708        -453.279
  25217466.546    25217463.907    12010316.19802   9370066.44745        34.000
        18.000       -3972.383       -3095.363
  25393680.741    25393679.307     3842129.98004   3000036.03846        38.000
        21.000       -3743.965       -2917.375
  22435150.145    22435145.971   -15499779.71006 -12066552.07147        46.000
        34.000       -2219.956       -1729.836
  22409555.708    22409550.043   -15721121.35607 -12244492.38047        50.000
        40.000        2649.385        2064.456
  24958826.241    24958822.348      378785.61703    306403.89045        37.000
        20.000       -3358.999       -2617.401
  23015492.401    23015486.205   -12116258.79506  -9430087.38547        46.000
        33.000        -598.393        -466.280
  22036045.071    22036040.332   -16572889.24506 -12904802.76347        47.000
        41.000       -2046.552       -1594.716
  20382770.941    20382766.429   -25026938.04107 -19496216.51048        52.000
        49.000         988.599         770.337
 10  3 18  0  9 30.0000000  0 10G30G09G26G14G24G31G27G02G12G29
  20123413.900    20123409.472   -27509583.31108 -21429456.37448        54.000
        47.000        -592.584        -461.754
  25240147.509    25240143.655    12129500.08603   9462936.82545        36.000
        20.000       -3973.439       -3096.186
  25415041.959    25415041.034     3954381.60905   3087504.47845        40.000
        19.000       -3739.469       -2913.872
  22447863.146    22447858.669   -15432974.66106 -12014496.19247        47.000
        33.000       -2233.800       -1740.623
  24985882.554                            .00012          .00051
                      3568.304        2780.497
  22394455.063    22394449.517   -15800475.71707 -12306326.94947        50.000
        40.000        2640.883        2057.831
  24978011.667    24978009.352      479613.41702    384970.80745        35.000
        18.000       -3362.628       -2620.229
  23018959.629    23018953.784   -12098036.04706  -9415887.83947        47.000
        33.000        -616.486        -480.378
  22047743.421    22047738.410   -16511414.44207 -12856900.34147        48.000
        42.000       -2051.827       -1598.827
  20377173.479    20377169.288   -25056352.65107 -19519136.97548        52.000
        49.000         972.328         757.658
 10  3 18  0 10  0.0000000  0  9G30G09G26G14G24G31G02G12G29
  20126828.396    20126824.187   -27491639.47408 -21415474.16448        54.000
        47.000        -603.641        -470.370
  25262834.661    25262830.936    12248722.67903   9555837.39646        36.000
        21.000       -3974.491       -3097.006
  25436379.599    25436377.907     4066509.33804   3174876.45045        38.000
        18.000       -3735.389       -2910.693
  22460655.614    22460651.347   -15365749.23506 -11962112.75247        47.000
        34.000       -2247.845       -1751.568
  24965503.885    24965504.152      214500.02203    185393.27945        37.000
        19.000        3571.031        2782.622
  22379404.881    22379399.430   -15879565.39007 -12367955.26247        50.000
        40.000        2631.842        2050.786
  23022531.426    23022524.911   -12079265.98506  -9401261.80647        47.000
        33.000        -634.833        -494.675
  22059472.492    22059468.124   -16449776.09407 -12808870.46847        49.000
        41.000       -2057.440       -1603.200
  20371669.924    20371665.607   -25085273.75107 -19541672.89448        52.000
        49.000         955.773         744.758
 10  3 18  0 10 30.0000000  0  9G30G09G26G14G24G31G02G12G29
  20130305.716    20130301.650   -27473364.77708 -21401234.14148        54.000
        47.000        -614.632        -478.934
  25285529.986    25285526.085    12367982.85903   9648767.19145        37.000
        19.000       -3975.941       -3098.136
  25457691.641    25457692.112     4178511.66902   3262150.88145        35.000
        18.000       -3731.214       -2907.440
  22473527.890    22473523.092   -15298105.17906 -11909403.09347        47.000
        34.000       -2261.712       -1762.373
  24945107.588    24945108.063      107320.09503    101876.73645        36.000
        19.000        3574.264        2785.141
  22364405.682    22364399.851   -15958387.13207 -12429374.80047        50.000
        40.000        2622.970        2043.873
  23026207.822    23026201.372   -12059947.79206  -9386208.66647        47.000
        34.000        -653.026        -508.851
  22071233.417    22071228.691   -16387973.72207 -12760712.78147        50.000
        41.000       -2062.796       -1607.374
  20366260.290    20366255.992   -25113700.70107 -19563823.75048        52.000
        50.000         939.259         731.890
 10  3 18  0 11  0.0000000  0  9G30G09G26G14G24G31G02G12G29
  20133846.086    20133841.972   -27454760.28308 -21386737.13848        54.000
        46.000        -625.620        -487.496
  25308230.958    25308228.158    12487278.10403   9741724.33346        36.000
        21.000       -3977.032       -3098.986
  25478981.452    25478980.869     4290384.82203   3349324.65445        37.000
        18.000       -3726.846       -2904.036
  22486478.832    22486474.345   -15230046.42106 -11856370.30947        47.000
        34.000       -2275.464       -1773.089
  24924695.556    24924695.081          49.44703     18289.24645        36.000
        17.000        3577.114        2787.362
  22349457.485    22349451.873   -16036939.40907 -12490584.37547        50.000
        40.000        2613.906        2036.810
  23029988.109    23029981.369   -12040082.91306  -9370729.53247        47.000
        34.000        -671.280        -523.075
  22083025.148    22083020.209   -16326008.92507 -12712428.54147        49.000
        42.000       -2068.145       -1611.541
  20360944.798    20360940.697   -25141634.38707 -19585590.25648        52.000
        50.000         922.978         719.204
 10  3 18  0 11 30.0000000  0  9G30G09G26G14G24G31G02G12G29
  20137449.438    20137445.095   -27435825.93808 -21371983.10648        54.000
        47.000        -636.607        -496.057
  25330938.356    25330935.038    12606606.69203   9834707.48045        37.000
        19.000       -3978.125       -3099.838
  25500245.602    25500244.644     4402126.65903   3436396.21145        36.000
        17.000       -3722.671       -2900.783
  22499508.847    22499504.289   -15161575.60806 -11803016.43447        47.000
        34.000       -2289.150       -1783.754
  24904263.161    24904264.194     -107308.89200    -65366.61345        30.000
        18.000        3580.112        2789.698
  22334561.023    22334555.698   -16115220.03907 -12551582.26947        50.000
        40.000        2604.795        2029.710
  23033872.144    23033865.380   -12019671.66606  -9354824.65347        47.000
        34.000        -689.487        -537.263
  22094847.516    22094843.051   -16263880.92907 -12664017.13047        49.000
        41.000       -2073.555       -1615.757
  20355723.068    20355718.398   -25169074.52607 -19606972.17348        52.000
        50.000         906.440         706.317
 10  3 18  0 12  0.0000000  0  9G30G09G26G14G24G31G02G12G29
  20141115.059    20141110.875   -27416561.92408 -21356972.18748        53.000
        46.000        -647.682        -504.688
  25353650.621    25353649.244    12725966.58503   9927715.00745        37.000
        19.000       -3979.284       -3100.741
  25521483.677    25521483.207     4513734.81302   3523363.71745        35.000
        19.000       -3718.151       -2897.260
  22512616.155    22512612.107   -15092695.49406 -11749343.64347        47.000
        35.000       -2302.819       -1794.405
  24883820.065    24883818.935     -214752.70803   -149089.31245        36.000
        18.000        3582.830        2791.816
  22319716.889    22319711.680   -16193226.60607 -12612366.60247        50.000
        41.000        2595.555        2022.510
  23037859.835    23037853.706   -11998714.34906  -9338494.26547        47.000
        34.000        -707.770        -551.509
  22106700.995    22106696.461   -16201590.57307 -12615479.20447        48.000
        41.000       -2079.098       -1620.077
  20350595.234    20350591.248   -25196021.24207 -19627969.60548        52.000
        50.000         889.974         693.486
 10  3 18  0 12 30.0000000  0  9G30G09G26G14G24G31G02G12G29
  20144843.641    20144839.300   -27396968.43808 -21341704.53848        53.000
        46.000        -658.659        -513.241
  25376370.714    25376368.489    12845355.58404  10020745.10645        38.000
        18.000       -3980.158       -3101.422
  25542695.806    25542694.835     4625206.05303   3610224.59245        36.000
        20.000       -3713.459       -2893.604
  22525800.721    22525796.662   -15023409.02806 -11695354.18747        47.000
        33.000       -2316.277       -1804.891
  24863359.825    24863358.070     -322280.01603   -232877.35645        36.000
        17.000        3585.803        2794.133
  22304925.057    22304919.483   -16270957.08607 -12672935.80947        50.000
        39.000        2586.365        2015.349
  23041952.125    23041946.004   -11977211.63606  -9321738.91447        46.000
        34.000        -725.886        -565.625
  22118585.305    22118580.518   -16139138.44407 -12566815.21647        49.000
        41.000       -2084.514       -1624.297
  20345561.255    20345557.037   -25222474.87607 -19648582.82048        51.000
        50.000         873.528         680.671
 10  3 18  0 13  0.0000000  0  9G30G09G26G14G24G31G02G12G29
  20148634.482    20148630.889   -27377045.57608 -21326180.23448        53.000
        46.000        -669.700        -521.844
  25399094.693    25399092.463    12964771.92004  10113796.53745        38.000
        20.000       -3980.902       -3102.001
  25563881.145    25563880.626     4736538.86002   3696977.72545        35.000
        20.000       -3708.943       -2890.086
  22539062.088    22539058.018   -14953719.02206 -11641050.28547        47.000
        34.000       -2329.798       -1815.427
  24842880.940    24842879.513     -429887.16302   -316727.35445        35.000
        18.000        3587.838        2795.718
  22290186.381    22290181.376   -16348409.02707 -12733287.95747        49.000
        39.000        2576.926        2007.994
  23046146.949    23046140.760   -11955163.98206  -9304558.91447        44.000
        33.000        -744.027        -579.761
  22130500.429    22130495.184   -16076524.66507 -12518025.26447        48.000
        41.000       -2089.862       -1628.464
  20340620.969    20340616.813   -25248435.38407 -19668811.78148        52.000
        50.000         857.038         667.822
 10  3 18  0 13 30.0000000  0  9G30G09G26G14G24G31G02G12G29
  20152488.720    20152484.329   -27356793.32508 -21310399.26548        54.000
        47.000        -680.574        -530.317
  25421824.877    25421822.238    13084214.24104  10206868.25745        38.000
        18.000       -3981.800       -3102.701
  25585039.641    25585038.457     4847730.35103   3783621.03445        36.000
        18.000       -3703.963       -2886.205
  22552400.313    22552395.951   -14883628.40906 -11586434.23047        47.000
        33.000       -2342.977       -1825.696
  24822389.842    24822390.037     -537571.35202   -400637.10945        35.000
        16.000        3590.769        2798.001
  22275501.409    22275496.315   -16425580.09507 -12793421.24947        50.000
        40.000        2567.717        2000.818
  23050446.494    23050440.015   -11932571.71206  -9286954.53547        45.000
        33.000        -762.180        -593.907
  22142445.626    22142441.255   -16013749.69007 -12469109.69847        48.000
        41.000       -2095.183       -1632.610
  20335774.960    20335770.834   -25273902.69507 -19688656.42848        52.000
        50.000         840.725         655.110
 10  3 18  0 14  0.0000000  0  8G30G26G14G24G31G02G12G29
  20156404.862    20156400.826   -27336213.13208 -21294362.75648        53.000
        46.000        -691.540        -538.862
  25606170.816    25606169.702     4958776.93703   3870151.45745        37.000
        19.000       -3699.196       -2882.491
  22565813.197    22565809.205   -14813141.27106 -11531509.20147        46.000
        33.000       -2356.145       -1835.957
  24801884.643    24801883.870     -645331.36002   -484605.91445        35.000
        19.000        3593.094        2799.813
  22260869.518    22260864.454   -16502469.40007 -12853334.98647        50.000
        39.000        2558.177        1993.385
  23054848.371    23054842.408   -11909436.62406  -9268927.19447        44.000
        32.000        -780.236        -607.976
  22154422.066    22154417.314   -15950814.95607 -12420069.64747        48.000
        41.000       -2100.637       -1636.860
  20331022.039    20331018.120   -25298878.80607 -19708118.32548        52.000
        50.000         824.271         642.289
 10  3 18  0 14 30.0000000  0  8G30G26G14G24G31G02G12G29
  20160384.099    20160379.869   -27315301.97008 -21278068.35148        54.000
        46.000        -702.497        -547.400
  25627273.304    25627273.215            .00013  11322168.98255
        18.000       -3694.348       -2878.712
  22579302.383    22579298.251   -14742257.63306 -11476275.21147        47.000
        34.000       -2369.284       -1846.195
  24781364.904    24781365.624     -753161.43102   -568629.07045        35.000
        17.000        3595.555        2801.731
  22246292.793    22246287.611   -16579071.59507 -12913025.00747        49.000
        40.000        2548.631        1985.946
  23059354.948    23059349.077   -11885756.10706  -9250474.83347        44.000
        32.000        -798.278        -622.035
  22166429.221    22166424.301   -15887717.88207 -12370903.10447        48.000
        41.000       -2105.895       -1640.957
  20326363.289    20326359.164   -25323359.91207 -19727194.50348        52.000
        50.000         807.938         629.562
 10  3 18  0 15  0.0000000  0  9G30G21G26G14G24G31G02G12G29
  20164425.896    20164421.989   -27294061.96208 -21261517.70148        55.000
        46.000        -713.445        -555.932
  25334439.762                            .00013          .00051
                      3182.790        2480.096
  25648346.193    25648346.507    14632951.28300  11408470.40145        29.000
        19.000       -3689.227       -2874.722
  22592865.929    22592861.149   -14670982.22706 -11420735.92447        47.000
        34.000       -2382.323       -1856.355
  24760832.196    24760832.651     -861060.97203   -652706.30545        37.000
        19.000        3597.848        2803.518
  22231770.487    22231765.090   -16655386.17207 -12972490.90747        49.000
        40.000        2539.045        1978.477
  23063964.414    23063958.061   -11861533.04405  -9231599.71447        42.000
        32.000        -816.351        -636.117
  22178466.290    22178461.586   -15824460.61407 -12321611.73647        50.000
        40.000       -2111.121       -1645.030
  20321798.451    20321794.517   -25347348.63308 -19745887.00848        53.000
        50.000         791.462         616.723
 10  3 18  0 15 30.0000000  0  9G30G21G26G14G24G31G02G12G29
  20168529.999    20168525.759   -27272494.61308 -21244711.97848        54.000
        47.000        -724.483        -564.532
  25316260.184    25316258.646       79242.56402     71712.02745        35.000
        18.000        3185.932        2482.544
  25669395.108                    14743554.25102          .00051        35.000
                     -3684.244       -2870.839
  22606503.002    22606498.096   -14599319.30906 -11364894.67447        46.000
        33.000       -2395.303       -1866.470
  24740286.378    24740285.846     -969028.49804   -736836.33845        38.000
        18.000        3599.897        2805.115
  22217303.677    22217298.223   -16731412.14607 -13031731.92247        50.000
        41.000        2529.257        1970.850
  23068677.301    23068670.578   -11836768.95306  -9212303.03047        44.000
        32.000        -834.566        -650.311
  22190534.126    22190529.598   -15761045.05707 -12272197.04147        49.000
        41.000       -2116.524       -1649.240
  20317327.255    20317322.763   -25370846.48708 -19764197.01948        53.000
        50.000         775.063         603.945
 10  3 18  0 16  0.0000000  0  8G30G21G14G24G31G02G12G29
  20172697.208    20172692.929   -27250596.85408 -21227648.80348        54.000
        46.000        -735.468        -573.092
  25298062.943    25298060.085      -16387.40202     -2804.61545        35.000
        17.000        3189.420        2485.262
  22620213.203    22620208.895   -14527268.52306 -11308751.19847        45.000
        33.000       -2408.207       -1876.525
  24719727.474    24719727.718    -1077058.85904   -821015.32245        38.000
        19.000        3602.008        2806.759
  22202892.474    22202887.184   -16807144.42707 -13090744.08747        50.000
        41.000        2519.415        1963.180
  23073493.286    23073486.218   -11811461.48606  -9192582.93347        43.000
        32.000        -852.719        -664.456
  22202632.168    22202627.441   -15697467.94007 -12222656.45047        49.000
        40.000       -2122.021       -1653.522
  20312949.526    20312945.344   -25393850.55808 -19782122.26248        54.000
        50.000         758.507         591.044
 10  3 18  0 16 30.0000000  0  8G30G21G14G24G31G02G12G29
  20176926.436    20176922.454   -27228371.28008 -21210330.17048        54.000
        46.000        -746.457        -581.655
  25279845.955    25279843.772     -112114.32802    -77396.70045        35.000
        18.000        3192.425        2487.604
  22633996.523    22633992.642   -14454835.19506 -11252309.66347        44.000
        32.000       -2420.881       -1886.401
  24699159.411    24699158.070    -1185151.43704   -905242.92245        38.000
        19.000        3603.939        2808.264
  22188536.974    22188531.389   -16882582.89507 -13149527.30947        50.000
        41.000        2509.559        1955.501
  23078412.392    23078405.159   -11785613.56406  -9172441.67947        44.000
        33.000        -870.695        -678.464
  22214760.580    22214756.552   -15633732.03307 -12172992.11547        49.000
        40.000       -2127.262       -1657.607
  20308665.348    20308661.499   -25416363.31108 -19799664.65948        54.000
        50.000         742.103         578.262
 10  3 18  0 17  0.0000000  0  8G30G21G14G24G31G02G12G29
  20181218.231    20181214.166   -27205817.06408 -21192755.47448        53.000
        46.000        -757.328        -590.126
  25261612.101    25261609.649     -207935.33102   -152062.03945        34.000
        18.000        3195.709        2490.163
  22647853.250    22647848.506   -14382021.71806 -11195571.88847        45.000
        33.000       -2433.461       -1896.203
  24678577.155    24678576.684    -1293302.70904   -989515.97945        38.000
        18.000        3605.782        2809.700
  22174238.229    22174232.597   -16957724.02107 -13208078.83947        50.000
        41.000        2499.654        1947.783
  23083433.272    23083426.657   -11759225.12906  -9151879.25547        45.000
        33.000        -888.808        -692.577
  22226919.787    22226915.499   -15569837.15206 -12123203.90947        47.000
        40.000       -2132.548       -1661.726
  20304475.214    20304470.799   -25438384.24208 -19816823.81748        53.000
        50.000         725.807         565.564
 10  3 18  0 17 30.0000000  0  8G30G21G14G24G31G02G12G29
  20185572.842    20185569.150   -27182934.02908 -21174924.53748        54.000
        46.000        -768.355        -598.718
  25243359.587    25243357.705     -303847.71802   -226798.54745        35.000
        18.000        3198.378        2492.242
  22661780.062    22661775.988   -14308830.21906 -11138539.54547        44.000
        32.000       -2446.148       -1906.089
  24657986.077    24657985.324    -1401510.05703  -1073832.92445        36.000
        19.000        3607.563        2811.088
  22159996.171    22159990.772   -17032565.63007 -13266396.97647        50.000
        41.000        2489.570        1939.924
  23088557.594    23088551.554   -11732296.50806  -9130895.88447        45.000
        33.000        -906.802        -706.599
  22239108.568    22239104.276   -15505782.94007 -12073291.56047        49.000
        39.000       -2137.847       -1665.855
  20300378.169    20300374.106   -25459912.80708 -19833599.31748        54.000
        50.000         709.325         552.721
 10  3 18  0 18  0.0000000  0  8G30G21G14G24G31G02G12G29
  20189989.939    20189986.167   -27159722.34408 -21156837.51448        53.000
        46.000        -779.206        -607.173
  25225091.084    25225088.606     -399849.61003   -301604.82945        36.000
        18.000        3201.273        2494.498
  22675779.274    22675775.294   -14235264.01406 -11081215.22946        43.000
        31.000       -2458.478       -1915.697
  24637384.605    24637383.359    -1509770.97704  -1158191.70145        38.000
        19.000        3609.544        2812.632
  22145811.385    22145806.411   -17107105.60707 -13324480.07047        50.000
        41.000        2479.544        1932.113
  23093783.979    23093778.515   -11704828.14106  -9109491.93947        45.000
        32.000        -924.689        -720.537
  22251328.100    22251323.812   -15441569.89407 -12023255.41347        49.000
        40.000       -2143.234       -1670.052
  20296375.246    20296371.055   -25480949.79908 -19849991.77448        54.000
        50.000         692.963         539.971
 10  3 18  0 18 30.0000000  0  8G30G21G14G24G31G02G12G29
  20194469.389    20194465.495   -27136182.54208 -21138494.81148        54.000
        46.000        -790.084        -615.650
  25206804.560    25206801.219     -495939.33704   -376479.45145        39.000
        18.000        3204.579        2497.074
  22689849.696    22689845.143   -14161326.46305 -11023601.58146        42.000
        31.000       -2470.812       -1925.308
  24616773.858    24616771.492    -1618082.68003  -1242590.07245        37.000
        19.000        3611.190        2813.914
  22131684.769    22131679.651   -17181341.66707 -13382326.35147        50.000
        41.000        2469.432        1924.233
  23099114.348    23099108.280   -11676821.24506  -9087668.38047        43.000
        32.000        -942.545        -734.451
  22263577.357    22263573.125   -15377198.55207 -11973095.93547        49.000
        39.000       -2148.332       -1674.025
  20292465.315    20292461.045   -25501495.62108 -19866001.50048        53.000
        51.000         676.673         527.278
 10  3 18  0 19  0.0000000  0  8G30G21G14G24G31G02G12G29
  20199011.308    20199007.692   -27112315.27108 -21119896.94948        54.000
        46.000        -800.842        -624.033
  25188502.612    25188500.365     -592114.50003   -451420.66745        37.000
        18.000        3207.737        2499.535
  22703989.388    22703985.188   -14087020.85606 -10965701.11246        44.000
        31.000       -2482.829       -1934.672
  24596153.002    24596151.584    -1726442.70204  -1327025.92445        38.000
        20.000        3612.864        2815.219
  22117616.085    22117611.506   -17255271.84707 -13439934.27747        49.000
        41.000        2459.431        1916.440
  23104545.673    23104540.028   -11648277.12505  -9065426.21946        42.000
        30.000        -960.129        -748.153
  22275857.011    22275852.724   -15312669.80707 -11922813.81647        49.000
        39.000       -2153.401       -1677.975
  20288648.851    20288644.692   -25521551.12008 -19881629.15948        53.000
        51.000         660.549         514.714
 10  3 18  0 19 30.0000000  0  8G30G21G14G24G31G02G12G29
  20203615.455    20203611.473   -27088120.02308 -21101043.51148        54.000
        46.000        -811.826        -632.591
  25170186.185    25170183.019     -688372.70304   -526426.59845        38.000
        18.000        3210.040        2501.330
  22718198.775    22718194.224   -14012349.63606 -10907515.74546        44.000
        31.000       -2494.921       -1944.095
  24575522.894    24575521.677    -1834848.14303  -1411497.20545        36.000
        19.000        3614.273        2816.317
  22103606.267    22103601.680   -17328893.62207 -13497301.88347        49.000
        40.000        2449.019        1908.327
  23110079.797    23110073.679   -11619195.89205  -9042765.53546        42.000
        30.000        -978.198        -762.232
  22288166.438    22288161.271   -15247983.12107 -11872408.61147        50.000
        39.000       -2158.691       -1682.097
  20284925.981    20284921.489   -25541115.93808 -19896874.45948        54.000
        51.000         644.087         501.886
 10  3 18  0 20  0.0000000  0  8G30G21G14G24G31G02G12G29
  20208282.119    20208277.988   -27063597.06708 -21081934.73048        54.000
        46.000        -822.758        -641.111
  25151852.337    25151850.116     -784712.00602   -601495.72845        35.000
        19.000        3212.661        2503.373
  22732477.129    22732473.175   -13937316.16806 -10849048.10046        44.000
        31.000       -2507.016       -1953.519
  24554886.084    24554884.122    -1943296.55103  -1496002.02145        37.000
        20.000        3615.820        2817.522
  22089655.767    22089650.908   -17402204.91407 -13554427.56247        49.000
        41.000        2438.609        1900.214
  23115716.216    23115709.835   -11589578.32106  -9019686.93246        43.000
        30.000        -996.025        -776.124
  22300505.410    22300501.094   -15183139.11707 -11821880.81647        49.000
        39.000       -2163.886       -1686.145
  20281295.796    20281291.963   -25560190.89708 -19911738.05948        54.000
        50.000         627.818         489.209
 10  3 18  0 20 30.0000000  0  8G30G21G14G24G31G02G12G29
  20213011.035    20213006.909   -27038746.40208 -21062570.57548        54.000
        46.000        -833.857        -649.758
  25133504.426    25133501.299     -881130.30302   -676626.48945        35.000
        19.000        3215.094        2505.268
  22746823.867    22746820.113   -13861923.04606 -10790300.22646        43.000
        31.000       -2519.115       -1962.947
  24534240.621    24534239.558    -2051784.72704  -1580537.77746        38.000
        21.000        3617.096        2818.516
  22075764.523    22075759.724   -17475202.93907 -13611309.13047        50.000
        41.000        2427.999        1891.947
  23121454.331    23121447.606   -11559425.03306  -8996190.85846        46.000
        31.000       -1014.027        -790.151
  22312874.855    22312870.608   -15118137.83007 -11771230.48847        49.000
        40.000       -2169.335       -1690.391
  20277759.503    20277755.185   -25578775.70208 -19926219.71648        53.000
        50.000         611.300         476.338
 10  3 18  0 21  0.0000000  0  8G30G21G14G24G31G02G12G29
  20217802.452    20217798.409   -27013567.97608 -21042951.02248        54.000
        46.000        -844.845        -658.321
  25115141.096    25115138.421     -977625.78602   -751817.34745        35.000
        19.000        3217.816        2507.389
  22761238.875    22761234.605   -13786173.35106 -10731274.51246        43.000
        31.000       -2531.091       -1972.278
  24513588.887    24513587.711    -2160310.52603  -1665102.97046        37.000
        21.000        3617.938        2819.172
  22061933.356    22061928.538   -17547885.61807 -13667944.98247        49.000
        41.000        2417.425        1883.708
  23127294.082    23127287.521   -11528737.09106  -8972278.16747        46.000
        32.000       -1031.984        -804.143
  22325273.924    22325269.637   -15052979.93607 -11720458.10847        49.000
        39.000       -2174.645       -1694.529
  20274315.788    20274311.681   -25596871.02408 -19940319.97348        54.000
        51.000         594.920         463.574
 10  3 18  0 21 30.0000000  0  8G30G21G14G24G31G02G12G29
  20222655.796    20222651.528   -26988062.67208 -21023076.77248        53.000
        46.000        -855.668        -666.754
  25096764.755    25096762.153    -1074195.34303   -827065.87245        37.000
        18.000        3220.084        2509.156
  22775720.699    22775716.509   -13710070.74706 -10671973.78647        44.000
        32.000       -2542.645       -1981.282
  24492930.913    24492929.051    -2268871.15703  -1749695.25346        37.000
        21.000        3619.098        2820.076
  22048162.928    22048158.045   -17620251.10907 -13724333.67847        50.000
        42.000        2406.891        1875.499
  23133235.140    23133228.617   -11497515.72606  -8947949.81047        47.000
        33.000       -1049.642        -817.903
  22337702.980    22337698.526   -14987666.10407 -11669564.22847        49.000
        38.000       -2179.774       -1698.525
  20270965.570    20270961.344   -25614477.36208 -19954039.18748        53.000
        51.000         578.722         450.952
 10  3 18  0 22  0.0000000  0  8G30G21G14G24G31G02G12G29
  20227571.510    20227567.421   -26962230.03308 -21002947.44948        54.000
        46.000        -866.562        -675.243
  25078373.966    25078370.720    -1170836.94803   -902370.59845        37.000
        17.000        3222.549        2511.077
  22790269.357    22790264.529   -13633618.11906 -10612400.33346        43.000
        31.000       -2554.243       -1990.319
  24472265.536    24472263.381    -2377463.81303  -1834312.51346        37.000
        21.000        3620.162        2820.905
  22034453.362    22034447.900   -17692296.78107 -13780473.16047        50.000
        41.000        2396.084        1867.079
  23139277.405    23139271.279   -11465761.25706  -8923206.06047        47.000
        32.000       -1067.309        -831.669
  22350161.645    22350157.318   -14922195.89407 -11618548.49447        49.000
        39.000       -2184.961       -1702.567
  20267708.040    20267704.155   -25631595.06408 -19967377.65248        54.000
        51.000         562.447         438.270
 10  3 18  0 22 30.0000000  0  8G30G21G14G24G31G02G12G29
  20232549.652    20232545.761   -26936070.55108 -20982563.44348        54.000
        46.000        -877.367        -683.663
  25059969.974    25059967.388    -1267548.35204   -977729.70045        38.000
        18.000        3224.766        2512.805
  22804883.860    22804879.342   -13556818.05605 -10552556.13646        42.000
        31.000       -2565.795       -1999.321
  24451595.160    24451593.360    -2486085.90804  -1918952.78145        38.000
        19.000        3621.304        2821.796
  22020804.810    22020799.929   -17764020.48507 -13836361.76347        50.000
        41.000        2385.401        1858.754
  23145421.078    23145414.989   -11433474.92206  -8898047.86547        46.000
        32.000       -1085.155        -845.576
  22362649.538    22362645.293   -14856569.85007 -11567411.32647        50.000
        40.000       -2190.116       -1706.584
  20264543.419    20264539.380   -25648224.82608 -19980335.89848        54.000
        51.000         546.163         425.582
 10  3 18  0 23  0.0000000  0  8G30G21G14G24G31G02G12G29
  20237589.473    20237585.524   -26909584.26708 -20961924.79148        54.000
        46.000        -888.363        -692.231
  25041553.933    25041550.603    -1364327.71504  -1053141.80045        38.000
        17.000        3226.984        2514.533
  22819563.457    22819559.675   -13479673.81506 -10492443.75346        45.000
        31.000       -2577.172       -2008.186
  24430919.735    24430917.593    -2594734.32904  -2003613.36145        39.000
        20.000        3621.901        2822.260
  22007218.169    22007212.615   -17835419.81707 -13891997.60747        50.000
        42.000        2374.513        1850.270
  23151665.815    23151660.320   -11400657.76806  -8872476.04046        45.000
        31.000       -1102.836        -859.352
  22375168.014    22375162.965   -14790788.77607 -11516153.35747        50.000
        39.000       -2195.365       -1710.674
  20261471.987    20261467.207   -25664367.11308 -19992914.29948        54.000
        51.000         529.860         412.878
 10  3 18  0 23 30.0000000  0  8G30G21G14G24G31G02G12G29
  20242692.008    20242687.823   -26882771.49008 -20941031.71748        54.000
        46.000        -899.422        -700.848
  25023123.705    25023120.154    -1461173.06605  -1128605.31445        40.000
        18.000        3229.284        2516.325
  22834308.568    22834304.042   -13402189.12706 -10432066.07346        43.000
        31.000       -2588.670       -2017.145
  24410240.045    24410237.897    -2703406.69905  -2088292.60846        41.000
        22.000        3622.712        2822.893
  21993693.302    21993688.232   -17906492.51807 -13947378.92747        49.000
        42.000        2363.469        1841.664
  23158012.541    23158005.961   -11367310.59006  -8846491.24947        44.000
        32.000       -1120.574        -873.174
  22387715.145    22387710.041   -14724852.45207 -11464774.42247        49.000
        40.000       -2200.584       -1714.741
  20258492.624    20258488.717   -25680022.21208 -20005113.07548        53.000
        51.000         513.513         400.140
 10  3 18  0 24  0.0000000  0  8G30G21G14G24G31G02G12G29
  20247856.297    20247852.484   -26855632.08408 -20919884.14148        53.000
        46.000        -911.219        -710.041
  25004682.422    25004678.684    -1558081.14404  -1204117.60045        38.000
        20.000        3231.207        2517.824
  22849117.768    22849113.676   -13324366.05806 -10371424.74646        43.000
        31.000       -2599.774       -2025.798
  24389555.635    24389553.531    -2812100.11305  -2172988.48246        41.000
        22.000        3623.321        2823.367
  21980231.163    21980226.144   -17977236.04107 -14002503.76147        50.000
        43.000        2352.545        1833.152
  23164458.913    23164451.707   -11333434.01806  -8820093.91746        44.000
        31.000       -1138.183        -886.896
  22400291.644    22400287.444   -14658760.86307 -11413274.48447        50.000
        40.000       -2205.678       -1718.710
  20255606.308    20255602.576   -25695189.88208 -20016932.03248        54.000
        51.000         497.428         387.606
 10  3 18  0 24 30.0000000  0  8G30G21G14G24G31G02G12G29
  20253082.773    20253079.130   -26828165.82208 -20898481.85848        53.000
        46.000        -920.991        -717.656
  24986229.588    24986225.538    -1655050.38904  -1279677.70645        38.000
        19.000        3233.134        2519.325
  22863990.885    22863986.486   -13246207.64706 -10310522.09246        43.000
        30.000       -2611.011       -2034.554
  24368868.476    24368866.188    -2920811.61204  -2257698.51446        39.000
        21.000        3623.964        2823.868
  21966832.161    21966827.529   -18047648.13707 -14057370.32547        50.000
        43.000        2341.523        1824.563
  23171005.775    23170999.518   -11299028.73006  -8793284.58947        46.000
        32.000       -1155.684        -900.533
  22412898.241    22412893.643   -14592513.99907 -11361653.56847        49.000
        40.000       -2210.845       -1722.736
  20252812.803    20252808.700   -25709870.87408 -20028371.76348        53.000
        51.000         481.235         374.988
 10  3 18  0 25  0.0000000  0  8G30G21G14G24G31G02G12G29
  20258371.822    20258367.452   -26800373.42008 -20876825.45048        53.000
        46.000        -931.787        -726.068
  24967766.561    24967762.407    -1752078.03405  -1355283.35645        40.000
        19.000        3235.219        2520.950
  22878926.919    22878923.046   -13167717.06206 -10249360.61046        44.000
        31.000       -2621.778       -2042.944
  24348177.488    24348175.760    -3029538.31405  -2342420.37746        40.000
        22.000        3624.443        2824.241
  21953496.900    21953491.932   -18117726.46407 -14111976.81647        50.000
        42.000        2330.396        1815.893
  23177653.102    23177647.136   -11264095.78206  -8766064.09047        45.000
        32.000       -1173.032        -914.051
  22425533.713    22425529.344   -14526112.40207 -11309912.07347        49.000
        40.000       -2215.869       -1726.651
  20250111.508    20250107.480   -25724065.50008 -20039432.50148        54.000
        51.000         465.146         362.452
 10  3 18  0 25 30.0000000  0  8G30G21G14G24G31G02G12G29
  20263722.674    20263718.663   -26772254.66108 -20854914.73048        53.000
        45.000        -942.652        -734.534
  24949290.717    24949287.481    -1849161.82905  -1430932.76845        40.000
        19.000        3237.016        2522.350
  22893926.765    22893922.256   -13088897.51406 -10187942.80346        43.000
        31.000       -2632.667       -2051.429
