     2              OBSERVATION DATA    G (GPS)             RINEX VERSION / TYPE
RGRINEXO V2.4.1 UX  AUSLIG              10-JAN-97 10:19     PGM / RUN BY / DATE 
Australian Regional GPS Network (ARGN)  - COCOS ISLAND      COMMENT             
BIT 2 OF LLI (+4) FLAGS DATA COLLECTED UNDER "AS" CONDITION COMMENT             
     -0.000000000103          HARDWARE CALIBRATION (S)      COMMENT             
     -0.000000054663          CLOCK OFFSET (S)              COMMENT             
COCO                                                        MARKER NAME         
AU18                                                        MARKER NUMBER       
mrh                 auslig                                  OBSERVER / AGENCY   
126                 ROGUE SNR-8100      93.05.25 / 2.8.33.2 REC # / TYPE / VERS 
327                 DORNE MARGOLIN T                        ANT # / TYPE        
  -741950.3241  6190961.9624 -1337769.9813                  APPROX POSITION XYZ 
        0.0040        0.0000        0.0000                  ANTENNA: DELTA H/E/N
     1     1                                                WAVELENGTH FACT L1/2
     5    C1    L1    L2    P2    P1                        # / TYPES OF OBSERV 
    30                                                      INTERVAL            
  1997     1     9     0     7   30.000000                  TIME OF FIRST OBS   
  1997     1     9    23    59   30.0000000                 TIME OF LAST OBS
                                                            END OF HEADER
 97  1  9  0  7 30.0000000  0  7  1 25  9  5 23 17  6
  22127685.105   -14268715.899 8 -11118481.28445  22127685.4014                 
  22672158.746   -11510817.892 7  -8969469.30045  22672158.5184                 
  22594902.367   -12949753.825 7 -10090708.53945  22594903.7394                 
  22731128.796   -11621184.951 7  -9055464.16945  22731130.0094                 
  24610920.702     -924108.174 6   -720085.67045  24610920.0404                 
  20718775.074   -18605935.474 9 -14498133.97346  20718775.6074                 
  20842713.610   -19083282.892 9 -14870090.55546  20842713.4814                 
 97  1  9  0  8  0.0000000  0  7  1 25  9  5 23 17  6
  22133910.078   -14236004.699 8 -11092992.05945  22133910.3834                 
  22655271.274   -11599563.608 7  -9038621.81245  22655271.4994                 
  22612558.689   -12856969.398 7 -10018409.02845  22612559.6234                 
  22734737.216   -11602224.451 7  -9040689.79045  22734738.4484                 
  24604536.459     -957654.791 6   -746225.94245  24604534.7294                 
  20705341.319   -18676530.135 9 -14553142.81046  20705341.9424                 
  20853116.611   -19028615.135 9 -14827492.32746  20853116.7804                 
 97  1  9  0  8 30.0000000  0  7  1 25  9  5 23 17  6
  22140190.352   -14203001.317 8 -11067275.16945  22140191.1924                 
  22638420.202   -11688115.262 7  -9107623.10345  22638419.4574                 
  22630271.840   -12763886.669 7  -9945877.07545  22630271.8724                 
  22738365.024   -11583159.458 7  -9025833.98645  22738365.9064                 
  24598097.384     -991492.176 6   -772592.83444  24598100.2324                 
  20691984.567   -18746719.862 9 -14607836.11046  20691985.4654                 
  20863557.500   -18973748.285 9 -14784738.95746  20863557.4954                 
 97  1  9  0  9  0.0000000  0  7  1 25  9  5 23 17  6
  22146526.951   -14169701.279 8 -11041327.11445  22146527.5304                 
  22621606.389   -11776472.030 7  -9176472.54045  22621606.8474                 
  22648042.973   -12670497.862 7  -9873106.61845  22648043.6374                 
  22742016.469   -11563970.704 7  -9010881.73845  22742016.6584                 
  24591597.272    -1025646.185 6   -799206.33544  24591594.5804                 
  20678706.890   -18816495.429 9 -14662206.69246  20678707.5394                 
  20874035.969   -18918684.519 9 -14741832.14746  20874035.7524                 
 97  1  9  0  9 30.0000000  0  7  1 25  9  5 23 17  6
  22152921.720   -14136097.868 8 -11015142.67345  22152921.6494                 
  22604828.609   -11864639.752 7  -9245174.66445  22604827.5914                 
  22665871.477   -12576808.201 7  -9800101.74145  22665872.7034                 
  22745691.231   -11544660.528 7  -8995834.87645  22745692.0024                 
  24585038.581    -1060119.299 6   -826068.60945  24585039.1824                 
  20665506.392   -18885864.301 9 -14716260.36646  20665507.0984                 
  20884549.018   -18863437.674 9 -14698782.68246  20884548.8874                 
 97  1  9  0 10  0.0000000  0  7  1 25  9  5 23 17  6
  22159373.567   -14102193.580 8 -10988723.78045  22159373.8244                 
  22588088.439   -11952611.118 7  -9313723.78145  22588088.5444                 
  22683753.458   -12482839.157 7  -9726879.14845  22683754.0704                 
  22749387.894   -11525235.370 8  -8980698.42445  22749389.0324                 
  24578415.418    -1094923.012 6   -853188.41645  24578419.8264                 
  20652385.614   -18954814.157 9 -14769987.53546  20652386.3484                 
  20895095.155   -18808018.011 9 -14655598.54946  20895095.2134                 
 97  1  9  0 10 30.0000000  0  7  1 25  9  5 23 17  6
  22165884.002   -14067980.590 8 -10962064.33445  22165884.4044                 
  22571388.818   -12040368.408 7  -9382106.08445  22571388.7364                 
  22701683.656   -12388615.779 7  -9653458.38545  22701684.7734                 
  22753105.458   -11505699.496 8  -8965475.70345  22753106.2804                 
  24571726.212    -1130073.111 6   -880578.16645  24571727.7374                 
  20639348.219   -19023326.105 9 -14823373.47546  20639349.0484                 
  20905672.917   -18752430.823 9 -14612283.87946  20905672.7084                 
 97  1  9  0 11  0.0000000  0  7  1 25  9  5 23 17  6
  22172453.038   -14033460.679 8 -10935165.74045  22172453.1654                 
  22554730.170   -12127909.454 7  -9450319.88545  22554729.9834                 
  22719659.425   -12294151.681 7  -9579850.04545  22719659.7144                 
  22756842.963   -11486059.580 8  -8950171.91545  22756844.5554                 
  24564972.177    -1165566.454 6   -908235.35545  24564971.2744                 
  20626392.874   -19091406.818 9 -14876423.39246  20626393.7484                 
  20916282.049   -18696678.896 9 -14568840.84346  20916281.9014                 
 97  1  9  0 11 30.0000000  0  7  1 25  9  5 23 17  6
  22179079.311   -13998639.682 8 -10908032.52645  22179079.3274                 
  22538113.318   -12215229.555 7  -9518361.52145  22538112.3934                 
  22737680.943   -12199449.686 7  -9506056.32545  22737681.0584                 
  22760598.463   -11466324.281 8  -8934793.78245  22760598.5984                 
  24558155.934    -1201387.424 6   -936147.77445  24558157.6264                 
  20613518.494   -19159062.241 9 -14929141.90946  20613519.2734                 
  20926923.365   -18640759.112 9 -14525267.00846  20926923.1574                 
 97  1  9  0 12  0.0000000  0  7  1 25  9  5 23 17  6
  22185759.159   -13963536.262 8 -10880679.23745  22185760.2504                 
  22521541.925   -12302314.481 7  -9586219.90445  22521541.3314                 
  22755747.680   -12104507.805 7  -9432075.68345  22755747.9904                 
  22764373.613   -11446486.006 8  -8919335.40045  22764373.9364                 
  24551276.570    -1237533.713 6   -964313.82045  24551279.0844                 
  20600727.767   -19226278.444 9 -14981518.17746  20600728.3914                 
  20937598.268   -18584661.954 9 -14481554.96046  20937598.2554                 
 97  1  9  0 12 30.0000000  0  7  1 25  9  5 23 17  6
  22192492.512   -13928152.865 8 -10853107.79545  22192493.5954                 
  22505015.755   -12389161.197 8  -9653892.67745  22505015.3724                 
  22773864.113   -12009305.224 7  -9357891.90945  22773865.1304                 
  22768172.158   -11426524.241 8  -8903780.80045  22768172.6194                 
  24544341.376    -1273982.937 6   -992715.88445  24544338.9994                 
  20588018.895   -19293064.283 9 -15033559.09946  20588019.5164                 
  20948306.285   -18528391.384 9 -14437707.78346  20948305.9964                 
 97  1  9  0 13  0.0000000  0  7  1 25  9  5 23 17  6
  22199276.720   -13892501.587 8 -10825327.60945  22199277.5414                 
  22488535.686   -12475764.140 8  -9721375.50545  22488535.2344                 
  22792033.841   -11913822.740 7  -9283490.01445  22792034.5934                 
  22771994.921   -11406435.769 8  -8888127.48645  22771995.9014                 
  24537351.044    -1310717.973 6  -1021340.57445  24537349.6744                 
  20575390.598   -19359425.902 9 -15085269.45946  20575391.3654                 
  20959043.563   -18471967.515 9 -14393741.15546  20959043.3854                 
 97  1  9  0 13 30.0000000  0  7  1 25  9  5 23 17  6
  22206109.024   -13856596.943 8 -10797349.99445  22206110.0864                 
  22472104.539   -12562109.771 8  -9788657.81545  22472103.5274                 
  22810257.439   -11818057.342 7  -9208867.68845  22810257.6004                 
  22775840.839   -11386224.779 8  -8872378.70045  22775841.5054                 
  24530305.875    -1347737.268 6  -1050186.81645  24530307.6654                 
  20562844.688   -19425355.447 9 -15136643.13746  20562845.7264                 
  20969806.494   -18415407.250 9 -14349668.24046  20969806.5264                 
 97  1  9  0 14  0.0000000  0  7  6  1 25  9  5 23 17
  20980592.576   -18358726.146 9 -14305501.16946  20980592.6634                 
  22212989.379   -13820440.468 8 -10769176.15545  22212989.9884                 
  22455721.796   -12648200.649 8  -9855741.62645  22455721.0294                 
  22828535.355   -11722007.981 7  -9134024.06845  22828536.5314                 
  22779712.078   -11365881.559 8  -8856526.86845  22779712.7014                 
  24523207.279    -1385043.730 6  -1079256.85545  24523208.1724                 
  20550378.996   -19490863.140 9 -15187688.10546  20550379.5684                 
 97  1  9  0 14 30.0000000  0  7  6  1 25  9  5 23 17
  20991400.666   -18301929.150 9 -14261243.79546  20991400.5224                 
  22219920.842   -13784016.580 8 -10740793.93445  22219921.4544                 
  22439387.428   -12734038.728 8  -9922628.44145  22439387.1894                 
  22846867.318   -11625672.558 7  -9058957.56745  22846868.4594                 
  22783607.235   -11345413.062 8  -8840577.42445  22783608.7254                 
  24516051.738    -1422646.664 6  -1108557.83345  24516054.0854                 
  20537990.204   -19555966.261 9 -15238417.81746  20537990.9814                 
 97  1  9  0 15  0.0000000  0  7  6  1 25  9  5 23 17
  21002233.911   -18245000.188 9 -14216883.58446  21002233.5594                 
  22226901.113   -13747335.565 8 -10712211.36145  22226901.7334                 
  22423100.244   -12819629.552 8  -9989322.59645  22423100.3534                 
  22865250.218   -11529068.347 7  -8983681.59445  22865250.4364                 
  22787524.070   -11324829.800 8  -8824538.54945  22787524.3704                 
  24508835.161    -1460570.532 6  -1138108.95945  24508834.6234                 
  20525677.979   -19620667.238 9 -15288834.17346  20525678.6184                 
 97  1  9  0 15 30.0000000  0  7  6  1 25  9  5 23 17
  21013095.612   -18187921.139 9 -14172406.43046  21013095.4094                 
  22233930.194   -13710396.808 8 -10683427.94845  22233930.7074                 
  22406856.525   -12904989.976 8 -10055837.22245  22406856.6474                 
  22883684.477   -11432197.503 7  -8908197.87045  22883685.7794                 
  22791464.880   -11304119.898 8  -8808400.99445  22791465.5384                 
  24501553.027    -1498835.611 6  -1167925.86445  24501555.2104                 
  20513442.381   -19684966.640 9 -15338937.61046  20513443.1234                 
 97  1  9  0 16  0.0000000  0  7  6  1 25  9  5 23 17
  21023988.158   -18130680.540 9 -14127803.38946  21023987.8604                 
  22241010.043   -13673193.055 8 -10654438.03645  22241010.2534                 
  22390656.320   -12990123.601 8 -10122175.12645  22390655.2774                 
  22902168.463   -11335063.006 7  -8832508.70245  22902168.9134                 
  22795431.421   -11283277.650 8  -8792160.31645  22795431.4434                 
  24494206.828    -1537442.614 6  -1198009.36545  24494205.0444                 
  20501284.946   -19748854.244 9 -15388720.17046  20501285.8814                 
 97  1  9  0 16 30.0000000  0  7  6  1 25  9  5 23 17
  21034913.900   -18073266.258 9 -14083065.01046  21034914.1254                 
  22248138.998   -13635729.623 8 -10625245.79245  22248139.5464                 
  22374498.995   -13075031.551 8 -10188337.16445  22374499.1904                 
  22920701.721   -11237670.223 7  -8756618.25945  22920702.5474                 
  22799421.558   -11262310.060 8  -8775821.96145  22799422.0594                 
  24486795.403    -1576391.393 6  -1228359.10945  24486795.4874                 
  20489211.478   -19812300.336 9 -15438158.69346  20489212.3084                 
 97  1  9  0 17  0.0000000  0  7  6  1 25  9  5 23 17
  21045869.858   -18015691.449 9 -14038201.54346  21045869.8904                 
  22255314.905   -13598019.825 8 -10595861.54945  22255315.4334                 
  22358383.796   -13159716.788 8 -10254325.66945  22358382.9894                 
  22939282.740   -11140025.352 7  -8680531.40145  22939283.4234                 
  22803435.426   -11241216.340 8  -8759385.33645  22803435.7514                 
  24479320.059    -1615675.074 6  -1258969.82045  24479321.3224                 
  20477226.579   -19875282.542 9 -15487235.74446  20477227.2424                 
 97  1  9  0 17 30.0000000  0  7  6  1 25  9  5 23 17
  21056852.079   -17957980.132 9 -13993231.71046  21056852.2584                 
  22262539.694   -13560053.171 8 -10566277.17745  22262540.3464                 
  22342311.631   -13244177.359 8 -10320139.11445  22342311.6604                 
  22957911.869   -11042129.333 7  -8604248.83545  22957911.5024                 
  22807474.142   -11219992.383 8  -8742847.23745  22807474.5654                 
  24471785.151    -1655269.897 6  -1289823.00545  24471789.2874                 
  20465332.295   -19937785.990 9 -15535939.73846  20465333.0834                 
 97  1  9  0 18  0.0000000  0  7  6  1 25  9  5 23 17
  21067859.098   -17900138.129 9 -13948160.04646  21067859.0724                 
  22269812.231   -13521835.254 8 -10536497.01345  22269813.2944                 
  22326283.887   -13328402.536 8 -10385769.11945  22326283.0024                 
  22976585.268   -10943999.827 7  -8527784.32945  22976586.0744                 
  22811536.720   -11198643.317 8  -8726211.62945  22811536.3994                 
  24464194.988    -1695156.755 6  -1320903.70645  24464197.8614                 
  20453530.655   -19999804.772 9 -15584266.06646  20453531.4334                 
 97  1  9  0 18 30.0000000  0  7  6  1 25  9  5 23 17
  21078890.296   -17842168.721 9 -13902989.10146  21078890.2364                 
  22277131.173   -13483374.372 8 -10506527.52445  22277131.8614                 
  22310301.017   -13412394.671 8 -10451217.54045  22310301.0324                 
  22995302.246   -10845642.738 7  -8451142.49545  22995303.3964                 
  22815623.222   -11177169.229 8  -8709478.59445  22815623.2994                 
  24456550.787    -1735328.877 6  -1352206.71745  24456551.6984                 
  20441818.801   -20061350.769 9 -15632223.99246  20441819.6684                 
 97  1  9  0 19  0.0000000  0  7  6  1 25  9  5 23 17
  21089942.818   -17784088.029 9 -13857731.44246  21089942.6244                 
  22284496.152   -13444672.214 8 -10476370.02645  22284496.8954                 
  22294364.591   -13496140.898 8 -10516474.34445  22294364.1034                 
  23014060.823   -10747066.382 7  -8374329.79745  23014062.1294                 
  22819733.862   -11155567.931 8  -8692646.44245  22819734.2304                 
  24448854.556    -1775769.208 6  -1383718.66245  24448856.6694                 
  20430193.542   -20122441.739 9 -15679827.34746  20430194.1274                 
 97  1  9  0 19 30.0000000  0  7  6  1 25  9  5 23 17
  21101017.805   -17725887.209 9 -13812380.17746  21101017.4924                 
  22291906.659   -13405729.490 8 -10446025.07845  22291907.7424                 
  22278475.272   -13579639.674 8 -10581538.33445  22278474.5324                 
  23032861.915   -10648266.122 7  -8297342.62045  23032862.7194                 
  22823870.844   -11133828.027 8  -8675706.29045  22823871.1194                 
  24441109.815    -1816469.883 6  -1415433.48045  24441110.8664                 
  20418653.614   -20183085.207 9 -15727082.00747  20418654.3564                 
 97  1  9  0 20  0.0000000  0  7  6  1 25  9  5 23 17
  21112115.980   -17667566.874 9 -13766935.78746  21112115.9284                 
  22299361.594   -13366555.144 8 -10415499.64245  22299362.9214                 
  22262633.494   -13662887.903 8 -10646407.08445  22262632.8464                 
  23051706.552   -10549233.753 7  -8220174.60545  23051708.7104                 
  22828032.931   -11111956.221 8  -8658663.34545  22828033.7084                 
  24433312.771    -1857442.680 6  -1447360.35245  24433313.0314                 
  20407200.297   -20243272.624 9 -15773981.30447  20407201.0834                 
 97  1  9  0 20 30.0000000  0  7  6  1 25  9  5 23 17
  21123234.241   -17609139.915 9 -13721408.30746  21123234.3974                 
  22306862.640   -13327136.818 8 -10384784.09545  22306863.9194                 
  22246840.744   -13745879.709 8 -10711076.02945  22246840.5914                 
  23070597.086   -10449965.912 7  -8142823.08845  23070597.1074                 
  22832219.849   -11089953.798 8  -8641518.63745  22832220.3184                 
  24425464.257    -1898688.628 6  -1479500.11645  24425467.4984                 
  20395835.032   -20302996.721 9 -15820519.56947  20395835.9894                 
 97  1  9  0 21  0.0000000  0  7  6  1 25  9  5 23 17
  21134371.397   -17550613.981 9 -13675803.71046  21134371.2674                 
  22314410.745   -13287469.547 8 -10353874.55545  22314412.3694                 
  22231097.325   -13828611.728 8 -10775542.54545  22231096.6054                 
  23089532.834   -10350458.495 7  -8065284.88045  23089532.9684                 
  22836433.883   -11067809.264 8  -8624263.19145  22836434.4494                 
  24417560.904    -1940221.605 6  -1511863.51345  24417562.0054                 
  20384560.995   -20362242.027 9 -15866684.75147  20384561.6964                 
 97  1  9  0 21 30.0000000  0  7  6  1 25  5  9 23 17
  21145528.113   -17491985.109 9 -13630118.89446  21145528.0694                 
  22322006.420   -13247553.588 8 -10322771.23845  22322007.7454                 
  22215403.255   -13911083.434 8 -10839806.21845  22215403.0964                 
  22840675.241   -11045520.913 8  -8606895.68345  22840675.4304                 
  23108515.062   -10250706.351 7  -7987555.99145  23108517.0294                 
  24409598.594    -1982063.269 6  -1544467.46345  24409600.7034                 
  20373381.050   -20420993.480 9 -15912465.10947  20373381.8104                 
 97  1  9  0 22  0.0000000  0  7  6  1 25  9  5 23 17
  21156704.621   -17433251.996 9 -13584352.86146  21156704.5514                 
  22329650.419   -13207384.843 8 -10291470.94845  22329651.7684                 
  22199764.103   -13993269.604 8 -10903847.39645  22199763.7984                 
  23127542.036   -10150719.592 7  -7909644.29145  23127542.2814                 
  22844942.716   -11023094.157 7  -8589420.32845  22844942.7724                 
  24401574.713    -2024230.521 6  -1577325.14945  24401577.2104                 
  20362296.046   -20479246.265 9 -15957856.89647  20362296.7694                 
 97  1  9  0 22 30.0000000  0  7  6  1 25  5  9 23 17
  21167902.547   -17374407.344 9 -13538499.90746  21167902.4684                 
  22337340.831   -13166972.239 8 -10259980.63445  22337342.0704                 
  22184183.080   -14075148.579 8 -10967649.20445  22184182.8064                 
  22849240.390   -11000509.426 7  -8571821.87445  22849241.7594                 
  23146612.309   -10050504.986 7  -7831555.02845  23146613.2614                 
  24393489.401    -2066717.282 6  -1610431.76245  24393490.6814                 
  20351303.606   -20537011.631 9 -16002868.87347  20351304.6264                 
 97  1  9  0 23  0.0000000  0  7  6  1 25  5  9 23 17
  21179121.886   -17315449.674 9 -13492558.89346  21179122.1204                 
  22345072.269   -13126344.037 8 -10228322.31845  22345072.3224                 
  22168661.611   -14156714.195 8 -11031206.84245  22168661.7304                 
  22853570.054   -10977756.001 7  -8554091.96745  22853571.6604                 
  23165727.152    -9950055.446 7  -7753282.72045  23165727.1594                 
  24385342.745    -2109530.049 6  -1643792.36245  24385342.8004                 
  20340403.177   -20594294.165 9 -16047504.62047  20340404.0634                 
 97  1  9  0 23 30.0000000  0  7  6  1 25  5  9 23 17
  21190362.963   -17256377.520 9 -13446528.66446  21190362.7584                 
  22352843.038   -13085506.410 8 -10196500.82145  22352844.3824                 
  22153201.130   -14237958.121 8 -11094513.80845  22153201.1284                 
  22857929.771   -10954847.733 7  -8536241.40745  22857930.0574                 
  23184884.799    -9849382.449 7  -7674836.27845  23184885.7824                 
  24377135.013    -2152663.278 6  -1677402.73845  24377135.9254                 
  20329593.149   -20651100.783 9 -16091769.52447  20329593.9344                 
 97  1  9  0 24  0.0000000  0  7  6 25  1  5  9 23 17
  21201625.386   -17197192.936 9 -13400410.83246  21201625.4764                 
  22137801.968   -14318881.410 8 -11157570.92245  22137802.3444                 
  22360651.443   -13044473.259 8 -10164526.96545  22360652.5454                 
  22862318.753   -10931782.235 7  -8518268.32545  22862319.3734                 
  23204081.735    -9748500.061 7  -7596226.68345  23204082.9664                 
  24368868.755    -2196097.405 6  -1711247.54645  24368872.1984                 
  20318874.139   -20707429.880 9 -16135662.33347  20318874.8574                 
 97  1  9  0 24 30.0000000  0  7  6 25  1  5  9 23 17
  21212906.814   -17137907.913 9 -13354214.73146  21212906.8464                 
  22122459.339   -14399508.155 8 -11220396.96845  22122458.9004                 
  22368496.470   -13003249.587 8 -10132404.64045  22368496.9354                 
  22866737.937   -10908559.655 7  -8500172.82945  22866738.7804                 
  23223315.740    -9647425.084 7  -7517466.99045  23223316.7004                 
  24360550.693    -2239811.538 6  -1745310.55045  24360551.0174                 
  20308245.893   -20763282.155 9 -16179183.59247  20308246.6694                 
 97  1  9  0 25  0.0000000  0  7  6 25  1  5  9 23 17
  21224207.235   -17078524.431 9 -13307941.91446  21224207.4274                 
  22107168.286   -14479863.543 8 -11283011.56545  22107168.2724                 
  22376378.487   -12961829.579 8 -10100129.34045  22376379.2234                 
  22871182.548   -10885203.442 7  -8481973.22845  22871183.7464                 
  23242583.509    -9546173.376 7  -7438569.62145  23242584.0854                 
  24352177.648    -2283815.822 6  -1779599.62245  24352178.1364                 
  20297708.976   -20818653.135 9 -16222329.81747  20297709.7894                 
 97  1  9  0 25 30.0000000  0  7  6 25  1  5  9 23 17
  21235527.004   -17019039.079 9 -13261589.71646  21235526.8754                 
  22091929.354   -14559944.563 8 -11345412.38046  22091929.2514                 
  22384300.230   -12920198.901 7 -10067689.88445  22384300.7814                 
  22875650.635   -10861723.501 7  -8463677.22845  22875652.3114                 
  23261882.424    -9444758.206 7  -7359544.87145  23261882.0094                 
  24343749.487    -2328104.777 6  -1814110.53445  24343751.5554                 
  20287263.915   -20873543.108 9 -16265101.22947  20287264.6634                 
 97  1  9  0 26  0.0000000  0  7  6 25  1  5  9 23 17
  21246864.707   -16959458.255 9 -13215163.12846  21246865.0014                 
  22076743.116   -14639749.938 8 -11407598.39746  22076742.5514                 
  22392260.357   -12878368.017 7 -10035094.42745  22392261.0914                 
  22880144.251   -10838108.675 7  -8445276.11645  22880145.3224                 
  23281214.002    -9343168.363 7  -7280384.00445  23281215.9864                 
  24335270.737    -2372661.766 6  -1848830.30645  24335271.9134                 
  20276909.511   -20927956.129 9 -16307500.99047  20276910.4194                 
 97  1  9  0 26 30.0000000  0  7  6 25  1  5  9 23 17
  21258221.165   -16899780.681 9 -13168661.14846  21258221.2164                 
  22061610.609   -14719272.950 8 -11469564.39046  22061610.3234                 
  22400260.103   -12836330.002 7 -10002337.55545  22400261.2554                 
  22884664.196   -10814356.643 7  -8426768.09745  22884664.2734                 
  23300583.385    -9241381.719 7  -7201069.79045  23300585.1764                 
  24326738.741    -2417497.416 6  -1883767.21845  24326738.8394                 
  20266644.681   -20981897.640 9 -16349533.34247  20266645.5654                 
 97  1  9  0 27  0.0000000  0  7  6 25  1  5  9 23 17
  21269595.601   -16840006.898 9 -13122084.20346  21269595.5424                 
  22046534.545   -14798497.357 8 -11531297.70646  22046534.2814                 
  22408297.711   -12794092.882 8  -9969425.53345  22408298.6564                 
  22889210.932   -10790465.203 7  -8408151.44245  22889211.4884                 
  23319995.379    -9139369.711 7  -7121579.96845  23319994.9534                 
  24318153.569    -2462613.172 6  -1918922.41645  24318155.4044                 
  20256471.711   -21035357.031 9 -16391190.01547  20256472.3974                 
 97  1  9  0 27 30.0000000  0  7  6 25  1  5  9 23 17
  21280985.629   -16780152.398 9 -13075444.35946  21280985.5604                 
  22031516.217   -14877418.334 8 -11592794.59146  22031516.2304                 
  22416371.254   -12751665.220 7  -9936365.04745  22416372.8834                 
  22893786.382   -10766420.399 7  -8389415.24945  22893788.0774                 
  23339453.459    -9037120.111 7  -7041905.00845  23339455.6864                 
  24309517.562    -2507992.783 6  -1954283.18845  24309518.8124                 
  20246391.752   -21088327.580 9 -16432465.77247  20246392.6374                 
 97  1  9  0 28  0.0000000  0  7  6 25  1  5  9 23 17
  21292389.247   -16720226.560 9 -13028748.93046  21292389.2144                 
  22016552.734   -14956051.190 8 -11654066.95446  22016552.4984                 
  22424479.726   -12709053.701 7  -9903161.28545  22424481.0624                 
  22898390.207   -10742225.435 7  -8370562.08045  22898390.9534                 
  23358956.203    -8934631.387 7  -6962043.72745  23358955.7874                 
  24300832.403    -2553635.187 6  -1989848.65345  24300833.9334                 
  20236409.003   -21140786.916 9 -16473343.17947  20236409.6914                 
 97  1  9  0 28 30.0000000  0  7  6 25  1  5  9 23 17
  21303806.183   -16660230.091 9 -12981998.46246  21303806.2744                 
  22001642.409   -15034406.387 8 -11715122.96746  22001642.2874                 
  22432625.356   -12666249.408 7  -9869807.31945  22432626.0504                 
  22903022.261   -10717884.619 7  -8351595.24645  22903023.0544                 
  23378501.172    -8831924.674 7  -6882012.57745  23378502.3134                 
  24292093.655    -2599558.051 6  -2025632.75645  24292092.9134                 
  20226529.088   -21192706.611 9 -16513800.09047  20226529.9654                 
 97  1  9  0 29  0.0000000  0  7  6 25  1  5  9 23 17
  21315235.154   -16600170.313 9 -12935198.66246  21315235.2554                 
  21986784.047   -15112486.864 8 -11775964.90946  21986784.2014                 
  22440807.467   -12623253.523 7  -9836304.06745  22440808.8774                 
  22907684.452   -10693385.975 7  -8332505.43145  22907685.3394                 
  23398082.605    -8729024.673 7  -6801830.81845  23398083.7484                 
  24283302.782    -2645755.543 6  -2061630.86145  24283303.1254                 
  20216754.173   -21244074.700 9 -16553827.17747  20216754.9614                 
 97  1  9  0 29 30.0000000  0  7  6 25  1  5  9 23 17
  21326676.412   -16540046.338 9 -12888348.84446  21326676.5914                 
  21971977.229   -15190297.562 8 -11836596.63946  21971977.1724                 
  22449026.650   -12580060.602 7  -9802647.27445  22449027.5204                 
  22912378.042   -10668718.902 7  -8313284.38845  22912378.9684                 
  23417696.699    -8625950.455 7  -6721513.28445  23417697.4724                 
  24274457.074    -2692235.851 6  -2097849.29945  24274458.5524                 
  20207084.268   -21294889.226 9 -16593422.91647  20207085.2694                 
 97  1  9  0 30  0.0000000  0  7  6 25  1  5  9 23 17
  21338131.477   -16479849.638 9 -12841442.35346  21338131.4774                 
  21957224.736   -15267822.719 8 -11897005.86346  21957224.4934                 
  22457281.625   -12536679.685 7  -9768843.98245  22457282.6994                 
  22917105.825   -10643874.662 7  -8293925.29345  22917106.6564                 
  23437343.828    -8522705.370 7  -6641062.62745  23437344.1594                 
  24265556.949    -2739009.570 6  -2134296.37745  24265559.0044                 
  20197520.403   -21345148.915 9 -16632586.31447  20197521.1734                 
 97  1  9  0 30 30.0000000  0  7  6 25  1  5  9 23 17
  21349600.068   -16419581.928 9 -12794480.53146  21349600.1904                 
  21942529.839   -15345044.890 8 -11957178.99646  21942529.3684                 
  22465571.236   -12493117.276 7  -9734899.26145  22465572.1674                 
  22921872.999   -10618824.928 7  -8274406.05445  22921874.2074                 
  23457022.369    -8419294.380 7  -6560482.69045  23457023.4524                 
  24256600.062    -2786078.334 6  -2170973.33245  24256601.3054                 
  20188057.606   -21394875.206 9 -16671334.07747  20188058.4294                 
 97  1  9  0 31  0.0000000  0  7  6 25  1  5  9 23 17
  21361079.871   -16359255.243 9 -12747472.74846  21361080.0324                 
  21927897.385   -15421940.473 8 -12017097.64146  21927896.7444                 
  22473893.931   -12449381.574 7  -9700819.52845  22473894.5964                 
  22926678.737   -10593569.050 7  -8254726.18845  22926679.4494                 
  23476733.704    -8315711.396 7  -6479768.73245  23476734.2194                 
  24247589.012    -2833433.505 6  -2207873.49045  24247591.1404                 
  20178692.736   -21444087.777 9 -16709681.53947  20178693.4364                 
 97  1  9  0 31 30.0000000  0  7  6 25  1  5  9 23 17
  21372571.055   -16298869.473 9 -12700418.93146  21372571.3164                 
  21913328.796   -15498499.476 8 -12076754.01546  21913328.1964                 
  22482248.789   -12405477.541 7  -9666608.63045  22482249.1104                 
  22931521.052   -10568123.071 7  -8234898.18345  22931521.6134                 
  23496479.097    -8211947.141 7  -6398913.53245  23496480.9554                 
  24238522.848    -2881075.398 6  -2244997.11145  24238525.4054                 
  20169423.967   -21492795.376 9 -16747635.51547  20169424.9094                 
 97  1  9  0 32  0.0000000  0  7  6 25  1  5  9 23 17
  21384071.453   -16238434.391 9 -12653326.69046  21384071.9374                 
  21898827.670   -15574703.551 8 -12136133.83246  21898827.3114                 
  22490635.557   -12361404.046 7  -9632265.66945  22490637.6394                 
  22936399.950   -10542484.954 7  -8214920.47145  22936401.2594                 
  23516259.261    -8108002.384 6  -6317917.69545  23516260.9874                 
  24229404.186    -2928991.549 6  -2282334.46145  24229406.9104                 
  20160250.652   -21541002.565 9 -16785199.56547  20160251.5344                 
 97  1  9  0 32 30.0000000  0  7  6 25  1  5  9 23 17
  21395580.720   -16177952.305 9 -12606197.82646  21395580.7454                 
  21884394.024   -15650551.414 8 -12195236.07546  21884393.9024                 
  22499057.774   -12317146.527 7  -9597779.32645  22499058.4034                 
  22941313.203   -10516666.115 7  -8194801.93945  22941314.4714                 
  23536072.641    -8003882.389 7  -6236785.29645  23536074.2534                 
  24220234.723    -2977182.520 6  -2319885.81745  24220233.9154                 
  20151170.985   -21588716.425 9 -16822379.19947  20151171.8134                 
 97  1  9  0 33  0.0000000  0  7  6 25  1  5  9 23 17
  21407102.681   -16117404.642 9 -12559017.85846  21407102.9554                 
  21870029.037   -15726040.365 8 -12254058.64746  21870029.0024                 
  22507515.005   -12272703.541 7  -9563148.45745  22507515.7124                 
  22946256.676   -10490688.405 7  -8174559.63045  22946258.0574                 
  23555920.348    -7899581.536 6  -6155511.97445  23555922.7064                 
  24211011.745    -3025646.991 6  -2357650.36945  24211014.1704                 
  20142187.949   -21635922.603 9 -16859163.24047  20142188.7054                 
 97  1  9  0 33 30.0000000  0  7  6 25  1  5  9 23 17
  21418642.540   -16056762.404 9 -12511764.19646  21418642.5384                 
  21855728.261   -15801190.407 8 -12312617.13246  21855727.5714                 
  22516006.645   -12228079.477 7  -9528376.49445  22516007.8544                 
  22951231.216   -10464546.710 7  -8154189.52445  22951233.8874                 
  23575801.753    -7795104.799 6  -6074101.55845  23575800.8904                 
  24201737.534    -3074385.247 6  -2395628.22345  24201737.5984                 
  20133302.917   -21682613.423 9 -16895545.69947  20133303.6564                 
 97  1  9  0 34  0.0000000  0  7  6 25  1  5  9 23 17
  21430200.364   -15996024.896 9 -12464436.29546  21430200.7564                 
  21841491.424   -15876004.524 8 -12370913.86446  21841491.0344                 
  22524530.900   -12183283.584 7  -9493470.63945  22524531.6414                 
  22956237.875   -10438236.875 7  -8133688.40145  22956239.2574                 
  23595712.136    -7690473.704 6  -5992570.90545  23595712.9434                 
  24192408.578    -3123408.475 6  -2433828.18945  24192412.3484                 
  20124518.626   -21728775.892 9 -16931516.45947  20124519.3984                 
 97  1  9  0 34 30.0000000  0  7  6 25  1  5  9 23 17
  21441779.670   -15935176.298 9 -12417021.83746  21441780.0764                 
  21827316.697   -15950495.016 8 -12428958.42046  21827316.4834                 
  22533083.666   -12138339.174 7  -9458449.04945  22533084.1884                 
  22961274.099   -10411773.046 7  -8113067.27145  22961275.5184                 
  23615651.837    -7585690.500 6  -5910921.74345  23615653.5514                 
  24183024.187    -3172719.999 6  -2472252.74845  24183026.1214                 
  20115836.183   -21774401.800 9 -16967069.11947  20115836.9114                 
 97  1  9  0 35  0.0000000  0  7  6 25  1  5  9 23 17
  21453377.966   -15874225.180 9 -12369527.49146  21453378.2514                 
  21813202.477   -16024665.516 8 -12486753.62846  21813202.4404                 
  22541662.516   -12093256.595 7  -9423319.78345  22541663.0164                 
  22966339.879   -10385150.751 7  -8092322.68245  22966341.6934                 
  23635619.397    -7480763.788 6  -5829160.74245  23635618.9964                 
  24173588.595    -3222307.144 6  -2510892.12445  24173588.0134                 
  20107257.843   -21819481.610 9 -17002196.24647  20107258.7014                 
 97  1  9  0 35 30.0000000  0  7  6 25  1  5  9 23 17
  21464988.223   -15813213.850 9 -12321986.23046  21464988.4744                 
  21799148.509   -16098520.186 8 -12544302.73346  21799148.1754                 
  22550266.545   -12048041.615 7  -9388087.34545  22550267.3524                 
  22971437.806   -10358362.534 7  -8071448.78345  22971438.7594                 
  23655610.798    -7375705.410 6  -5747297.13145  23655611.4564                 
  24164101.149    -3272165.763 6  -2549743.02745  24164103.0534                 
  20098783.175   -21864016.155 9 -17036898.49447  20098784.1584                 
 97  1  9  0 36  0.0000000  0  7  6 25  1  5  9 23 17
  21476603.934   -15752173.623 9 -12274422.44746  21476603.9484                 
  21785158.107   -16172038.944 8 -12601590.09546  21785158.0014                 
  22558896.175   -12002693.740 7  -9352751.38245  22558897.2824                 
  22976566.952   -10331408.401 7  -8050445.60945  22976568.1804                 
  23675629.942    -7270501.077 6  -5665319.77945  23675631.0614                 
  24154563.013    -3322287.373 6  -2588798.86845  24154566.1874                 
  20090412.055   -21908006.335 9 -17071176.55847  20090412.9764                 
 97  1  9  0 36 30.0000000  0  7  6 25  1  5  9 23 17
  21488224.140   -15691108.717 9 -12226839.43046  21488224.3724                 
  21771233.225   -16245215.456 9 -12658610.76546  21771232.8964                 
  22567552.664   -11957203.855 7  -9317304.72245  22567554.0664                 
  22981728.470   -10304282.725 7  -8029308.75245  22981729.4064                 
  23695681.618    -7165131.545 6  -5583213.75545  23695684.0974                 
  24144979.190    -3372653.366 6  -2628045.05745  24144981.1664                 
  20082142.857   -21951461.249 9 -17105037.53547  20082143.7064                 
 97  1  9  0 37  0.0000000  0  7  6 25  1  5  9 23 17
  21499846.867   -15630030.129 9 -12179245.75646  21499847.2784                 
  21757373.640   -16318048.130 9 -12715363.51046  21757373.3034                 
  22576239.282   -11911556.159 7  -9281735.12245  22576240.2144                 
  22986925.699   -10276972.319 7  -8008027.95245  22986927.4494                 
  23715763.134    -7059603.618 6  -5500984.27845  23715761.8004                 
  24135349.443    -3423258.206 6  -2667477.45145  24135353.6364                 
  20073974.157   -21994388.487 9 -17138487.33347  20073974.9804                 
 97  1  9  0 37 30.0000000  0  7 25  6  1  5  9 23 17
  21743578.265   -16390542.034 9 -12771852.28246  21743578.0184                 
  21511474.390   -15568927.588 9 -12131633.41946  21511474.8764                 
  22584953.381   -11865763.223 7  -9246052.34545  22584954.5684                 
  22992158.884   -10249470.103 7  -7986597.69745  22992159.9224                 
  23735876.780    -6953908.824 6  -5418624.76845  23735876.4764                 
  24125673.448    -3474103.395 6  -2707097.08945  24125675.4414                 
  20065907.049   -22036781.379 9 -17171520.75747  20065907.9494                 
 97  1  9  0 38  0.0000000  0  7 25  6  1  5  9 23 17
  21729849.181   -16462688.775 9 -12828070.53646  21729849.1014                 
  21523111.139   -15507775.016 9 -12083982.09246  21523111.4204                 
  22593695.319   -11819822.801 7  -9210254.64045  22593696.2834                 
  22997430.584   -10221768.316 7  -7965011.93045  22997432.9674                 
  23756020.617    -6848049.584 6  -5336137.12145  23756022.4224                 
  24115952.652    -3525186.667 6  -2746902.24045  24115956.7934                 
  20057942.433   -22078635.677 9 -17204134.49847  20057943.3734                 
 97  1  9  0 38 30.0000000  0  7 25  6  1  5  9 23 17
  21716183.619   -16534503.444 9 -12884030.03546  21716183.6124                 
  21534758.139   -15446571.566 9 -12036291.12246  21534758.3904                 
  22602465.360   -11773736.295 7  -9174343.10345  22602466.3924                 
  23002740.563   -10193866.543 7  -7943270.32845  23002742.2494                 
  23776190.424    -6742051.760 6  -5253541.46945  23776191.8924                 
  24106186.329    -3576510.928 6  -2786895.20845  24106189.5604                 
  20050081.919   -22119942.700 9 -17236321.79147  20050082.7994                 
 97  1  9  0 39  0.0000000  0  7 25  6  1  5  9 23 17
  21702580.013   -16605990.475 9 -12939734.22846  21702580.0174                 
  21546413.439   -15385322.489 9 -11988564.59546  21546413.6744                 
  22611262.257   -11727508.017 7  -9138321.09145  22611262.9514                 
  23008087.985   -10165763.414 7  -7921371.81245  23008089.3574                 
  23796384.870    -6635928.744 6  -5170848.29545  23796385.9334                 
  24096372.484    -3628079.400 6  -2827078.46345  24096371.9024                 
  20042328.671   -22160686.401 9 -17268070.13047  20042329.5974                 
 97  1  9  0 39 30.0000000  0  7 25  6  1  5  9 23 17
  21689039.970   -16677144.329 9 -12995178.79546  21689039.7474                 
  21558074.517   -15324043.014 9 -11940814.39146  21558074.8694                 
  22620083.891   -11681149.909 7  -9102197.92345  22620085.0434                 
  23013474.924   -10137454.951 7  -7899313.31345  23013475.8924                 
  23816605.126    -6529674.994 6  -5088053.27045  23816607.4564                 
  24086512.866    -3679894.591 6  -2867453.95745  24086515.4084                 
  20034685.729   -22200849.414 9 -17299365.98747  20034686.7724                 
 97  1  9  0 40  0.0000000  0  7 25  6  1  5  9 23 17
  21675567.307   -16747944.389 9 -13050347.69046  21675566.7934                 
  21569738.396   -15262748.372 9 -11893052.36546  21569738.5404                 
  22628932.430   -11634651.638 7  -9065965.52145  22628933.5134                 
  23018898.794   -10108953.477 7  -7877104.40945  23018900.1744                 
  23836847.119    -6423305.230 6  -5005167.80345  23836848.2884                 
  24076605.429    -3731958.251 6  -2908023.02645  24076605.2004                 
  20027151.731   -22240441.489 9 -17330216.95347  20027152.5304                 
 97  1  9  0 40 30.0000000  0  7 25  6  1  5  9 23 17
  21662162.604   -16818386.840 9 -13105237.92146  21662162.4244                 
  21581404.634   -15201443.039 9 -11845282.00546  21581404.5414                 
  22637806.793   -11588017.431 7  -9029627.21145  22637808.3244                 
  23024356.438   -10080272.797 7  -7854755.87345  23024357.9354                 
  23857111.179    -6316820.160 6  -4922192.50345  23857113.3324                 
  24066650.277    -3784273.426 6  -2948788.14745  24066654.8464                 
  20019726.171   -22279463.776 9 -17360623.93347  20019727.0124                 
 97  1  9  0 41  0.0000000  0  7 25  6  1  5  9 23 17
  21648829.908   -16888450.480 9 -13159832.97446  21648829.4754                 
  21593075.654   -15140111.516 8 -11797491.23846  21593075.7904                 
  22646704.889   -11541257.086 7  -8993190.60045  22646706.0964                 
  23029849.826   -10051405.683 7  -7832262.05245  23029851.3004                 
  23877398.738    -6210205.327 6  -4839116.09545  23877401.1034                 
  24056646.703    -3836843.005 6  -2989751.49845  24056649.6174                 
  20012407.606   -22317923.012 9 -17390592.17247  20012408.6414                 
 97  1  9  0 41 30.0000000  0  7 25  6  1  5  9 23 17
  21635572.980   -16958116.579 9 -13214118.25246  21635572.8104                 
  21604752.306   -15078750.564 9 -11749677.54446  21604752.6154                 
  22655625.258   -11494381.147 7  -8956663.92345  22655626.2784                 
  23035377.089   -10022361.615 7  -7809630.35245  23035378.4154                 
  23897711.994    -6103455.699 6  -4755934.66745  23897714.5094                 
  24046594.759    -3889666.682 6  -3030912.80545  24046597.2234                 
  20005194.171   -22355830.031 9 -17420130.11047  20005194.9724                 
 97  1  9  0 42  0.0000000  0  7 25  6  1  5  9 23 17
  21622392.524   -17027380.449 9 -13268090.11046  21622392.4874                 
  21616436.094   -15017351.672 8 -11701834.28146  21616436.6234                 
  22664567.851   -11447386.844 7  -8920045.00745  22664568.3714                 
  23040935.690    -9993148.435 7  -7786866.86645  23040938.2374                 
  23918049.671    -5996581.306 6  -4672655.97445  23918050.5314                 
  24036493.299    -3942750.610 6  -3072276.94045  24036494.9094                 
  19998085.064   -22393188.816 9 -17449240.85347  19998085.7864                 
 97  1  9  0 42 30.0000000  0  7 25  6  1  5  9 23 17
  21609285.102   -17096259.166 9 -13321761.84646  21609284.8394                 
  21628127.728   -14955911.342 8 -11653958.73346  21628128.0644                 
  22673532.403   -11400277.540 7  -8883336.48545  22673532.9924                 
  23046530.176    -9963750.127 7  -7763959.13245  23046531.2634                 
  23938414.125    -5889569.061 6  -4589269.88745  23938416.0234                 
  24026343.882    -3996084.412 6  -3113835.77445  24026343.4654                 
  19991083.131   -22429983.732 9 -17477912.22247  19991083.8814                 
 97  1  9  0 43  0.0000000  0  7 25  6  1  5  9 23 17
  21596249.703   -17164760.853 9 -13375139.79346  21596249.5004                 
  21639825.486   -14894440.052 8 -11606059.05646  21639825.5734                 
  22682517.356   -11353061.583 7  -8846544.85045  22682518.4704                 
  23052161.274    -9934159.379 7  -7740901.43245  23052162.9444                 
  23958805.636    -5782412.938 6  -4505771.70345  23958807.9494                 
  24016149.361    -4049657.409 6  -3155580.95745  24016152.2964                 
  19984191.393   -22466200.305 9 -17506132.93047  19984192.1724                 
 97  1  9  0 43 30.0000000  0  7 25  6  1  5  9 23 17
  21583282.560   -17232904.871 9 -13428239.03146  21583282.0794                 
  21651525.572   -14832956.095 8 -11558149.50746  21651525.8664                 
  22691522.695   -11305737.654 7  -8809669.08245  22691523.2064                 
  23057828.888    -9904375.595 7  -7717693.33045  23057830.4454                 
  23979220.568    -5675132.262 6  -4422176.47445  23979223.7874                 
  24005910.115    -4103466.727 6  -3197510.33145  24005910.7824                 
  19977411.421   -22501829.046 9 -17533895.59247  19977412.3214                 
 97  1  9  0 44  0.0000000  0  7 25  6  1  5  9 23 17
  21570379.921   -17300708.043 9 -13481072.67546  21570379.6264                 
  21663228.039   -14771459.001 8 -11510229.72946  21663228.5664                 
  22700549.496   -11258301.691 7  -8772706.02145  22700550.1154                 
  23063537.401    -9874377.970 7  -7694318.58445  23063538.7884                 
  23999656.789    -5567738.902 6  -4338493.43145  23999657.9714                 
  23995626.080    -4157509.706 6  -3239621.74445  23995629.5854                 
  19970744.081   -22536865.762 9 -17561196.93347  19970744.9284                 
 97  1  9  0 44 30.0000000  0  7 25  6  1  5  9 23 17
  21557543.374   -17368163.090 9 -13533635.05746  21557543.1054                 
  21674934.561   -14709940.516 8 -11462293.28246  21674935.3414                 
  22709595.490   -11210765.098 7  -8735664.54045  22709596.3834                 
  23069286.175    -9844167.417 7  -7670777.93345  23069287.0424                 
  24020114.668    -5460230.849 7  -4254721.00945  24020115.4614                 
  23985298.775    -4211778.662 6  -3281909.24745  23985298.6694                 
  19964187.771   -22571319.709 9 -17588044.16847  19964188.5384                 
 97  1  9  0 45  0.0000000  0  7 25  6  1  5  9 23 17
  21544776.544   -17435253.705 9 -13585913.46346  21544776.3384                 
  21686645.913   -14648397.295 8 -11414337.56346  21686646.3534                 
  22718659.323   -11163134.995 7  -8698550.21045  22718661.2454                 
  23075075.334    -9813744.704 7  -7647071.95845  23075077.1804                 
  24040591.061    -5352623.576 6  -4170871.27245  24040592.0974                 
  23974926.901    -4266280.923 6  -3324378.59145  23974926.2364                 
  19957738.563   -22605211.115 9 -17614453.06047  19957739.4434                 
 97  1  9  0 45 30.0000000  0  7 25  6  1  5  9 23 17
  21532082.886   -17501959.650 9 -13637892.12646  21532082.2884                 
  21698361.930   -14586829.641 8 -11366362.79446  21698362.7554                 
  22727740.604   -11115411.598 7  -8661363.16645  22727741.7924                 
  23080906.131    -9783103.443 7  -7623195.68745  23080908.3304                 
  24061084.894    -5244929.641 6  -4086954.00045  24061086.7884                 
  23964511.126    -4321020.203 6  -3367032.62645  23964512.9224                 
  19951393.245   -22638555.436 9 -17640435.65047  19951394.1624                 
 97  1  9  0 46  0.0000000  0  7 25  6  1  5  9 23 17
  21519464.820   -17568267.445 9 -13689560.54446  21519464.7704                 
  21710082.892   -14525234.830 8 -11318366.87046  21710083.1024                 
  22736839.090   -11067599.755 7  -8624107.22045  22736839.9064                 
  23086775.437    -9752260.093 7  -7599161.93645  23086778.0924                 
  24081598.379    -5137131.627 6  -4002955.63945  24081599.8384                 
  23954049.668    -4375995.129 6  -3409870.24145  23954049.6054                 
  19945151.596   -22671355.273 9 -17665993.96947  19945152.5624                 
 97  1  9  0 46 30.0000000  0  7 25  6  1  5  9 23 17
  21506924.191   -17634169.800 9 -13740913.02746  21506923.7794                 
  21721807.243   -14463624.089 8 -11270358.52846  21721807.9464                 
  22745953.583   -11019702.449 7  -8586784.66545  22745955.2044                 
  23092680.930    -9721226.678 7  -7574980.07245  23092684.5224                 
  24102134.634    -5029214.580 6  -3918864.52645  24102134.5904                 
  23943543.070    -4431208.748 6  -3452893.82745  23943542.1844                 
  19939013.928   -22703609.288 9 -17691126.96947  19939014.8214                 
 97  1  9  0 47  0.0000000  0  7 25  6  1  5  9 23 17
  21494458.359   -17699677.669 9 -13791958.12946  21494458.1554                 
  21733529.943   -14402020.989 8 -11222356.14646  21733530.8344                 
  22755083.428   -10971725.127 7  -8549399.77645  22755084.3694                 
  23098623.890    -9689996.080 7  -7550644.58745  23098625.6004                 
  24122692.201    -4921184.156 6  -3834685.05945  24122692.9644                 
  23932990.441    -4486662.290 6  -3496104.39645  23932990.9304                 
  19932982.935   -22735302.748 9 -17715823.17447  19932983.8194                 
 97  1  9  0 47 30.0000000  0  7 25  6  1  5 23  9 17
  21482067.370   -17764791.725 9 -13842696.35646  21482067.3864                 
  21745250.528   -14340428.791 8 -11174362.25646  21745250.5304                 
  22764227.788   -10923672.029 7  -8511955.82845  22764228.6774                 
  23104603.669    -9658573.099 7  -7526159.19145  23104605.4894                 
  23922393.735    -4542348.697 6  -3539496.43245  23922394.8834                 
  24143272.631    -4813033.614 6  -3750412.02445  24143274.4844                 
  19927063.037   -22766411.843 9 -17740064.03247  19927063.8924                 
 97  1  9  0 48  0.0000000  0  7 25  6  1  5 23  9 17
  21469749.577   -17829524.023 9 -13893137.11246  21469749.5054                 
  21756968.844   -14278848.428 8 -11126377.59546  21756969.7414                 
  22773386.081   -10875544.131 7  -8474453.58445  22773387.2004                 
  23110619.795    -9626957.296 7  -7501523.52345  23110620.7904                 
  23911753.599    -4598262.184 6  -3583065.42745  23911755.4654                 
  24163875.140    -4704768.807 6  -3666049.89545  24163878.4144                 
  19921255.222   -22796931.620 9 -17763845.67947  19921256.0984                 
 97  1  9  0 48 30.0000000  0  7 25  6  1  5 23  9 17
  21457503.997   -17893874.127 9 -13943280.05446  21457503.9724                 
  21768684.886   -14217282.398 8 -11078404.09646  21768685.2914                 
  22782557.673   -10827348.863 7  -8436898.86745  22782559.1924                 
  23116677.079    -9595127.225 7  -7476720.90045  23116679.4694                 
  23901073.253    -4654386.191 6  -3626798.40245  23901074.6404                 
  24184494.362    -4596414.099 6  -3581617.77845  24184495.4914                 
  19915561.475   -22826853.369 9 -17787161.33247  19915562.3644                 
 97  1  9  0 49  0.0000000  0  7 25  6  1  5 23  9 17
  21445333.350   -17957831.255 9 -13993116.78446  21445333.3754                 
  21780398.650   -14155725.024 8 -11030437.35046  21780398.8794                 
  22791740.385   -10779092.681 7  -8399296.67845  22791741.1754                 
  23122777.374    -9563071.112 7  -7451742.14445  23122777.8644                 
  23890357.980    -4710696.567 6  -3670676.64045  23890360.5784                 
  24205126.439    -4487988.284 6  -3497130.27245  24205131.6534                 
  19909982.424   -22856170.560 9 -17810005.90047  19909983.3284                 
 97  1  9  0 49 30.0000000  0  7 25  6  1  5 23  9 17
  21433239.938   -18021383.883 9 -14042638.31746  21433239.6614                 
  21792113.083   -14094164.309 8 -10982467.98546  21792113.7914                 
  22800936.889   -10730763.685 7  -8361637.74045  22800938.8294                 
  23128919.601    -9530792.537 7  -7426590.04545  23128921.4704                 
  23879606.691    -4767196.491 6  -3714702.54945  23879609.1214                 
  24225772.303    -4379494.567 6  -3412589.76843  24225775.3894                 
  19904516.098   -22884897.088 9 -17832390.21147  19904516.9344                 
 97  1  9  0 50  0.0000000  0  7 25  6  1  5 23  9 17
  21421223.069   -18084531.775 9 -14091844.47646  21421222.7874                 
  21803826.485   -14032610.755 8 -10934504.21546  21803827.0164                 
  22810149.705   -10682351.291 7  -8323913.82945  22810150.7554                 
  23135105.643    -9498283.055 7  -7401258.01145  23135108.1564                 
  23868818.225    -4823888.628 6  -3758878.25745  23868818.5194                 
  24246431.141    -4270935.050 6  -3327998.00145  24246437.1784                 
  19899159.772   -22913044.409 9 -17854323.19347  19899160.6584                 
 97  1  9  0 50 30.0000000  0  7 25  6  1  5 23  9 17
  21409285.285   -18147265.779 9 -14140728.12846  21409285.2954                 
  21815538.599   -13971063.230 8 -10886545.13746  21815539.5744                 
  22819378.006   -10633855.533 7  -8286124.97045  22819379.7284                 
  23141335.388    -9465548.057 7  -7375750.25345  23141337.1134                 
  23857991.921    -4880782.994 6  -3803211.53845  23857994.7074                 
  24267103.160    -4162302.971 5  -3243349.78344  24267102.1224                 
  19893913.916   -22940612.098 9 -17875804.51247  19893914.8514                 
 97  1  9  0 51  0.0000000  0  7 25  6  1  5 23  9 17
  21397428.312   -18209575.479 9 -14189281.14746  21397428.2974                 
  21827250.211   -13909518.747 8 -10838588.42946  21827251.0344                 
  22828625.114   -10585262.850 7  -8248260.55345  22828625.9394                 
  23147604.700    -9432602.062 7  -7350078.07845  23147606.3364                 
  23847121.181    -4937905.958 6  -3847722.93945  23847124.0994                 
  24287791.344    -4053589.545 5  -3158638.18943  24287791.7524                 
  19888778.794   -22967596.409 9 -17896831.25147  19888779.7214                 
 97  1  9  0 51 30.0000000  0  7 25  6  1  5 23  9 17
  21385649.983   -18271470.214 9 -14237510.82146  21385650.0424                 
  21838959.705   -13847984.108 8 -10790639.39146  21838959.9414                 
  22837890.992   -10536569.601 7  -8210317.79945  22837891.4744                 
  23153912.993    -9399452.667 7  -7324247.39745  23153915.5154                 
  23836202.361    -4995288.067 6  -3892436.28045  23836203.5744                 
  24308495.087    -3944794.653 5  -3073862.81343  24308497.6174                 
  19883754.983   -22993997.212 9 -17917403.30947  19883755.8634                 
 97  1  9  0 52  0.0000000  0  6 25  6  1  5 23 17
  21373948.240   -18332963.465 9 -14285427.64346  21373948.0314                 
  21850667.002   -13786463.134 8 -10742700.99646  21850667.6654                 
  22847172.506   -10487795.624 7  -8172312.13645  22847173.9244                 
  23160260.306    -9366098.436 7  -7298257.12945  23160262.3444                 
  23825235.975    -5052914.581 6  -3937340.07245  23825238.5034                 
  19878844.602   -23019801.347 9 -17937510.43147  19878845.4634                 
 97  1  9  0 52 30.0000000  0  6 25  6  1  5 23 17
  21362323.513   -18394051.765 9 -14333028.92546  21362323.2974                 
  21862373.124   -13724946.608 8 -10694766.06946  21862373.5614                 
  22856466.362   -10438956.604 7  -8134255.77945  22856467.0314                 
  23166644.467    -9332549.492 7  -7272115.11445  23166646.9364                 
  23814223.697    -5110785.776 6  -3982434.51945  23814224.9144                 
  19874049.922   -23044997.635 9 -17957143.90347  19874050.7204                 
 97  1  9  0 53  0.0000000  0  7 25  6  1  5 23 21 17
  21350774.255   -18454743.918 9 -14380321.51546  21350773.9104                 
  21874075.361   -13663450.022 8 -10646846.68046  21874076.2774                 
  22865771.695   -10390054.689 7  -8096150.42845  22865773.4144                 
  23173067.340    -9298796.388 7  -7245814.03445  23173069.1754                 
  23803166.997    -5168888.285 6  -4027709.20845  23803167.9954                 
  24895551.593          -0.91816         0.01355  24895553.0624                 
  19869372.157   -23069579.739 9 -17976298.79447  19869372.9154                 
 97  1  9  0 53 30.0000000  0  7 25  6  1  5 23 21 17
  21339297.994   -18515051.946 9 -14427314.78946  21339297.8574                 
  21885772.558   -13601981.475 8 -10598949.13846  21885773.2484                 
  22875087.739   -10341100.129 7  -8058004.04545  22875089.3864                 
  23179531.592    -9264826.153 7  -7219343.75945  23179533.0024                 
  23792071.154    -5227197.492 6  -4073144.92745  23792075.1934                 
  24884392.374      -58640.486 6    -45693.21145  24884394.6004                 
  19864807.778   -23093566.043 9 -17994989.42347  19864808.6884                 
 97  1  9  0 54  0.0000000  0  7 25  6  1  5 23 21 17
  21327897.658   -18574961.720 9 -14473997.73946  21327897.4754                 
  21897463.973   -13540543.525 8 -10551075.44046  21897464.6384                 
  22884413.121   -10292094.165 7  -8019817.62145  22884415.2044                 
  23186036.653    -9230641.654 7  -7192706.52745  23186038.0704                 
  23780940.992    -5285686.297 6  -4118720.65645  23780943.3774                 
  24873179.959     -117565.768 6    -91609.07145  24873181.9074                 
  19860357.081   -23116954.148 9 -18013213.92147  19860358.0084                 
 97  1  9  0 54 30.0000000  0  7 25  6  1  5 23 21 17
  21316576.034   -18634455.954 9 -14520356.88546  21316576.0014                 
  21909148.530   -13479139.949 8 -10503228.52946  21909149.1524                 
