     2.11           OBSERVATION DATA    M (MIXED)           RINEX VERSION / TYPE
teqc  2011Oct11     Jaume Sanz          20140502 10:31:53UTCPGM / RUN BY / DATE
Linux 2.4.21-27.ELsmp|Opteron|gcc|Linux x86_64|=+           COMMENT
     2.10           Observation data    M (Mixed)           COMMENT
sbf2rin                                 (07-MAY-11 11:30)   COMMENT
LLI: only bit 0 (loss of lock bit) supported                COMMENT
UPC1                                                        MARKER NAME
Unknown                                                     MARKER NUMBER
gAGE / UPC          gAGE / UPC                              OBSERVER / AGENCY
1217                SEPT POLARX2        2.7.0               REC # / TYPE / VERS
Unknown             -                                       ANT # / TYPE
  4789013.0077   176610.1555  4195034.8091                  APPROX POSITION XYZ
        0.0000        0.0000        0.0000                  ANTENNA: DELTA H/E/N
     1     1                                                WAVELENGTH FACT L1/2
     5    C1    L1    L2    P2    P1                        # / TYPES OF OBSERV
     1.0000                                                 INTERVAL
teqc edited: all SBAS satellites excluded                   COMMENT
  2010     3    18     0     0    0.0000000     GPS         TIME OF FIRST OBS
    15                                                      LEAP SECONDS
                                                            END OF HEADER
 10  3 18  5  0  0.0000000  0  9G19G07G16G24G21G22G06G18G03
  22907163.076 8 -16928881.668 8 -13030091.462 8  22907160.687 8  22907161.185 8
  24781801.204 7  -3590865.338 7  -2581350.785 6  24781800.987 6  24781801.236 6
  21271994.837 9 -36888203.951 9 -28496606.548 9  21271994.961 9  21271993.925 9
  23680324.491 7 -35224175.434 7 -22496539.536 7  23680326.333 7  23680323.596 7
  22962986.759 8 -38716769.470 8 -26089852.117 8  22962985.939 8  22962985.260 8
  22115207.532 9 -29776039.613 9 -18242778.261 9  22115205.579 9  22115206.591 9
  20829944.689 9 -39309730.712 9 -29251710.418 9  20829945.372 9  20829943.922 9
  22537978.087 8 -31814636.635 8 -19710398.465 8  22537977.806 8  22537977.393 8
  20847386.391 9 -32762976.000 9 -25060562.115 9  20847386.776 9  20847385.359 9
 10  3 18  5  0  1.0000000  0  9G19G07G16G24G21G22G06G18G03
  22906468.403 8 -16932531.784 8 -13032935.706 8  22906466.095 8  22906466.584 8
  24781416.686 7  -3592885.680 7  -2582925.077 6  24781416.487 6  24781416.763 6
  21272092.059 9 -36887692.505 9 -28496208.019 9  21272092.261 9  21272091.318 9
  23680684.969 8 -35222280.939 8 -22495063.306 7  23680686.816 7  23680684.112 7
  22963211.949 8 -38715585.399 8 -26088929.465 8  22963211.259 8  22963210.575 8
  22114603.965 9 -29779211.372 9 -18245249.761 9  22114601.981 9  22114602.996 9
  20829541.387 9 -39311850.088 9 -29253361.879 9  20829542.083 9  20829540.644 9
  22537772.097 8 -31815719.472 8 -19711242.234 8  22537771.793 8  22537771.321 8
  20846851.242 9 -32765788.900 9 -25062753.986 9  20846851.515 9  20846850.097 9
 10  3 18  5  0  2.0000000  0  9G19G07G16G24G21G22G06G18G03
  22905773.663 8 -16936181.752 8 -13035779.836 8  22905771.510 8  22905772.022 8
  24781032.086 7  -3594905.422 7  -2584498.904 6  24781032.127 6  24781032.407 6
  21272189.539 9 -36887180.524 9 -28495809.073 9  21272189.631 9  21272188.814 9
  23681045.622 7 -35220386.347 7 -22493587.001 7  23681047.302 7  23681044.646 7
  22963437.151 8 -38714401.146 8 -26088006.670 8  22963436.607 8  22963435.932 8
  22114000.465 9 -29782382.628 9 -18247720.869 9  22113998.500 9  22113999.520 9
  20829138.145 9 -39313969.179 9 -29255013.119 9  20829138.850 9  20829137.421 9
  22537566.185 8 -31816801.715 8 -19712085.540 8  22537565.874 8  22537565.355 8
  20846316.115 9 -32768601.468 9 -25064945.596 9  20846316.326 9  20846314.889 9
 10  3 18  5  0  3.0000000  0  9G19G07G16G24G21G22G06G18G03
  22905079.177 8 -16939831.612 8 -13038623.882 8  22905076.949 8  22905077.485 8
  24780647.790 7  -3596924.551 7  -2586072.250 6  24780647.906 6  24780648.162 6
  21272287.040 9 -36886668.036 9 -28495409.731 9  21272287.123 9  21272286.374 9
  23681405.997 7 -35218491.685 7 -22492110.639 7  23681407.759 7  23681405.217 7
  22963662.617 8 -38713216.727 8 -26087083.746 8  22963661.975 8  22963661.315 8
  22113396.960 9 -29785553.424 9 -18250191.619 9  22113395.108 9  22113396.134 9
  20828734.986 9 -39316088.002 9 -29256664.150 9  20828735.672 9  20828734.233 9
  22537360.303 8 -31817883.399 8 -19712928.410 8  22537360.046 8  22537359.493 8
  20845780.990 9 -32771413.707 9 -25067136.952 9  20845781.214 9  20845779.727 9
 10  3 18  5  0  4.0000000  0  9G19G07G16G24G21G22G06G18G03
  22904384.669 8 -16943481.328 8 -13041467.816 8  22904382.423 8  22904382.985 8
  24780263.368 7  -3598943.104 7  -2587645.146 6  24780263.813 6  24780264.018 6
  21272384.727 9 -36886155.012 9 -28495009.973 9  21272384.751 9  21272384.009 9
  23681766.678 7 -35216596.911 7 -22490634.192 7  23681768.249 7  23681765.802 7
  22963888.055 8 -38712032.102 8 -26086160.661 8  22963887.374 8  22963886.735 8
  22112793.693 9 -29788723.728 9 -18252661.985 9  22112791.817 9  22112792.875 9
  20828331.913 9 -39318206.548 9 -29258314.965 9  20828332.543 9  20828331.097 9
  22537154.579 8 -31818964.505 8 -19713770.831 8  22537154.319 8  22537153.738 8
  20845245.906 9 -32774225.635 9 -25069328.064 9  20845246.154 9  20845244.623 9
 10  3 18  5  0  5.0000000  0  9G19G07G16G24G21G22G06G18G03
  22903690.017 8 -16947130.905 8 -13044311.641 8  22903687.927 8  22903688.511 8
  24779879.576 7  -3600961.011 7  -2589217.538 6  24779879.841 6  24779879.993 6
  21272482.477 9 -36885641.442 9 -28494609.789 9  21272482.486 9  21272481.724 9
  23682127.110 7 -35214702.023 7 -22489157.656 7  23682128.822 7  23682126.381 7
  22964113.455 8 -38710847.273 8 -26085237.418 8  22964112.806 8  22964112.204 8
  22112190.586 9 -29791893.513 9 -18255131.948 9  22112188.629 9  22112189.728 9
  20827928.808 9 -39320324.792 9 -29259965.544 9  20827929.444 9  20827928.026 9
  22536948.992 8 -31820044.986 8 -19714612.764 8  22536948.697 8  22536948.100 8
  20844710.783 9 -32777037.202 9 -25071518.896 9  20844711.160 9  20844709.586 9
 10  3 18  5  0  6.0000000  0  9G19G07G16G24G21G22G06G18G03
  22902995.537 8 -16950780.287 8 -13047155.314 8  22902993.485 8  22902994.052 8
  24779495.389 7  -3602978.276 7  -2590789.431 6  24779495.992 6  24779496.088 6
  21272580.373 9 -36885127.297 9 -28494209.157 9  21272580.331 9  21272579.526 9
  23682487.565 7 -35212807.009 7 -22487681.023 7  23682489.419 7  23682486.978 7
  22964339.021 8 -38709662.225 8 -26084314.004 8  22964338.277 8  22964337.723 8
  22111587.338 9 -29795062.761 9 -18257601.491 9  22111585.559 9  22111586.656 9
  20827525.719 9 -39322442.689 9 -29261615.854 9  20827526.412 9  20827525.020 9
  22536743.448 8 -31821124.841 8 -19715454.209 8  22536743.205 8  22536742.568 8
  20844175.701 9 -32779848.387 9 -25073709.430 9  20844176.242 9  20844174.643 9
 10  3 18  5  0  7.0000000  0  9G19G07G16G24G21G22G06G18G03
  22902301.330 8 -16954429.497 8 -13049998.853 8  22902299.073 8  22902299.621 8
  24779111.450 7  -3604994.904 7  -2592360.829 6  24779112.283 6  24779112.302 6
  21272678.348 9 -36884612.579 9 -28493808.078 9  21272678.281 9  21272677.461 9
  23682847.834 7 -35210911.831 7 -22486204.259 7  23682850.039 7  23682847.574 7
  22964564.501 8 -38708476.954 8 -26083390.417 8  22964563.809 8  22964563.268 8
  22110984.363 9 -29798231.485 9 -18260070.627 9  22110982.599 9  22110983.676 9
  20827122.726 9 -39324560.290 9 -29263265.932 9  20827123.428 9  20827122.022 9
  22536538.032 8 -31822204.077 8 -19716295.172 8  22536537.844 8  22536537.143 8
  20843640.798 9 -32782659.201 9 -25075899.673 9  20843641.404 9  20843639.803 9
 10  3 18  5  0  8.0000000  0  9G19G07G16G24G21G22G06G18G03
  22901607.036 8 -16958078.590 8 -13052842.300 8  22901604.705 8  22901605.215 8
  24778728.347 7  -3607010.930 7  -2593931.756 6  24778728.713 6  24778728.632 6
  21272776.333 9 -36884097.345 9 -28493406.597 9  21272776.321 9  21272775.507 9
  23683208.426 7 -35209016.582 7 -22484727.444 7  23683210.671 7  23683208.184 7
  22964789.827 8 -38707291.496 8 -26082466.683 8  22964789.394 8  22964788.835 8
  22110381.510 9 -29801399.715 9 -18262539.377 9  22110379.731 9  22110380.775 9
  20826719.782 9 -39326677.625 9 -29264915.803 9  20826720.490 9  20826719.072 9
  22536332.813 8 -31823282.747 8 -19717135.693 8  22536332.551 8  22536331.845 8
  20843105.920 9 -32785469.700 9 -25078089.673 9  20843106.617 9  20843105.016 9
 10  3 18  5  0  9.0000000  0  9G19G07G16G24G21G22G06G18G03
  22900912.494 8 -16961727.554 8 -13055685.647 8  22900910.360 8  22900910.835 8
  24778344.974 7  -3609026.360 7  -2595502.220 6  24778345.206 6  24778345.049 6
  21272874.420 9 -36883581.598 9 -28493004.717 9  21272874.469 9  21272873.652 9
  23683568.932 7 -35207121.227 7 -22483250.545 7  23683571.295 7  23683568.816 7
  22965015.386 8 -38706105.860 8 -26081542.811 8  22965015.026 8  22965014.455 8
  22109778.678 9 -29804567.469 9 -18265007.756 9  22109776.954 9  22109777.962 9
  20826316.920 9 -39328794.677 9 -29266565.454 9  20826317.622 9  20826316.183 9
  22536127.708 8 -31824360.830 8 -19717975.758 8  22536127.334 8  22536126.680 8
  20842571.065 9 -32788279.869 9 -25080279.414 9  20842571.869 9  20842570.279 9
 10  3 18  5  0 10.0000000  0  9G19G07G16G24G21G22G06G18G03
  22900218.117 8 -16965376.363 8 -13058528.875 8  22900215.990 8  22900216.511 8
  24777961.763 7  -3611041.144 7  -2597072.179 6  24777961.774 6  24777961.574 6
  21272972.663 9 -36883065.296 9 -28492602.404 9  21272972.729 9  21272971.901 9
  23683929.776 7 -35205225.774 7 -22481773.568 7  23683931.937 7  23683929.467 7
  22965241.077 8 -38704920.034 8 -26080618.790 8  22965240.708 8  22965240.127 8
  22109175.976 9 -29807734.710 9 -18267475.736 9  22109174.259 9  22109175.242 9
  20825914.192 9 -39330911.444 9 -29268214.883 9  20825914.802 9  20825913.345 9
  22535922.516 8 -31825438.325 8 -19718815.363 8  22535922.249 8  22535921.614 8
  20842036.367 9 -32791089.698 9 -25082468.891 9  20842037.176 9  20842035.588 9
 10  3 18  5  0 11.0000000  0  9G19G07G16G24G21G22G06G18G03
  22899523.965 8 -16969024.987 8 -13061371.959 8  22899521.651 8  22899522.219 8
  24777578.460 7  -3613055.322 7  -2598641.668 6  24777578.480 6  24777578.238 6
  21273071.033 9 -36882548.432 9 -28492199.653 9  21273071.075 9  21273070.251 9
  23684290.402 7 -35203330.189 7 -22480296.490 7  23684292.626 7  23684290.165 7
  22965466.499 8 -38703733.977 8 -26079694.590 8  22965466.435 8  22965465.811 8
  22108573.398 9 -29810901.434 9 -18269943.313 9  22108571.663 9  22108572.625 9
  20825511.461 9 -39333027.884 9 -29269864.056 9  20825512.015 9  20825510.610 9
  22535717.521 8 -31826515.196 8 -19719654.483 8  22535717.308 8  22535716.660 8
  20841501.629 9 -32793899.148 9 -25084658.073 9  20841502.538 9  20841500.940 9
 10  3 18  5  0 12.0000000  0  9G19G07G16G24G21G22G06G18G03
  22898829.995 8 -16972673.477 8 -13064214.936 8  22898827.389 8  22898827.915 8
  24777195.536 7  -3615068.872 7  -2600210.669 6  24777195.323 6  24777195.035 6
  21273169.534 9 -36882031.040 9 -28491796.490 9  21273169.495 9  21273168.697 9
  23684651.006 7 -35201434.479 7 -22478819.317 7  23684653.350 7  23684650.887 7
  22965692.325 8 -38702547.721 8 -26078770.236 8  22965692.196 8  22965691.500 8
  22107970.867 9 -29814067.658 9 -18272410.501 9  22107969.170 9  22107970.112 9
  20825108.895 9 -39335144.022 9 -29271512.995 9  20825109.284 9  20825107.932 9
  22535512.610 8 -31827591.476 8 -19720493.142 8  22535512.475 8  22535511.834 8
  20840967.045 9 -32796708.266 9 -25086846.996 9  20840967.964 9  20840966.359 9
 10  3 18  5  0 13.0000000  0  9G19G07G16G24G21G22G06G18G03
  22898135.820 8 -16976321.824 8 -13067057.803 8  22898133.159 8  22898133.644 8
  24776812.639 7  -3617081.832 7  -2601779.211 6  24776812.300 6  24776811.959 6
  21273268.002 9 -36881513.107 9 -28491392.906 9  21273268.030 9  21273267.221 9
  23685012.006 7 -35199538.664 7 -22477342.059 7  23685014.147 7  23685011.629 7
  22965917.982 8 -38701361.300 8 -26077845.752 8  22965917.971 8  22965917.246 8
  22107368.461 9 -29817233.370 9 -18274877.288 9  22107366.783 9  22107367.706 9
  20824706.296 9 -39337259.863 9 -29273161.701 9  20824706.608 9  20824705.313 9
  22535307.803 8 -31828667.173 8 -19721331.348 8  22535307.741 8  22535307.123 8
  20840432.575 9 -32799517.039 9 -25089035.650 9  20840433.453 9  20840431.850 9
 10  3 18  5  0 14.0000000  0  9G19G07G16G24G21G22G06G18G03
  22897441.573 8 -16979970.041 8 -13069900.568 8  22897438.951 8  22897439.429 8
  24776429.775 7  -3619094.190 7  -2603347.283 6  24776429.419 6  24776429.013 6
  21273366.736 9 -36880994.641 9 -28490988.907 9  21273366.674 9  21273365.822 9
  23685373.063 7 -35197642.761 7 -22475864.732 7  23685374.966 7  23685372.404 7
  22966143.957 8 -38700174.679 8 -26076921.113 8  22966143.766 8  22966143.052 8
  22106766.020 9 -29820398.607 9 -18277343.707 9  22106764.472 9  22106765.371 9
  20824303.642 9 -39339375.433 9 -29274810.197 9  20824303.984 9  20824302.747 9
  22535103.285 8 -31829742.263 8 -19722169.081 8  22535103.130 8  22535102.525 8
  20839898.257 9 -32802325.487 9 -25091224.052 9  20839899.004 9  20839897.413 9
 10  3 18  5  0 15.0000000  0  9G19G07G16G24G21G22G06G18G03
  22896747.458 8 -16983618.070 8 -13072743.187 8  22896744.771 8  22896745.242 8
  24776047.038 7  -3621105.874 7  -2604914.830 6  24776046.660 6  24776046.175 6
  21273465.597 9 -36880475.621 9 -28490584.476 9  21273465.438 9  21273464.540 9
  23685733.920 7 -35195746.737 7 -22474387.309 7  23685735.825 7  23685733.242 7
  22966369.858 8 -38698987.847 8 -26075996.309 8  22966369.616 8  22966368.901 8
  22106163.816 9 -29823563.316 9 -18279809.714 9  22106162.258 9  22106163.134 9
  20823901.102 9 -39341490.698 9 -29276458.457 9  20823901.462 9  20823900.205 9
  22534898.823 8 -31830816.749 8 -19723006.342 8  22534898.640 8  22534898.036 8
  20839364.032 9 -32805133.566 9 -25093412.165 9  20839364.626 9  20839363.055 9
 10  3 18  5  0 16.0000000  0  9G19G07G16G24G21G22G06G18G03
  22896053.196 8 -16987265.982 8 -13075585.716 8  22896050.584 8  22896051.067 8
  24775664.177 7  -3623116.970 7  -2606481.917 6  24775664.001 6  24775663.425 6
  21273564.493 9 -36879956.087 9 -28490179.644 9  21273564.309 9  21273563.369 9
  23686094.907 7 -35193850.618 7 -22472909.812 7  23686096.708 7  23686094.096 7
  22966595.758 8 -38697800.844 8 -26075071.372 8  22966595.509 8  22966594.781 8
  22105561.792 9 -29826727.530 9 -18282275.336 9  22105560.146 9  22105561.010 9
  20823498.600 9 -39343605.691 9 -29278106.502 9  20823498.999 9  20823497.718 9
  22534694.456 8 -31831890.654 8 -19723843.151 8  22534694.279 8  22534693.653 8
  20838829.799 9 -32807941.321 9 -25095600.026 9  20838830.299 9  20838828.764 9
 10  3 18  5  0 17.0000000  0  9G19G07G16G24G21G22G06G18G03
  22895358.979 8 -16990913.746 8 -13078428.129 8  22895356.426 8  22895356.923 8
  24775281.964 7  -3625127.452 7  -2608048.526 6  24775281.436 6  24775280.823 6
  21273663.573 9 -36879435.999 9 -28489774.381 9  21273663.285 9  21273662.344 9
  23686455.869 7 -35191954.381 7 -22471432.226 7  23686457.629 7  23686454.958 7
  22966821.593 8 -38696613.637 8 -26074146.277 8  22966821.428 8  22966820.701 8
  22104959.706 9 -29829891.242 9 -18284740.565 9  22104958.128 9  22104958.985 9
  20823096.074 9 -39345720.369 9 -29279754.304 9  20823096.612 9  20823095.278 9
  22534490.193 8 -31832963.950 8 -19724679.486 8  22534490.056 8  22534489.387 8
  20838295.538 9 -32810748.717 9 -25097787.607 9  20838296.025 9  20838294.540 9
 10  3 18  5  0 18.0000000  0  9G19G07G16G24G21G22G06G18G03
  22894664.854 8 -16994561.370 8 -13081270.432 8  22894662.317 8  22894662.812 8
  24774899.396 7  -3627137.325 7  -2609614.660 6  24774898.952 6  24774898.358 6
  21273762.700 9 -36878915.396 9 -28489368.717 9  21273762.365 9  21273761.458 9
  23686816.881 7 -35190058.048 7 -22469954.564 7  23686818.551 7  23686815.839 7
  22967047.641 8 -38695426.233 8 -26073221.028 8  22967047.369 8  22967046.657 8
  22104357.615 9 -29833054.471 9 -18287205.418 9  22104356.197 9  22104357.079 9
  20822693.592 9 -39347834.777 9 -29281401.895 9  20822694.274 9  20822692.888 9
  22534285.936 8 -31834036.670 8 -19725515.372 8  22534285.923 8  22534285.237 8
  20837761.307 9 -32813555.797 9 -25099974.942 9  20837761.832 9  20837760.370 9
 10  3 18  5  0 19.0000000  0  9G19G07G16G24G21G22G06G18G03
  22893970.722 8 -16998208.865 8 -13084112.635 8  22893968.231 8  22893968.723 8
  24774517.081 7  -3629146.603 7  -2611180.330 6  24774516.589 6  24774515.979 6
  21273861.847 9 -36878394.256 9 -28488962.634 9  21273861.534 9  21273860.646 9
  23687177.754 7 -35188161.600 7 -22468476.813 7  23687179.433 7  23687176.760 7
  22967273.948 8 -38694238.651 8 -26072295.640 8  22967273.343 8  22967272.648 8
  22103755.675 9 -29836217.184 9 -18289669.870 9  22103754.357 9  22103755.277 9
  20822291.210 9 -39349948.883 9 -29283049.250 9  20822291.975 9  20822290.574 9
  22534081.947 8 -31835108.807 8 -19726350.804 8  22534081.880 8  22534081.203 8
  20837227.075 9 -32816362.531 9 -25102162.007 9  20837227.736 9  20837226.246 9
 10  3 18  5  0 20.0000000  0  9G19G07G16G24G21G22G06G18G03
  22893276.678 8 -17001856.192 8 -13086954.705 8  22893274.171 8  22893274.670 8
  24774134.465 7  -3631155.234 7  -2612745.497 6  24774134.356 6  24774133.702 6
  21273961.076 9 -36877872.543 9 -28488556.105 9  21273960.806 9  21273959.922 9
  23687538.713 7 -35186265.077 7 -22466999.005 7  23687540.333 7  23687537.686 7
  22967499.949 8 -38693050.852 8 -26071370.083 8  22967499.355 8  22967498.681 8
  22103153.948 9 -29839379.382 9 -18292133.921 9  22103152.630 9  22103153.554 9
  20821888.813 9 -39352062.690 9 -29284696.372 9  20821889.735 9  20821888.319 9
  22533878.001 8 -31836180.331 8 -19727185.758 8  22533877.967 8  22533877.279 8
  20836692.960 9 -32819168.890 9 -25104348.781 9  20836693.699 9  20836692.191 9
 10  3 18  5  0 21.0000000  0  9G19G07G16G24G21G22G06G18G03
  22892582.717 8 -17005503.387 8 -13089796.675 8  22892580.141 8  22892580.643 8
  24773752.067 7  -3633163.266 7  -2614310.197 6  24773752.234 6  24773751.569 6
  21274060.429 9 -36877350.337 9 -28488149.191 9  21274060.165 9  21274059.292 9
  23687899.613 7 -35184368.444 7 -22465521.108 7  23687901.293 7  23687898.606 7
  22967725.935 8 -38691862.888 8 -26070444.397 8  22967725.399 8  22967724.747 8
  22102552.428 9 -29842541.107 9 -18294597.602 9  22102551.004 9  22102551.919 9
  20821486.560 9 -39354176.221 9 -29286343.280 9  20821487.518 9  20821486.125 9
  22533674.262 8 -31837251.275 8 -19728020.261 8  22533674.178 8  22533673.459 8
  20836158.875 9 -32821974.951 9 -25106535.321 9  20836159.700 9  20836158.192 9
 10  3 18  5  0 22.0000000  0  9G19G07G16G24G21G22G06G18G03
  22891888.719 8 -17009150.425 8 -13092638.521 8  22891886.118 8  22891886.670 8
  24773369.776 7  -3635170.654 7  -2615874.397 6  24773370.233 6  24773369.584 6
  21274159.775 9 -36876827.564 9 -28487741.835 9  21274159.626 9  21274158.770 9
  23688260.368 7 -35182471.671 7 -22464043.103 7  23688262.269 7  23688259.546 7
  22967952.080 8 -38690674.695 8 -26069518.533 8  22967951.490 8  22967950.859 8
  22101950.892 9 -29845702.310 9 -18297060.877 9  22101949.434 9  22101950.388 9
  20821084.387 9 -39356289.451 9 -29287989.952 9  20821085.360 9  20821083.989 9
  22533470.671 8 -31838321.620 8 -19728854.295 8  22533470.498 8  22533469.747 8
  20835625.020 9 -32824780.646 9 -25108721.577 9  20835625.785 9  20835624.268 9
 10  3 18  5  0 23.0000000  0  9G19G07G16G24G21G22G06G18G03
  22891194.727 8 -17012797.299 8 -13095480.241 8  22891192.123 8  22891192.721 8
  24772987.851 7  -3637177.443 7  -2617438.130 6  24772988.311 6  24772987.694 6
  21274259.373 9 -36876304.229 9 -28487334.042 9  21274259.222 9  21274258.369 9
  23688621.567 7 -35180574.816 7 -22462565.035 7  23688623.240 7  23688620.500 7
  22968178.467 8 -38689486.323 8 -26068592.530 8  22968177.624 8  22968177.012 8
  22101349.475 9 -29848862.986 9 -18299523.741 9  22101347.937 9  22101348.953 9
  20820682.268 9 -39358402.366 9 -29289636.379 9  20820683.276 9  20820681.915 9
  22533267.043 8 -31839391.349 8 -19729687.849 8  22533266.933 8  22533266.148 8
  20835091.131 9 -32827585.976 9 -25110907.548 9  20835091.955 9  20835090.408 9
 10  3 18  5  0 24.0000000  0  9G19G07G16G24G21G22G06G18G03
  22890500.799 8 -17016444.012 8 -13098321.833 8  22890498.184 8  22890498.788 8
  24772605.916 7  -3639183.577 7  -2619001.353 6  24772606.470 6  24772605.910 6
  21274358.965 9 -36875780.352 9 -28486925.826 9  21274358.935 9  21274358.075 9
  23688982.497 7 -35178677.792 7 -22461086.833 7  23688984.238 7  23688981.480 7
  22968404.563 8 -38688297.726 8 -26067666.351 8  22968403.810 8  22968403.215 8
  22100748.115 9 -29852023.157 9 -18301986.212 9  22100746.551 9  22100747.584 9
  20820280.167 9 -39360514.986 9 -29291282.576 9  20820281.245 9  20820279.890 9
  22533063.634 8 -31840460.481 8 -19730520.939 8  22533063.485 8  22533062.674 8
  20834557.319 9 -32830390.953 9 -25113093.244 9  20834558.207 9  20834556.618 9
 10  3 18  5  0 25.0000000  0  9G19G07G16G24G21G22G06G18G03
  22889806.775 8 -17020090.578 8 -13101163.313 8  22889804.275 8  22889804.888 8
  24772224.313 7  -3641189.136 7  -2620564.127 6  24772224.830 6  24772224.265 6
  21274458.679 9 -36875255.940 9 -28486517.193 9  21274458.758 9  21274457.879 9
  23689343.589 7 -35176780.681 7 -22459608.564 7  23689345.253 7  23689342.461 7
  22968630.820 8 -38687108.947 8 -26066740.029 8  22968630.036 8  22968629.446 8
  22100146.920 9 -29855182.813 9 -18304448.281 9  22100145.273 9  22100146.303 9
  20819878.224 9 -39362627.300 9 -29292928.535 9  20819879.262 9  20819877.870 9
  22532860.361 8 -31841529.004 8 -19731353.554 8  22532860.160 8  22532859.328 8
  20834023.648 9 -32833195.595 9 -25115278.679 9  20834024.553 9  20834022.894 9
 10  3 18  5  0 26.0000000  0  9G19G07G16G24G21G22G06G18G03
  22889112.979 8 -17023737.012 8 -13104004.689 8  22889110.420 8  22889111.052 8
  24771843.308 7  -3643194.087 7  -2622126.426 6  24771843.405 6  24771842.761 6
  21274558.478 9 -36874731.005 9 -28486108.153 9  21274558.680 9  21274557.773 9
  23689704.660 8 -35174883.471 8 -22458130.219 7  23689706.290 7  23689703.471 7
  22968856.962 8 -38685919.984 8 -26065813.565 8  22968856.303 8  22968855.703 8
  22099545.708 9 -29858341.991 9 -18306909.978 9  22099544.132 9  22099545.119 9
  20819476.371 9 -39364739.363 9 -29294574.299 9  20819477.324 9  20819475.895 9
  22532657.159 8 -31842596.974 8 -19732185.739 8  22532656.924 8  22532656.124 8
  20833490.178 9 -32835999.913 9 -25117463.861 9  20833490.938 9  20833489.225 9
 10  3 18  5  0 27.0000000  0  9G19G07G16G24G21G22G06G18G03
  22888419.454 8 -17027383.288 8 -13106845.942 8  22888416.590 8  22888417.240 8
  24771462.047 7  -3645198.417 7  -2623688.241 6  24771462.089 6  24771461.380 6
  21274658.377 9 -36874205.523 9 -28485698.686 9  21274658.693 9  21274657.775 9
  23690065.525 7 -35172986.148 7 -22456651.786 7  23690067.322 7  23690064.514 7
  22969083.116 8 -38684730.831 8 -26064886.952 8  22969082.595 8  22969081.990 8
  22098944.536 9 -29861500.656 9 -18309371.275 9  22098943.111 9  22098944.031 9
  20819074.515 9 -39366851.105 9 -29296219.812 9  20819075.509 9  20819074.030 9
  22532454.139 8 -31843664.320 8 -19733017.438 8  22532453.786 8  22532453.066 8
  20832956.549 9 -32838803.879 9 -25119648.769 9  20832957.369 9  20832955.627 9
 10  3 18  5  0 28.0000000  0  9G19G07G16G24G21G22G06G18G03
  22887725.617 8 -17031029.408 8 -13109687.075 8  22887722.768 8  22887723.425 8
  24771080.964 7  -3647202.085 7  -2625249.541 6  24771080.880 6  24771080.122 6
  21274758.504 9 -36873679.474 9 -28485288.778 9  21274758.803 9  21274757.891 9
  23690426.732 7 -35171088.714 7 -22455173.266 7  23690428.379 7  23690425.579 7
  22969309.683 8 -38683541.462 8 -26063960.173 8  22969308.912 8  22969308.305 8
  22098343.592 9 -29864658.789 9 -18311832.157 9  22098342.158 9  22098343.067 9
  20818672.846 9 -39368962.530 9 -29297865.078 9  20818673.755 9  20818672.225 9
  22532251.151 8 -31844731.043 8 -19733848.651 8  22532250.784 8  22532250.072 8
  20832423.022 9 -32841607.472 9 -25121833.387 9  20832423.843 9  20832422.103 9
 10  3 18  5  0 29.0000000  0  9G19G07G16G24G21G22G06G18G03
  22887031.610 8 -17034675.342 8 -13112528.063 8  22887028.975 8  22887029.639 8
  24770700.166 7  -3649205.104 7  -2626810.334 6  24770699.736 6  24770698.995 6
  21274858.730 9 -36873152.865 9 -28484878.434 9  21274859.012 9  21274858.130 9
  23690788.005 7 -35169191.120 7 -22453694.622 7  23690789.468 7  23690786.665 7
  22969536.176 8 -38682351.864 8 -26063033.214 8  22969535.277 8  22969534.673 8
  22097742.611 9 -29867816.395 9 -18314292.629 9  22097741.287 9  22097742.207 9
  20818271.200 9 -39371073.629 9 -29299510.090 9  20818272.025 9  20818270.492 9
  22532048.318 8 -31845797.163 8 -19734679.394 8  22532047.904 8  22532047.138 8
  20831889.528 9 -32844410.698 9 -25124017.719 9  20831890.340 9  20831888.657 9
 10  3 18  5  0 30.0000000  0  9G19G07G16G24G21G22G06G18G03
  22886337.797 8 -17038321.100 8 -13115368.913 8  22886335.210 8  22886335.915 8
  24770319.277 7  -3651207.491 7  -2628370.636 6  24770318.640 6  24770317.988 6
  21274959.080 9 -36872625.686 9 -28484467.645 9  21274959.324 9  21274958.493 9
  23691148.982 7 -35167293.393 7 -22452215.876 7  23691150.597 7  23691147.785 7
  22969762.646 8 -38681162.055 8 -26062106.091 8  22969761.687 8  22969761.094 8
  22097141.727 9 -29870973.468 9 -18316752.685 9  22097140.484 9  22097141.431 9
  20817869.465 9 -39373184.407 9 -29301154.852 9  20817870.360 9  20817868.820 9
  22531845.416 8 -31846862.647 8 -19735509.640 8  22531845.146 8  22531844.336 8
  20831356.023 9 -32847213.547 9 -25126201.756 9  20831356.922 9  20831355.298 9
 10  3 18  5  0 31.0000000  0  9G19G07G16G24G21G22G06G18G03
  22885643.867 8 -17041966.737 8 -13118209.669 8  22885641.467 8  22885642.208 8
  24769938.387 7  -3653209.279 7  -2629930.470 6  24769937.705 6  24769937.073 6
  21275059.574 9 -36872097.987 9 -28484056.451 9  21275059.732 9  21275058.916 9
  23691509.990 8 -35165395.607 8 -22450737.084 7  23691511.772 7  23691508.926 7
  22969989.076 8 -38679972.058 8 -26061178.820 8  22969988.126 8  22969987.539 8
  22096541.116 9 -29874130.050 9 -18319212.359 9  22096539.763 9  22096540.743 9
  20817467.897 9 -39375294.947 9 -29302799.428 9  20817468.740 9  20817467.163 9
  22531642.674 8 -31847927.563 8 -19736339.445 8  22531642.498 8  22531641.651 8
  20830822.751 9 -32850016.075 9 -25128385.544 9  20830823.598 9  20830822.028 9
 10  3 18  5  0 32.0000000  0  9G19G07G16G24G21G22G06G18G03
  22884950.144 8 -17045612.236 8 -13121050.318 8  22884947.756 8  22884948.499 8
  24769557.309 7  -3655210.458 7  -2631489.832 6  24769556.931 6  24769556.253 6
  21275160.090 9 -36871569.760 9 -28483644.846 9  21275160.242 9  21275159.409 9
  23691871.302 8 -35163497.716 8 -22449258.210 7  23691872.962 7  23691870.085 7
  22970215.546 8 -38678781.878 8 -26060251.408 8  22970214.592 8  22970214.012 8
  22095940.565 9 -29877286.149 9 -18321671.656 9  22095939.162 9  22095940.126 9
  20817066.336 9 -39377405.189 9 -29304443.772 9  20817067.173 9  20817065.563 9
  22531440.189 8 -31848991.893 8 -19737168.792 8  22531439.965 8  22531439.099 8
  20830289.602 9 -32852818.268 9 -25130569.071 9  20830290.341 9  20830288.794 9
 10  3 18  5  0 33.0000000  0  9G19G07G16G24G21G22G06G18G03
  22884256.349 8 -17049257.578 8 -13123890.843 8  22884254.069 8  22884254.816 8
  24769176.791 7  -3657211.036 7  -2633048.725 6  24769176.278 6  24769175.539 6
  21275260.714 9 -36871040.998 9 -28483232.824 9  21275260.848 9  21275260.002 9
  23692232.470 7 -35161599.713 7 -22447779.251 7  23692234.162 7  23692231.287 7
  22970442.263 8 -38677591.521 8 -26059323.858 8  22970441.104 8  22970440.542 8
  22095340.130 9 -29880441.745 9 -18324130.561 9  22095338.675 9  22095339.601 9
  20816664.812 9 -39379515.139 9 -29306087.890 9  20816665.645 9  20816664.076 9
  22531237.833 8 -31850055.641 8 -19737997.687 8  22531237.548 8  22531236.672 8
  20829756.468 9 -32855620.129 9 -25132752.338 9  20829757.160 9  20829755.590 9
 10  3 18  5  0 34.0000000  0  9G19G07G16G24G21G22G06G18G03
  22883562.705 8 -17052902.769 8 -13126731.251 8  22883560.418 8  22883561.174 8
  24768796.458 7  -3659210.954 7  -2634607.100 6  24768795.756 6  24768794.939 6
  21275361.567 9 -36870511.684 9 -28482820.371 9  21275361.558 9  21275360.704 9
  23692593.538 7 -35159701.557 7 -22446300.169 7  23692595.390 7  23692592.506 7
  22970668.692 8 -38676400.953 8 -26058396.143 8  22970667.663 8  22970667.128 8
  22094739.796 9 -29883596.818 9 -18326589.059 9  22094738.280 9  22094739.209 9
  20816263.409 9 -39381624.776 9 -29307731.762 9  20816264.171 9  20816262.640 9
  22531035.657 8 -31851118.769 8 -19738826.098 8  22531035.245 8  22531034.378 8
  20829223.415 9 -32858421.617 9 -25134935.316 9  20829224.040 9  20829222.483 9
 10  3 18  5  0 35.0000000  0  9G19G07G16G24G21G22G06G18G03
  22882869.073 8 -17056547.821 8 -13129571.552 8  22882866.793 8  22882867.559 8
  24768415.759 7  -3661210.277 7  -2636165.013 6  24768415.337 6  24768414.485 6
  21275462.456 9 -36869981.835 9 -28482407.502 9  21275462.351 9  21275461.505 9
  23692954.915 7 -35157803.330 7 -22444821.034 7  23692956.660 7  23692953.721 7
  22970895.148 8 -38675210.190 8 -26057468.277 8  22970894.262 8  22970893.746 8
  22094139.448 9 -29886751.387 9 -18329047.164 9  22094137.975 9  22094138.922 9
  20815861.954 9 -39383734.119 9 -29309375.405 9  20815862.803 9  20815861.224 9
  22530833.579 8 -31852181.320 8 -19739654.060 8  22530833.053 8  22530832.210 8
  20828690.326 9 -32861222.775 9 -25137118.036 9  20828690.959 9  20828689.466 9
 10  3 18  5  0 36.0000000  0  9G19G07G16G24G21G22G06G18G03
  22882175.516 8 -17060192.686 8 -13132411.708 8  22882173.186 8  22882174.016 8
  24768035.155 7  -3663208.982 7  -2637722.445 6  24768035.020 6  24768034.171 6
  21275563.438 9 -36869451.410 9 -28481994.184 9  21275563.240 9  21275562.418 9
  23693316.195 8 -35155904.993 8 -22443341.812 7  23693317.941 7  23693314.959 7
  22971121.736 8 -38674019.212 8 -26056540.243 8  22971120.897 8  22971120.396 8
  22093539.310 9 -29889905.422 9 -18331504.853 9  22093537.777 9  22093538.721 9
  20815460.660 9 -39385843.147 9 -29311018.803 9  20815461.489 9  20815459.867 9
  22530631.434 8 -31853243.238 8 -19740481.528 8  22530630.991 8  22530630.162 8
  20828157.380 9 -32864023.549 9 -25139300.456 9  20828157.958 9  20828156.508 9
 10  3 18  5  0 37.0000000  0  9G19G07G16G24G21G22G06G18G03
  22881481.999 8 -17063837.322 8 -13135251.683 8  22881479.622 8  22881480.512 8
  24767654.812 7  -3665206.946 7  -2639279.298 6  24767654.855 6  24767654.015 6
  21275664.631 9 -36868920.372 9 -28481580.387 9  21275664.267 9  21275663.480 9
  23693677.792 7 -35154006.412 7 -22441862.397 7  23693679.227 7  23693676.260 7
  22971348.352 8 -38672827.951 8 -26055611.988 8  22971347.571 8  22971347.089 8
  22092939.339 9 -29893058.874 9 -18333962.089 9  22092937.696 9  22092938.631 9
  20815059.279 9 -39387951.785 9 -29312661.898 9  20815060.280 9  20815058.607 9
  22530429.639 8 -31854304.482 8 -19741308.471 8  22530429.064 8  22530428.238 8
  20827624.530 9 -32866823.894 9 -25141482.543 9  20827625.053 9  20827623.607 9
 10  3 18  5  0 38.0000000  0  9G19G07G16G24G21G22G06G18G03
  22880788.602 8 -17067481.907 8 -13138091.619 8  22880786.091 8  22880787.014 8
  24767274.501 7  -3667204.394 7  -2640835.749 6  24767274.800 6  24767273.968 6
  21275765.747 9 -36868388.893 9 -28481166.248 9  21275765.396 9  21275764.648 9
  23694039.160 8 -35152107.861 8 -22440383.006 7  23694040.512 7  23694037.556 7
  22971574.971 8 -38671636.603 8 -26054683.664 8  22971574.241 8  22971573.788 8
  22092339.440 9 -29896211.929 9 -18336419.014 9  22092337.671 9  22092338.579 9
  20814657.986 9 -39390060.239 9 -29314304.848 9  20814659.102 9  20814657.378 9
  22530227.975 8 -31855365.234 8 -19742135.031 8  22530227.230 8  22530226.396 8
  20827091.774 9 -32869623.991 9 -25143664.436 9  20827092.186 9  20827090.761 9
 10  3 18  5  0 39.0000000  0  9G19G07G16G24G21G22G06G18G03
  22880095.181 8 -17071126.346 8 -13140931.442 8  22880092.590 8  22880093.544 8
  24766894.602 7  -3669201.226 7  -2642391.718 6  24766894.830 6  24766893.956 6
  21275867.127 9 -36867856.866 9 -28480751.681 9  21275866.617 9  21275865.910 9
  23694400.381 7 -35150209.168 7 -22438903.506 7  23694401.856 7  23694398.879 7
  22971801.644 8 -38670445.041 8 -26053755.175 8  22971800.968 8  22971800.537 8
  22091739.505 9 -29899364.465 9 -18338875.535 9  22091737.737 9  22091738.612 9
  20814256.818 9 -39392168.398 9 -29315947.570 9  20814257.940 9  20814256.209 9
  22530026.250 9 -31856425.364 9 -19742961.107 8  22530025.508 8  22530024.662 8
  20826558.863 9 -32872423.740 9 -25145846.058 9  20826559.372 9  20826557.996 9
 10  3 18  5  0 40.0000000  0  9G19G07G16G24G21G22G06G18G03
  22879401.460 8 -17074770.621 8 -13143771.137 8  22879399.111 8  22879400.060 8
  24766514.671 7  -3671197.417 7  -2643947.186 6  24766514.946 6  24766513.996 6
  21275968.401 9 -36867324.297 9 -28480336.692 9  21275967.928 9  21275967.266 9
  23694761.703 8 -35148310.395 8 -22437423.943 7  23694763.218 7  23694760.215 7
  22972028.409 8 -38669253.295 8 -26052826.542 8  22972027.744 8  22972027.323 8
  22091139.619 9 -29902516.483 9 -18341331.653 9  22091137.906 9  22091138.766 9
  20813855.701 9 -39394276.257 9 -29317590.056 9  20813856.833 9  20813855.094 9
  22529824.647 9 -31857484.907 9 -19743786.725 8  22529823.890 8  22529823.071 8
  20826026.241 9 -32875223.133 9 -25148027.402 9  20826026.624 9  20826025.278 9
 10  3 18  5  0 41.0000000  0  9G19G07G16G24G21G22G06G18G03
  22878708.112 8 -17078414.768 8 -13146610.733 8  22878705.656 8  22878706.601 8
  24766134.776 7  -3673193.013 7  -2645502.193 6  24766135.187 6  24766134.207 6
  21276069.806 9 -36866791.190 9 -28479921.284 9  21276069.335 9  21276068.725 9
  23695123.136 7 -35146411.507 7 -22435944.289 7  23695124.604 7  23695121.575 7
  22972255.205 8 -38668061.342 8 -26051897.748 8  22972254.558 8  22972254.158 8
  22090539.843 9 -29905668.012 9 -18343787.389 9  22090538.162 9  22090539.017 9
  20813454.773 9 -39396383.803 9 -29319232.300 9  20813455.783 9  20813454.000 9
  22529623.211 9 -31858543.853 9 -19744611.878 8  22529622.366 8  22529621.613 8
  20825493.587 9 -32878022.183 9 -25150208.480 9  20825493.942 9  20825492.603 9
 10  3 18  5  0 42.0000000  0  9G19G07G16G24G21G22G06G18G03
  22878014.659 8 -17082058.733 8 -13149450.186 8  22878012.240 8  22878013.174 8
  24765755.441 7  -3675187.975 7  -2647056.707 6  24765755.571 6  24765754.599 6
  21276171.378 9 -36866257.546 9 -28479505.457 9  21276170.836 9  21276170.287 9
  23695484.350 7 -35144512.501 7 -22434464.547 7  23695486.014 7  23695482.958 7
  22972482.160 8 -38666869.197 8 -26050968.804 8  22972481.409 8  22972481.044 8
  22089940.164 9 -29908819.028 9 -18346242.726 9  22089938.533 9  22089939.362 9
  20813053.830 9 -39398491.057 9 -29320874.315 9  20813054.787 9  20813052.963 9
  22529421.878 9 -31859602.196 9 -19745436.560 8  22529420.949 8  22529420.275 8
  20824961.085 9 -32880820.887 9 -25152389.287 9  20824961.356 9  20824959.988 9
 10  3 18  5  0 43.0000000  0  9G19G07G16G24G21G22G06G18G03
  22877321.212 8 -17085702.580 8 -13152289.547 8  22877318.846 8  22877319.768 8
  24765375.547 7  -3677182.344 7  -2648610.761 6  24765376.036 6  24765375.084 6
  21276273.004 9 -36865723.376 9 -28479089.220 9  21276272.417 9  21276271.938 9
  23695845.762 8 -35142613.398 8 -22432984.727 7  23695847.434 7  23695844.357 7
  22972709.244 8 -38665676.872 8 -26050039.719 8  22972708.296 8  22972707.952 8
  22089340.490 9 -29911969.552 9 -18348697.680 9  22089339.003 9  22089339.796 9
  20812653.004 9 -39400598.027 9 -29322516.110 9  20812653.830 9  20812651.986 9
  22529220.595 9 -31860659.961 9 -19746260.792 8  22529219.628 8  22529219.048 8
  20824428.430 9 -32883619.262 9 -25154569.839 9  20824428.889 9  20824427.428 9
 10  3 18  5  0 44.0000000  0  9G19G07G16G24G21G22G06G18G03
  22876627.978 8 -17089346.282 8 -13155128.795 8  22876625.511 8  22876626.381 8
  24764995.816 7  -3679176.099 7  -2650164.337 6  24764996.585 6  24764995.667 6
  21276374.741 9 -36865188.657 9 -28478672.557 9  21276374.081 9  21276373.686 9
  23696206.961 7 -35140714.195 7 -22431504.829 7  23696208.870 7  23696205.777 7
  22972936.193 8 -38664484.337 8 -26049110.471 8  22972935.222 8  22972934.887 8
  22088741.176 9 -29915119.565 9 -18351152.234 9  22088739.582 9  22088740.367 9
  20812252.245 9 -39402704.707 9 -29324157.678 9  20812252.922 9  20812251.061 9
  22529019.570 9 -31861717.123 9 -19747084.554 8  22529018.460 8  22529017.910 8
  20823895.873 9 -32886417.282 9 -25156750.114 9  20823896.463 9  20823894.964 9
 10  3 18  5  0 45.0000000  0  9G19G07G16G24G21G22G06G18G03
  22875934.709 8 -17092989.816 8 -13157967.912 8  22875932.216 8  22875933.035 8
  24764616.281 7  -3681169.204 7  -2651717.406 6  24764617.297 6  24764616.359 6
  21276476.609 9 -36864653.387 9 -28478255.463 9  21276475.891 9  21276475.525 9
  23696568.355 7 -35138814.878 7 -22430024.842 7  23696570.311 7  23696567.221 7
  22973163.357 8 -38663291.609 8 -26048181.073 8  22973162.204 8  22973161.860 8
  22088141.727 9 -29918269.063 9 -18353606.389 9  22088140.264 9  22088141.051 9
  20811851.408 9 -39404811.095 9 -29325799.019 9  20811852.086 9  20811850.226 9
  22528818.457 9 -31862773.678 9 -19747907.844 8  22528817.447 8  22528816.867 8
  20823363.484 9 -32889214.954 9 -25158930.117 9  20823364.052 9  20823362.600 9
 10  3 18  5  0 46.0000000  0  9G19G07G16G24G21G22G06G18G03
  22875241.361 8 -17096633.178 8 -13160806.895 8  22875238.956 8  22875239.760 8
  24764236.941 7  -3683161.699 7  -2653269.999 6  24764238.177 6  24764237.159 6
  21276578.507 9 -36864117.575 9 -28477837.947 9  21276577.845 9  21276577.452 9
  23696929.447 7 -35136915.405 7 -22428544.733 7  23696931.787 7  23696928.708 7
  22973390.364 8 -38662098.673 8 -26047251.512 8  22973389.248 8  22973388.876 8
  22087542.481 9 -29921418.045 9 -18356060.141 9  22087541.022 9  22087541.840 9
  20811450.576 9 -39406917.152 9 -29327440.101 9  20811451.316 9  20811449.454 9
  22528617.566 9 -31863829.632 9 -19748730.664 8  22528616.552 8  22528615.945 8
  20822831.150 9 -32892012.262 9 -25161109.838 9  20822831.725 9  20822830.304 9
 10  3 18  5  0 47.0000000  0  9G19G07G16G24G21G22G06G18G03
  22874548.110 8 -17100276.399 8 -13163645.769 8  22874545.732 8  22874546.519 8
  24763857.860 7  -3685153.547 7  -2654822.090 6  24763859.168 6  24763858.104 6
  21276680.356 9 -36863581.200 9 -28477419.992 9  21276679.948 9  21276679.483 9
  23697290.719 7 -35135015.832 7 -22427064.547 7  23697293.290 7  23697290.246 7
  22973617.424 8 -38660905.511 8 -26046321.776 8  22973616.321 8  22973615.932 8
  22086943.372 9 -29924566.492 9 -18358513.475 9  22086941.876 9  22086942.741 9
  20811049.771 9 -39409022.916 9 -29329080.956 9  20811050.611 9  20811048.729 9
  22528416.792 9 -31864884.963 9 -19749552.999 8  22528415.774 8  22528415.146 8
  20822298.889 9 -32894809.195 9 -25163289.265 9  20822299.499 9  20822298.075 9
 10  3 18  5  0 48.0000000  0  9G19G07G16G24G21G22G06G18G03
  22873854.779 8 -17103919.461 8 -13166484.519 8  22873852.485 8  22873853.281 8
  24763478.761 7  -3687144.773 7  -2656373.698 6  24763480.271 6  24763479.193 6
  21276782.520 9 -36863044.292 9 -28477001.622 9  21276782.186 9  21276781.604 9
  23697651.918 7 -35133116.154 7 -22425584.278 7  23697654.819 7  23697651.797 7
  22973844.394 8 -38659712.164 8 -26045391.894 8  22973843.417 8  22973843.025 8
  22086344.359 9 -29927714.445 9 -18360966.425 9  22086342.843 9  22086343.712 9
  20810649.087 9 -39411128.382 9 -29330721.578 9  20810649.962 9  20810648.060 9
  22528216.062 9 -31865939.711 9 -19750374.881 8  22528215.081 8  22528214.439 8
  20821766.757 9 -32897605.801 9 -25165468.439 9  20821767.338 9  20821765.904 9
 10  3 18  5  0 49.0000000  0  9G19G07G16G24G21G22G06G18G03
  22873161.526 8 -17107562.323 8 -13169323.112 8  22873159.271 8  22873160.076 8
  24763100.415 7  -3689135.331 7  -2657924.783 6  24763101.447 6  24763100.390 6
  21276884.822 9 -36862506.803 9 -28476582.800 9  21276884.527 9  21276883.897 9
  23698013.302 7 -35131216.352 7 -22424103.913 7  23698016.357 7  23698013.321 7
  22974071.382 8 -38658518.580 8 -26044461.829 8  22974070.567 8  22974070.151 8
  22085745.526 9 -29930861.851 9 -18363418.948 9  22085743.930 9  22085744.784 9
  20810248.471 9 -39413233.530 9 -29332361.952 9  20810249.362 9  20810247.458 9
  22528015.415 9 -31866993.829 9 -19751196.271 8  22528014.487 8  22528013.840 8
  20821234.682 9 -32900402.021 9 -25167647.311 9  20821235.264 9  20821233.805 9
 10  3 18  5  0 50.0000000  0  9G19G07G16G24G21G22G06G18G03
  22872468.276 8 -17111205.069 8 -13172161.615 8  22872466.073 8  22872466.883 8
  24762721.921 7  -3691125.334 7  -2659475.435 6  24762722.664 6  24762721.674 6
  21276987.236 9 -36861968.804 9 -28476163.579 9  21276986.955 9  21276986.329 9
  23698374.714 7 -35129316.467 7 -22422623.483 7  23698377.908 7  23698374.849 7
  22974298.419 8 -38657324.835 8 -26043531.638 8  22974297.762 8  22974297.307 8
  22085146.759 9 -29934008.773 9 -18365871.095 9  22085145.085 9  22085145.941 9
  20809847.826 9 -39415338.409 9 -29334002.117 9  20809848.808 9  20809846.905 9
  22527814.880 9 -31868047.370 9 -19752017.211 8  22527814.003 8  22527813.362 8
  20820702.742 9 -32903197.908 9 -25169825.923 9  20820703.257 9  20820701.767 9
 10  3 18  5  0 51.0000000  0  9G19G07G16G24G21G22G06G18G03
  22871775.013 8 -17114847.658 8 -13174999.996 8  22871772.905 8  22871773.718 8
  24762343.606 7  -3693114.676 7  -2661025.573 6  24762344.072 6  24762343.105 6
  21277089.737 9 -36861430.255 9 -28475743.931 9  21277089.481 9  21277088.834 9
  23698736.338 7 -35127416.439 7 -22421142.939 7  23698739.440 7  23698736.354 7
  22974525.316 8 -38656130.883 8 -26042601.285 8  22974525.006 8  22974524.514 8
  22084547.931 9 -29937155.194 9 -18368322.852 9  22084546.328 9  22084547.190 9
  20809447.266 9 -39417442.980 9 -29335642.042 9  20809448.320 9  20809446.455 9
  22527614.294 9 -31869100.315 9 -19752837.688 8  22527613.640 8  22527613.009 8
  20820170.857 9 -32905993.455 9 -25172004.270 9  20820171.312 9  20820169.781 9
 10  3 18  5  0 52.0000000  0  9G19G07G16G24G21G22G06G18G03
  22871081.788 8 -17118490.129 8 -13177838.286 8  22871079.765 8  22871080.600 8
  24761965.160 7  -3695103.440 7  -2662575.258 6  24761965.659 6  24761964.665 6
  21277192.387 9 -36860891.194 9 -28475323.883 9  21277192.092 9  21277191.406 9
  23699097.840 7 -35125516.362 7 -22419662.359 7  23699100.987 7  23699097.880 7
  22974752.487 8 -38654936.771 8 -26041670.809 8  22974752.288 8  22974751.762 8
  22083949.246 9 -29940301.107 9 -18370774.211 9  22083947.695 9  22083948.534 9
  20809046.875 9 -39419547.273 9 -29337281.751 9  20809047.881 9  20809046.053 9
  22527413.945 9 -31870152.670 9 -19753657.705 8  22527413.382 8  22527412.764 8
  20819638.976 9 -32908788.666 9 -25174182.356 9  20819639.422 9  20819637.874 9
 10  3 18  5  0 53.0000000  0  9G19G07G16G24G21G22G06G18G03
  22870388.653 8 -17122132.406 8 -13180676.423 8  22870386.662 8  22870387.520 8
  24761586.700 7  -3697091.567 7  -2664124.448 6  24761587.348 6  24761586.331 6
  21277295.109 9 -36860351.561 9 -28474903.389 9  21277294.803 9  21277294.081 9
  23699459.535 7 -35123616.090 7 -22418181.625 7  23699462.577 7  23699459.480 7
  22974979.728 8 -38653742.431 8 -26040740.154 8  22974979.590 8  22974979.048 8
  22083350.744 9 -29943446.509 9 -18373225.174 9  22083349.177 9  22083349.979 9
  20808646.502 9 -39421651.243 9 -29338921.208 9  20808647.504 9  20808645.687 9
  22527213.972 9 -31871204.407 9 -19754477.240 8  22527213.239 8  22527212.633 8
  20819107.195 9 -32911583.501 9 -25176360.150 9  20819107.585 9  20819106.051 9
 10  3 18  5  0 54.0000000  0  9G19G07G16G24G21G22G06G18G03
  22869695.448 8 -17125774.546 8 -13183514.454 8  22869693.595 8  22869694.427 8
  24761208.518 7  -3699079.051 7  -2665673.139 6  24761209.146 6  24761208.111 6
  21277397.975 9 -36859811.392 9 -28474482.478 9  21277397.601 9  21277396.846 9
  23699821.074 7 -35121715.773 7 -22416700.859 7  23699824.183 7  23699821.095 7
  22975207.039 8 -38652547.888 8 -26039809.341 8  22975206.913 8  22975206.377 8
  22082752.291 9 -29946591.387 9 -18375675.727 9  22082750.768 9  22082751.516 9
  20808246.107 9 -39423754.926 9 -29340560.441 9  20808247.177 9  20808245.370 9
  22527013.902 9 -31872255.560 9 -19755296.320 8  22527013.214 8  22527012.601 8
  20818575.490 9 -32914378.001 9 -25178537.681 9  20818575.816 9  20818574.291 9
 10  3 18  5  0 55.0000000  0  9G19G07G16G24G21G22G06G18G03
  22869002.210 8 -17129416.521 8 -13186352.356 8  22869000.558 8  22869001.363 8
  24760830.332 7  -3701065.908 7  -2667221.341 6  24760831.067 6  24760829.990 6
  21277500.886 9 -36859270.668 9 -28474061.135 9  21277500.480 9  21277499.722 9
  23700183.003 7 -35119815.309 7 -22415219.977 7  23700185.837 7  23700182.752 7
  22975434.570 8 -38651353.146 8 -26038878.374 8  22975434.271 8  22975433.728 8
  22082153.937 9 -29949735.737 9 -18378125.870 9  22082152.473 9  22082153.156 9
  20807845.893 9 -39425858.283 9 -29342199.419 9  20807846.893 9  20807845.117 9
  22526813.939 9 -31873306.091 9 -19756114.915 8  22526813.312 8  22526812.677 8
  20818043.846 9 -32917172.134 9 -25180714.927 9  20818044.118 9  20818042.590 9
 10  3 18  5  0 56.0000000  0  9G19G07G16G24G21G22G06G18G03
  22868309.352 8 -17133058.293 8 -13189190.101 8  22868307.580 8  22868308.315 8
  24760452.166 7  -3703052.109 7  -2668769.028 6  24760453.127 6  24760451.984 6
  21277603.917 9 -36858729.368 9 -28473639.342 9  21277603.436 9  21277602.705 9
  23700544.918 7 -35117914.718 7 -22413738.998 7  23700547.514 7  23700544.436 7
  22975661.815 8 -38650158.170 8 -26037947.224 8  22975661.683 8  22975661.120 8
  22081555.539 9 -29952879.548 9 -18380575.592 9  22081554.242 9  22081554.878 9
  20807445.740 9 -39427961.315 9 -29343838.145 9  20807446.670 9  20807444.926 9
  22526614.208 9 -31874355.979 9 -19756933.008 8  22526613.540 8  22526612.879 8
  20817512.263 9 -32919965.880 9 -25182891.871 9  20817512.514 9  20817510.970 9
 10  3 18  5  0 57.0000000  0  9G19G07G16G24G21G22G06G18G03
  22867616.390 8 -17136699.929 8 -13192027.738 8  22867614.630 8  22867615.296 8
  24760074.714 7  -3705037.683 7  -2670316.228 6  24760075.288 6  24760074.133 6
  21277706.954 9 -36858187.537 9 -28473217.136 9  21277706.540 9  21277705.792 9
  23700906.734 7 -35116013.991 7 -22412257.912 7  23700909.200 7  23700906.149 7
  22975889.270 8 -38648962.999 8 -26037015.922 8  22975889.127 8  22975888.571 8
  22080957.295 9 -29956022.856 9 -18383024.923 9  22080956.096 9  22080956.696 9
  20807045.487 9 -39430064.057 9 -29345476.644 9  20807046.551 9  20807044.793 9
  22526414.481 9 -31875405.274 9 -19757750.639 8  22526413.892 8  22526413.201 8
  20816980.697 9 -32922759.286 9 -25185068.550 9  20816981.013 9  20816979.421 9
 10  3 18  5  0 58.0000000  0  9G19G07G16G24G21G22G06G18G03
  22866923.409 8 -17140341.446 8 -13194865.283 8  22866921.667 8  22866922.338 8
  24759696.656 7  -3707022.676 7  -2671862.975 6  24759697.543 6  24759696.429 6
  21277810.194 9 -36857645.187 9 -28472794.526 9  21277809.790 9  21277808.977 9
  23701268.591 7 -35114113.187 7 -22410776.768 7  23701270.906 7  23701267.877 7
  22976116.780 8 -38647767.654 8 -26036084.485 8  22976116.602 8  22976116.073 8
  22080359.166 9 -29959165.683 9 -18385473.879 9  22080358.046 9  22080358.624 9
  20806645.426 9 -39432166.515 9 -29347114.922 9  20806646.482 9  20806644.709 9
  22526214.830 9 -31876454.016 9 -19758567.840 8  22526214.340 8  22526213.634 8
  20816449.270 9 -32925552.366 9 -25187244.976 9  20816449.540 9  20816447.932 9
 10  3 18  5  0 59.0000000  0  9G19G07G16G24G21G22G06G18G03
  22866230.420 8 -17143982.778 8 -13197702.684 8  22866228.739 8  22866229.415 8
  24759318.642 7  -3709007.030 7  -2673409.222 6  24759319.931 6  24759318.841 6
  21277913.585 9 -36857102.273 9 -28472371.476 9  21277913.132 9  21277912.291 9
  23701630.547 7 -35112212.269 7 -22409295.535 7  23701632.643 7  23701629.629 7
  22976344.400 8 -38646572.104 8 -26035152.889 8  22976344.093 8  22976343.590 8
  22079761.223 9 -29962307.962 9 -18387922.407 9  22079760.107 9  22079760.667 9
  20806245.374 9 -39434268.661 9 -29348752.958 9  20806246.439 9  20806244.657 9
  22526015.448 9 -31877502.120 9 -19759384.543 8  22526014.901 8  22526014.194 8
  20815917.781 9 -32928345.056 9 -25189421.098 9  20815918.082 9  20815916.522 9
 10  3 18  5  1  0.0000000  0  9G19G07G16G24G21G22G06G18G03
  22865537.426 8 -17147623.954 8 -13200539.963 8  22865535.870 8  22865536.512 8
  24758941.031 7  -3710990.754 7  -2674954.978 6  24758942.460 6  24758941.380 6
  21278017.070 9 -36856558.806 9 -28471947.995 9  21278016.557 9  21278015.726 9
  23701992.402 7 -35110311.226 7 -22407814.202 7  23701994.403 7  23701991.411 7
  22976572.048 8 -38645376.342 8 -26034221.128 8  22976571.602 8  22976571.126 8
  22079163.315 9 -29965449.730 9 -18390370.537 9  22079162.269 9  22079162.809 9
  20805845.434 9 -39436370.495 9 -29350390.752 9  20805846.456 9  20805844.668 9
  22525816.243 9 -31878549.623 9 -19760200.779 8  22525815.590 8  22525814.898 8
  20815386.432 9 -32931137.402 9 -25191596.952 9  20815386.690 9  20815385.188 9
 10  3 18  5  1  1.0000000  0  9G19G07G16G24G21G22G06G18G03
  22864844.780 8 -17151264.997 8 -13203377.139 8  22864843.029 8  22864843.635 8
  24758563.799 7  -3712973.892 7  -2676500.280 6  24758565.096 6  24758564.035 6
  21278120.631 9 -36856014.833 9 -28471524.120 9  21278120.096 9  21278119.260 9
  23702353.944 7 -35108410.093 7 -22406332.801 7  23702356.142 7  23702353.228 7
  22976799.698 8 -38644180.401 8 -26033289.226 8  22976799.162 8  22976798.702 8
  22078565.495 9 -29968591.018 9 -18392818.293 9  22078564.517 9  22078565.039 9
  20805445.597 9 -39438472.059 9 -29352028.334 9  20805446.490 9  20805444.774 9
  22525617.078 9 -31879596.556 9 -19761016.570 8  22525616.399 8  22525615.733 8
  20814855.152 9 -32933929.420 9 -25193772.550 9  20814855.369 9  20814853.934 9
 10  3 18  5  1  2.0000000  0  9G19G07G16G24G21G22G06G18G03
  22864152.091 8 -17154905.887 8 -13206214.196 8  22864150.212 8  22864150.797 8
  24758186.736 7  -3714956.356 7  -2678045.058 6  24758187.868 6  24758186.834 6
  21278224.157 9 -36855470.290 9 -28471099.801 9  21278223.763 9  21278222.901 9
  23702715.838 7 -35106508.840 7 -22404851.305 7  23702717.910 7  23702715.051 7
  22977027.236 8 -38642984.261 8 -26032357.170 8  22977026.778 8  22977026.324 8
  22077967.808 9 -29971731.775 9 -18395265.636 9  22077966.862 9  22077967.372 9
  20805045.730 9 -39440573.308 9 -29353665.670 9  20805046.585 9  20805044.943 9
  22525418.169 9 -31880642.876 9 -19761831.884 8  22525417.317 8  22525416.677 8
  20814323.992 9 -32936721.068 9 -25195947.859 9  20814324.133 9  20814322.742 9
 10  3 18  5  1  3.0000000  0  9G19G07G16G24G21G22G06G18G03
  22863459.347 8 -17158546.627 8 -13209051.135 8  22863457.429 8  22863457.991 8
  24757809.570 7  -3716938.228 7  -2679589.376 6  24757810.686 6  24757809.735 6
  21278327.780 9 -36854925.215 9 -28470675.067 9  21278327.531 9  21278326.621 9
  23703077.460 7 -35104607.470 7 -22403369.718 7  23703079.726 7  23703076.839 7
  22977254.937 8 -38641787.937 8 -26031424.970 8  22977254.433 8  22977253.981 8
  22077370.074 9 -29974872.028 9 -18397712.585 9  22077369.299 9  22077369.798 9
  20804645.906 9 -39442674.268 9 -29355302.781 9  20804646.785 9  20804645.171 9
  22525219.253 9 -31881688.597 9 -19762646.731 8  22525218.332 8  22525217.727 8
  20813792.890 9 -32939512.367 9 -25198122.897 9  20813793.004 9  20813791.613 9
 10  3 18  5  1  4.0000000  0  9G19G07G16G24G21G22G06G18G03
  22862766.589 8 -17162187.218 8 -13211887.959 8  22862764.640 8  22862765.190 8
  24757432.322 7  -3718919.511 7  -2681133.235 6  24757433.544 6  24757432.738 6
  21278431.635 9 -36854379.603 9 -28470249.915 9  21278431.409 9  21278430.432 9
  23703439.203 7 -35102706.009 7 -22401888.061 7  23703441.557 7  23703438.648 7
  22977482.813 8 -38640591.388 8 -26030492.595 8  22977482.136 8  22977481.685 8
  22076772.676 9 -29978011.774 9 -18400159.140 9  22076771.827 9  22076772.315 9
  20804246.109 9 -39444774.935 9 -29356939.664 9  20804247.042 9  20804245.457 9
  22525020.339 9 -31882733.723 9 -19763461.113 8  22525019.471 8  22525018.853 8
  20813261.721 9 -32942303.330 9 -25200297.673 9  20813261.917 9  20813260.543 9
 10  3 18  5  1  5.0000000  0  9G19G07G16G24G21G22G06G18G03
  22862073.747 8 -17165827.630 8 -13214724.641 8  22862071.877 8  22862072.421 8
  24757055.835 7  -3720900.113 7  -2682676.561 6  24757056.624 6  24757055.846 6
  21278535.443 9 -36853833.427 9 -28469824.324 9  21278535.351 9  21278534.359 9
  23703801.137 7 -35100804.408 7 -22400406.295 7  23703803.382 7  23703800.496 7
  22977710.631 8 -38639394.664 8 -26029560.084 8  22977709.862 8  22977709.403 8
  22076175.454 9 -29981151.011 9 -18402605.299 9  22076174.450 9  22076174.929 9
  20803846.527 9 -39446875.295 9 -29358576.308 9  20803847.294 9  20803845.754 9
  22524821.638 9 -31883778.223 9 -19764275.008 8  22524820.746 8  22524820.073 8
  20812730.591 9 -32945093.929 9 -25202472.165 9  20812730.874 9  20812729.543 9
 10  3 18  5  1  6.0000000  0  9G19G07G16G24G21G22G06G18G03
  22861380.965 8 -17169467.910 8 -13217561.222 8  22861379.181 8  22861379.677 8
  24756679.122 7  -3722880.124 7  -2684219.425 6  24756679.923 6  24756679.050 6
  21278639.305 9 -36853286.738 9 -28469398.333 9  21278639.351 9  21278638.394 9
  23704163.151 7 -35098902.744 7 -22398924.479 7  23704165.228 7  23704162.376 7
  22977938.501 8 -38638197.753 8 -26028627.427 8  22977937.616 8  22977937.143 8
  22075578.274 9 -29984289.761 9 -18405051.077 9  22075577.167 9  22075577.662 9
  20803446.852 9 -39448975.342 9 -29360212.708 9  20803447.601 9  20803446.109 9
  22524622.927 9 -31884822.159 9 -19765088.465 8  22524622.103 8  22524621.415 9
  20812199.504 9 -32947884.188 9 -25204646.392 9  20812199.910 9  20812198.598 9
 10  3 18  5  1  7.0000000  0  9G19G07G16G24G21G22G06G18G03
  22860688.188 8 -17173107.989 8 -13220397.648 8  22860686.526 8  22860686.974 8
  24756302.256 7  -3724859.475 7  -2685761.781 6  24756303.369 6  24756302.362 6
  21278743.287 9 -36852739.428 9 -28468971.858 9  21278743.463 9  21278742.558 9
  23704524.649 7 -35097000.871 7 -22397442.498 7  23704527.160 7  23704524.368 7
  22978166.234 8 -38637000.573 8 -26027694.560 8  22978165.413 8  22978164.951 8
  22074981.174 9 -29987427.925 9 -18407496.401 9  22074979.996 9  22074980.519 9
  20803047.341 9 -39451075.050 9 -29361848.844 9  20803048.005 9  20803046.588 9
  22524424.291 9 -31885865.428 9 -19765901.402 8  22524423.556 8  22524422.895 9
  20811668.537 9 -32950674.034 9 -25206820.298 9  20811669.056 9  20811667.718 9
 10  3 18  5  1  8.0000000  0  9G19G07G16G24G21G22G06G18G03
  22859995.514 8 -17176747.943 8 -13223233.976 8  22859993.854 8  22859994.285 8
  24755925.591 7  -3726838.232 7  -2687303.673 6  24755926.951 6  24755925.770 6
  21278847.606 9 -36852191.624 9 -28468544.998 9  21278847.667 9  21278846.830 9
  23704886.464 7 -35095098.953 7 -22395960.483 7  23704889.100 7  23704886.340 7
  22978393.936 8 -38635803.255 8 -26026761.586 8  22978393.225 8  22978392.794 8
  22074384.048 9 -29990565.622 9 -18409941.359 9  22074382.927 9  22074383.434 9
  20802647.843 9 -39453174.485 9 -29363484.767 9  20802648.461 9  20802647.118 9
  22524225.798 9 -31886908.137 9 -19766713.902 8  22524225.143 8  22524224.497 9
  20811137.726 9 -32953463.577 9 -25208993.967 9  20811138.255 9  20811136.888 9
 10  3 18  5  1  9.0000000  0  9G19G07G16G24G21G22G06G18G03
  22859302.837 8 -17180387.777 8 -13226070.208 8  22859301.198 8  22859301.613 8
  24755549.623 7  -3728816.385 7  -2688845.094 6  24755550.615 6  24755549.376 6
  21278952.022 9 -36851643.318 9 -28468117.747 9  21278951.982 9  21278951.172 9
  23705248.744 7 -35093196.932 7 -22394478.388 7  23705251.110 7  23705248.271 7
  22978621.657 8 -38634605.761 8 -26025828.475 8  22978621.098 8  22978620.668 8
  22073786.951 9 -29993702.856 9 -18412385.957 9  22073785.941 9  22073786.417 9
  20802248.445 9 -39455273.663 9 -29365120.490 9  20802249.015 9  20802247.650 9
  22524027.373 9 -31887950.285 9 -19767525.965 8  22524026.864 8  22524026.219 9
  20810606.883 9 -32956252.803 9 -25211167.389 9  20810607.512 9  20810606.112 9
 10  3 18  5  1 10.0000000  0  9G19G07G16G24G21G22G06G18G03
  22858610.059 8 -17184027.459 8 -13228906.324 8  22858608.571 8  22858609.003 8
  24755173.215 7  -3730793.936 7  -2690386.042 6  24755174.358 6  24755173.173 6
  21279056.460 9 -36851094.458 9 -28467690.064 9  21279056.422 9  21279055.599 9
  23705610.573 7 -35091294.837 7 -22392996.237 7  23705613.126 7  23705610.220 7
  22978849.560 8 -38633408.081 8 -26024895.218 8  22978849.022 8  22978848.561 8
  22073190.181 9 -29996839.562 9 -18414830.143 9  22073189.039 9  22073189.541 9
  20801849.120 9 -39457372.535 9 -29366755.975 9  20801849.628 9  20801848.240 9
  22523829.064 9 -31888991.808 9 -19768337.541 8  22523828.692 8  22523828.047 9
  20810076.228 9 -32959041.671 9 -25213340.533 9  20810076.840 9  20810075.409 9
 10  3 18  5  1 11.0000000  0  9G19G07G16G24G21G22G06G18G03
  22857917.440 8 -17187667.014 8 -13231742.340 8  22857915.963 8  22857916.414 8
  24754796.768 7  -3732770.883 7  -2691926.519 6  24754798.125 6  24754796.974 6
  21279160.969 9 -36850545.075 9 -28467261.974 9  21279160.941 9  21279160.140 9
  23705972.450 7 -35089392.652 7 -22391514.016 7  23705975.107 7  23705972.200 7
  22979077.525 8 -38632210.221 8 -26023961.821 8  22979076.971 8  22979076.512 8
  22072593.384 9 -29999975.762 9 -18417273.935 9  22072592.226 9  22072592.779 9
  20801449.751 9 -39459471.134 9 -29368391.246 9  20801450.282 9  20801448.890 9
  22523630.829 9 -31890032.757 9 -19769148.669 9  22523630.625 9  22523629.984 9
  20809545.661 9 -32961830.201 9 -25215513.413 9  20809546.244 9  20809544.785 9
 10  3 18  5  1 12.0000000  0  9G19G07G16G24G21G22G06G18G03
  22857224.970 8 -17191306.382 8 -13234578.211 8  22857223.448 8  22857223.867 8
  24754420.638 7  -3734747.181 7  -2693466.489 6  24754421.923 6  24754420.814 6
  21279265.713 9 -36849995.136 9 -28466833.450 9  21279265.553 9  21279264.804 9
  23706334.225 7 -35087490.304 7 -22390031.668 7  23706337.110 7  23706334.223 7
  22979305.551 8 -38631012.143 8 -26023028.254 8  22979304.951 8  22979304.522 8
  22071996.726 9 -30003111.445 9 -18419717.324 9  22071995.494 9  22071996.087 9
  20801050.511 9 -39461569.411 9 -29370026.267 9  20801051.001 9  20801049.608 9
  22523432.721 9 -31891073.090 9 -19769959.317 9  22523432.670 9  22523432.033 9
  20809015.124 9 -32964618.369 9 -25217686.012 9  20809015.703 9  20809014.214 9
 10  3 18  5  1 13.0000000  0  9G19G07G16G24G21G22G06G18G03
  22856532.440 8 -17194945.607 8 -13237413.970 8  22856530.960 8  22856531.347 8
  24754044.475 7  -3736722.881 7  -2695005.995 6  24754045.951 6  24754044.785 6
  21279370.517 9 -36849444.663 9 -28466404.511 9  21279370.309 9  21279369.555 9
  23706696.506 8 -35085587.889 8 -22388549.268 7  23706699.093 7  23706696.304 7
  22979533.677 8 -38629813.886 8 -26022094.548 8  22979532.979 8  22979532.562 8
  22071400.272 9 -30006246.617 9 -18422160.315 9  22071398.852 9  22071399.482 9
  20800651.277 9 -39463667.414 9 -29371661.074 9  20800651.760 9  20800650.395 9
  22523234.961 9 -31892112.834 9 -19770769.507 9  22523234.839 9  22523234.205 9
  20808484.600 9 -32967406.186 9 -25219858.337 9  20808485.208 9  20808483.693 9
 10  3 18  5  1 14.0000000  0  9G19G07G16G24G21G22G06G18G03
