     2.11           OBSERVATION DATA    M (MIXED)           RINEX VERSION / TYPE
teqc  2011Oct11     Jaume Sanz          20140502 10:32:05UTCPGM / RUN BY / DATE
Linux 2.4.21-27.ELsmp|Opteron|gcc|Linux x86_64|=+           COMMENT
     2.10           Observation data    M (Mixed)           COMMENT
sbf2rin                                 (07-MAY-11 11:30)   COMMENT
LLI: only bit 0 (loss of lock bit) supported                COMMENT
UPC2                                                        MARKER NAME
Unknown                                                     MARKER NUMBER
gAGE / UPC          gAGE / UPC                              OBSERVER / AGENCY
1355                SEPT POLARX2        2.7.0               REC # / TYPE / VERS
Unknown             -                                       ANT # / TYPE
  4789031.3284   176583.3954  4195015.1071                  APPROX POSITION XYZ
        0.0000        0.0000        0.0000                  ANTENNA: DELTA H/E/N
     1     1                                                WAVELENGTH FACT L1/2
     5    C1    L1    L2    P2    P1                        # / TYPES OF OBSERV
     1.0000                                                 INTERVAL
teqc edited: all SBAS satellites excluded                   COMMENT
  2010     3    18     0     0    0.0000000     GPS         TIME OF FIRST OBS
    15                                                      LEAP SECONDS
                                                            END OF HEADER
 10  3 18  5  0  0.0000000  0  9G19G24G07G16G22G21G18G06G03
  22328592.731 8 -21674473.343 8 -16729991.007 9  22328591.577 9  22328591.203 9
  23101803.330 7 -52991601.016 7 -38885258.197 7  23101805.796 7  23101802.786 7
  24203242.992 7  -5399053.746 7  -4106933.395 7  24203242.914 7  24203242.025 7
  20693428.369 9 -50493676.719 9 -39223761.891 9  20693428.067 9  20693426.853 9
  21536652.609 9 -36771917.435 9 -27026412.560 9  21536651.201 9  21536651.185 9
  22384462.493 8 -57610667.415 8 -43675863.878 9  22384461.421 9  22384461.405 9
  21959445.433 9 -41753160.769 9 -32103086.865 9  21959445.681 9  21959443.984 9
  20251390.218 9 -50197911.688 9 -38063022.504 9  20251391.260 9  20251388.861 9
  20268827.634 9 -41775729.093 9 -32261931.568 9  20268827.453 9  20268825.836 9
 10  3 18  5  0  1.0000000  0  9G19G24G07G16G22G21G18G06G03
  22327713.028 8 -21679096.292 8 -16733593.305 9  22327711.859 9  22327711.483 9
  23101979.017 7 -52990679.345 7 -38884540.013 7  23101981.174 7  23101978.141 7
  24202673.077 7  -5402046.949 7  -4109265.763 7  24202673.373 7  24202672.393 7
  20693340.521 9 -50494138.134 9 -39224121.435 9  20693340.282 9  20693339.031 9
  21535863.879 9 -36776062.037 9 -27029642.119 9  21535862.530 9  21535862.489 9
  22384502.753 8 -57610456.199 8 -43675699.294 9  22384501.636 9  22384501.599 9
  21959054.251 9 -41755216.423 9 -32104688.673 9  21959054.438 9  21959052.795 9
  20250801.973 9 -50201003.910 9 -38065432.027 9  20250802.851 9  20250800.427 9
  20268107.134 9 -41779514.837 9 -32264881.498 9  20268107.045 9  20268105.412 9
 10  3 18  5  0  2.0000000  0  9G19G24G07G16G22G21G18G06G03
  22326833.369 8 -21683719.112 8 -16737195.502 9  22326832.167 9  22326831.789 9
  23102154.465 7 -52989757.615 7 -38883821.782 7  23102156.579 7  23102153.514 7
  24202103.498 7  -5405039.574 7  -4111597.679 7  24202103.911 7  24202102.888 7
  20693252.911 9 -50494599.036 9 -39224480.580 9  20693252.584 9  20693251.332 9
  21535075.266 9 -36780206.138 9 -27032871.288 9  21535073.965 9  21535073.893 9
  22384542.964 8 -57610244.796 8 -43675534.563 9  22384541.834 9  22384541.852 9
  21958663.180 9 -41757271.529 9 -32106290.054 9  21958663.290 9  21958661.706 9
  20250213.683 9 -50204095.845 9 -38067841.327 9  20250214.466 9  20250212.094 9
  20267386.670 9 -41783300.248 9 -32267831.169 9  20267386.703 9  20267385.028 9
 10  3 18  5  0  3.0000000  0  9G19G24G07G16G22G21G18G06G03
  22325953.676 8 -21688341.845 8 -16740797.631 9  22325952.490 9  22325952.109 9
  23102330.009 7 -52988835.818 7 -38883103.502 7  23102331.999 7  23102328.900 7
  24201533.854 7  -5408031.629 7  -4113929.151 7  24201534.504 7  24201533.521 7
  20693165.284 9 -50495059.443 9 -39224839.338 9  20693164.952 9  20693163.758 9
  21534286.669 9 -36784349.801 9 -27036100.116 9  21534285.483 9  21534285.393 9
  22384583.159 8 -57610033.239 8 -43675369.713 9  22384582.066 9  22384582.138 9
  21958272.143 9 -41759326.072 9 -32107890.997 9  21958272.306 9  21958270.738 9
  20249625.237 9 -50207187.545 9 -38070250.443 9  20249626.126 9  20249623.803 9
  20266666.339 9 -41787085.373 9 -32270780.617 9  20266666.421 9  20266664.703 9
 10  3 18  5  0  4.0000000  0  9G19G24G07G16G22G21G18G06G03
  22325074.103 8 -21692964.437 8 -16744399.650 9  22325072.839 9  22325072.448 9
  23102505.282 7 -52987913.936 7 -38882385.154 7  23102507.428 7  23102504.268 7
  24200964.268 7  -5411023.084 7  -4116260.155 7  24200965.244 7  24200964.248 7
  20693077.820 9 -50495519.327 9 -39225197.689 9  20693077.441 9  20693076.284 9
  21533498.209 9 -36788492.982 9 -27039328.568 9  21533497.092 9  21533496.996 9
  22384623.343 8 -57609821.497 8 -43675204.719 9  22384622.362 9  22384622.406 9
  21957881.315 9 -41761380.053 9 -32109491.503 9  21957881.433 9  21957879.873 9
  20249036.879 9 -50210278.971 9 -38072659.346 9  20249037.865 9  20249035.488 9
  20265945.928 9 -41790870.172 9 -32273729.810 9  20265946.204 9  20265944.436 9
 10  3 18  5  0  5.0000000  0  9G19G24G07G16G22G21G18G06G03
  22324194.382 8 -21697586.857 8 -16748001.535 9  22324193.221 9  22324192.821 9
  23102680.716 7 -52986991.911 7 -38881666.694 7  23102682.884 7  23102679.658 7
  24200395.428 7  -5414013.877 7  -4118590.644 7  24200396.169 7  24200395.069 7
  20692990.273 9 -50495978.643 9 -39225555.597 9  20692990.064 9  20692988.903 9
  21532709.696 9 -36792635.610 9 -27042556.589 9  21532708.806 9  21532708.679 9
  22384663.627 8 -57609609.528 8 -43675039.547 9  22384662.700 9  22384662.717 9
  21957490.655 9 -41763433.393 9 -32111091.508 9  21957490.690 9  21957489.105 9
  20248448.433 9 -50213370.070 9 -38075067.994 9  20248449.662 9  20248447.233 9
  20265225.785 9 -41794654.585 9 -32276678.704 9  20265226.065 9  20265224.254 9
 10  3 18  5  0  6.0000000  0  9G19G24G07G16G22G21G18G06G03
  22323314.912 8 -21702209.093 8 -16751603.277 9  22323313.643 9  22323313.186 9
  23102856.387 7 -52986069.747 7 -38880948.126 7  23102858.397 7  23102855.112 7
  24199826.393 7  -5417004.068 7  -4120920.664 7  24199827.190 7  24199826.016 7
  20692902.830 9 -50496437.387 9 -39225913.061 9  20692902.784 9  20692901.607 9
  21531921.397 9 -36796777.725 9 -27045784.211 9  21531920.620 9  21531920.440 9
  22384703.768 8 -57609397.347 8 -43674874.211 9  22384703.041 9  22384703.058 9
  21957100.122 9 -41765486.114 9 -32112691.031 9  21957100.065 9  21957098.453 9
  20247860.390 9 -50216460.841 9 -38077476.387 9  20247861.489 9  20247859.074 9
  20264505.756 9 -41798438.641 9 -32279627.318 9  20264506.002 9  20264504.172 9
 10  3 18  5  0  7.0000000  0  9G19G24G07G16G22G21G18G06G03
  22322435.246 8 -21706831.198 8 -16755204.917 9  22322434.089 9  22322433.558 9
  23103032.012 7 -52985147.478 7 -38880229.475 7  23103033.942 7  23103030.593 7
  24199257.859 7  -5419993.598 7  -4123250.170 7  24199258.305 7  24199257.102 7
  20692815.532 9 -50496895.573 9 -39226270.089 9  20692815.587 9  20692814.381 9
  21531133.157 9 -36800919.322 9 -27049011.429 9  21531132.514 9  21531132.305 9
  22384744.118 8 -57609184.941 8 -43674708.699 9  22384743.427 9  22384743.446 9
  21956709.624 9 -41767538.235 9 -32114290.087 9  21956709.535 9  21956707.935 9
  20247272.251 9 -50219551.320 9 -38079884.551 9  20247273.373 9  20247270.974 9
  20263785.644 9 -41802222.345 9 -32282575.659 9  20263785.997 9  20263784.161 9
 10  3 18  5  0  8.0000000  0  9G19G24G07G16G22G21G18G06G03
  22321555.846 8 -21711453.154 8 -16758806.441 9  22321554.535 9  22321553.981 9
  23103207.537 7 -52984225.101 7 -38879510.741 7  23103209.467 7  23103206.073 7
  24198689.350 7  -5422982.548 7  -4125579.222 7  24198689.528 7  24198688.321 7
  20692728.470 9 -50497353.239 9 -39226626.712 9  20692728.491 9  20692727.277 9
  21530345.171 9 -36805060.424 9 -27052238.261 9  21530344.479 9  21530344.266 9
  22384784.496 8 -57608972.355 8 -43674543.048 9  22384783.868 9  22384783.866 9
  21956319.100 9 -41769589.766 9 -32115888.683 9  21956319.115 9  21956317.532 9
  20246684.249 9 -50222641.524 9 -38082292.503 9  20246685.306 9  20246682.968 9
  20263065.638 9 -41806005.711 9 -32285523.736 9  20263066.013 9  20263064.229 9
 10  3 18  5  0  9.0000000  0  9G19G24G07G16G22G21G18G06G03
  22320676.228 8 -21716075.017 8 -16762407.892 9  22320674.985 9  22320674.431 9
  23103383.004 7 -52983302.652 7 -38878791.951 7  23103385.001 7  23103381.567 7
  24198120.500 7  -5425970.917 7  -4127907.821 7  24198120.869 7  24198119.695 7
  20692641.376 9 -50497810.427 9 -39226982.963 9  20692641.487 9  20692640.294 9
  21529557.113 9 -36809201.083 9 -27055464.748 9  21529556.524 9  21529556.295 9
  22384824.884 8 -57608759.645 8 -43674377.299 9  22384824.328 9  22384824.308 9
  21955928.808 9 -41771640.762 9 -32117486.863 9  21955928.813 9  21955927.197 9
  20246096.236 9 -50225731.493 9 -38084700.270 9  20246097.282 9  20246095.004 9
  20262345.716 9 -41809788.795 9 -32288471.593 9  20262346.090 9  20262344.346 9
 10  3 18  5  0 10.0000000  0  9G19G24G07G16G22G21G18G06G03
  22319796.715 8 -21720696.656 8 -16766009.169 9  22319795.487 9  22319794.945 9
  23103558.305 7 -52982380.023 7 -38878073.020 7  23103560.536 7  23103557.119 7
  24197552.353 7  -5428958.593 7  -4130235.880 7  24197552.339 7  24197551.198 7
  20692554.593 9 -50498266.987 9 -39227338.724 9  20692554.604 9  20692553.432 9
  21528769.381 9 -36813341.154 9 -27058690.777 9  21528768.681 9  21528768.428 9
  22384865.412 8 -57608546.647 8 -43674211.325 9  22384864.879 9  22384864.851 9
  21955538.815 9 -41773691.075 9 -32119084.509 9  21955538.645 9  21955536.991 9
  20245508.323 9 -50228821.091 9 -38087107.748 9  20245509.310 9  20245507.091 9
  20261625.902 9 -41813571.446 9 -32291419.113 9  20261626.293 9  20261624.526 9
 10  3 18  5  0 11.0000000  0  9G19G24G07G16G22G21G18G06G03
  22318917.178 8 -21725318.118 8 -16769610.308 9  22318916.025 9  22318915.498 9
  23103733.767 7 -52981457.277 7 -38877353.997 7  23103736.087 7  23103732.695 7
  24196984.377 7  -5431945.650 7  -4132563.457 7  24196983.922 7  24196982.811 7
  20692467.869 9 -50498722.989 9 -39227694.050 9  20692467.820 9  20692466.669 9
  21527981.715 9 -36817480.700 9 -27061916.396 9  21527980.946 9  21527980.678 9
  22384906.107 8 -57608333.421 8 -43674045.175 9  22384905.472 9  22384905.433 9
  21955148.757 9 -41775740.776 9 -32120681.679 9  21955148.584 9  21955146.946 9
  20244920.302 9 -50231910.369 9 -38089514.978 9  20244921.398 9  20244919.238 9
  20260906.133 9 -41817353.739 9 -32294366.354 9  20260906.570 9  20260904.785 9
 10  3 18  5  0 12.0000000  0  9G19G24G07G16G22G21G18G06G03
  22318037.758 8 -21729939.521 8 -16773211.401 9  22318036.572 9  22318036.056 9
  23103909.351 7 -52980534.509 7 -38876634.959 7  23103911.663 7  23103908.267 7
  24196416.132 7  -5434932.154 7  -4134890.603 7  24196415.606 7  24196414.502 7
  20692381.047 9 -50499178.529 9 -39228049.016 9  20692381.121 9  20692379.988 9
  21527194.057 9 -36821619.834 9 -27065141.696 9  21527193.294 9  21527193.015 9
  22384946.565 8 -57608120.100 8 -43673878.951 9  22384946.070 9  22384945.992 9
  21954758.744 9 -41777789.971 9 -32122278.455 9  21954758.617 9  21954756.996 9
  20244332.490 9 -50234999.421 9 -38091922.031 9  20244333.548 9  20244331.404 9
  20260186.420 9 -41821135.767 9 -32297313.388 9  20260186.906 9  20260185.109 9
 10  3 18  5  0 13.0000000  0  9G19G24G07G16G22G21G18G06G03
  22317158.285 8 -21734560.780 8 -16776812.381 9  22317157.145 9  22317156.639 9
  23104085.287 7 -52979611.594 7 -38875915.806 7  23104087.271 7  23104083.867 7
  24195847.856 7  -5437918.039 7  -4137217.265 7  24195847.408 7  24195846.267 7
  20692294.347 9 -50499633.543 9 -39228403.573 9  20692294.515 9  20692293.400 9
  21526406.516 9 -36825758.475 9 -27068366.611 9  21526405.720 9  21526405.475 9
  22384987.220 8 -57607906.579 8 -43673712.571 9  22384986.706 9  22384986.589 9
  21954368.974 9 -41779838.578 9 -32123874.773 9  21954368.741 9  21954367.178 9
  20243744.798 9 -50238088.175 9 -38094328.852 9  20243745.756 9  20243743.628 9
  20259466.656 9 -41824917.465 9 -32300260.166 9  20259467.304 9  20259465.503 9
 10  3 18  5  0 14.0000000  0  9G19G24G07G16G22G21G18G06G03
  22316278.994 8 -21739181.860 8 -16780413.222 9  22316277.752 9  22316277.262 9
  23104260.771 7 -52978688.577 7 -38875196.574 7  23104262.894 7  23104259.469 7
  24195279.990 7  -5440903.284 7  -4139543.429 7  24195279.343 7  24195278.184 7
  20692207.872 9 -50500087.984 9 -39228757.683 9  20692208.026 9  20692206.918 9
  21525619.056 9 -36829896.564 9 -27071591.095 9  21525618.228 9  21525618.060 9
  22385027.862 8 -57607692.832 8 -43673546.014 9  22385027.405 9  22385027.212 9
  21953979.311 9 -41781886.549 9 -32125470.594 9  21953978.979 9  21953977.477 9
  20243157.106 9 -50241176.626 9 -38096735.436 9  20243158.053 9  20243155.928 9
  20258747.063 9 -41828698.786 9 -32303206.650 9  20258747.748 9  20258745.982 9
 10  3 18  5  0 15.0000000  0  9G19G24G07G16G22G21G18G06G03
  22315399.863 8 -21743802.731 8 -16784013.900 9  22315398.394 9  22315397.922 9
  23104436.748 7 -52977765.375 7 -38874477.197 7  23104438.555 7  23104435.107 7
  24194711.866 7  -5443887.850 7  -4141869.066 7  24194711.433 7  24194710.277 7
  20692121.433 9 -50500541.826 9 -39229111.326 9  20692121.662 9  20692120.542 9
  21524831.811 9 -36834034.108 9 -27074815.156 9  21524830.851 9  21524830.708 9
  22385068.590 8 -57607478.835 8 -43673379.263 9  22385068.154 9  22385067.887 9
  21953589.835 9 -41783933.867 9 -32127065.908 9  21953589.381 9  21953587.927 9
  20242569.592 9 -50244264.729 9 -38099141.750 9  20242570.418 9  20242568.298 9
  20258027.568 9 -41832479.704 9 -32306152.819 9  20258028.263 9  20258026.529 9
 10  3 18  5  0 16.0000000  0  9G19G24G07G16G22G21G18G06G03
  22314520.453 8 -21748423.392 8 -16787614.415 9  22314519.100 9  22314518.598 9
  23104612.341 7 -52976842.034 7 -38873757.713 7  23104614.260 7  23104610.778 7
  24194143.982 7  -5446871.751 7  -4144194.184 7  24194143.653 7  24194142.483 7
  20692035.214 9 -50500995.067 9 -39229464.501 9  20692035.412 9  20692034.300 9
  21524044.611 9 -36838171.079 9 -27078038.769 9  21524043.600 9  21524043.436 9
  22385109.389 8 -57607264.587 8 -43673212.317 9  22385108.935 9  22385108.665 9
  21953200.414 9 -41785980.523 9 -32128660.706 9  21953199.918 9  21953198.511 9
  20241981.992 9 -50247352.469 9 -38101547.781 9  20241982.887 9  20241980.763 9
  20257308.205 9 -41836260.210 9 -32309098.668 9  20257308.856 9  20257307.134 9
 10  3 18  5  0 17.0000000  0  9G19G24G07G16G22G21G18G06G03
  22313641.201 8 -21753043.937 8 -16791214.839 9  22313639.834 9  22313639.281 9
  23104788.155 7 -52975918.604 7 -38873038.159 7  23104789.979 7  23104786.461 7
  24193575.847 7  -5449855.068 7  -4146518.847 7  24193575.980 7  24193574.774 7
  20691949.133 9 -50501447.802 9 -39229817.281 9  20691949.260 9  20691948.184 9
  21523257.525 9 -36842307.572 9 -27081262.010 9  21523256.429 9  21523256.251 9
  22385150.333 8 -57607050.166 8 -43673045.236 9  22385149.750 9  22385149.478 9
  21952811.014 9 -41788026.609 9 -32130255.060 9  21952810.550 9  21952809.175 9
  20241394.314 9 -50250439.935 9 -38103953.599 9  20241395.410 9  20241393.280 9
  20256588.963 9 -41840040.395 9 -32312044.267 9  20256589.504 9  20256587.787 9
 10  3 18  5  0 18.0000000  0  9G19G24G07G16G22G21G18G06G03
  22312762.064 8 -21757664.256 8 -16794815.087 9  22312760.638 9  22312760.053 9
  23104963.980 7 -52974994.966 7 -38872318.443 7  23104965.770 7  23104962.189 7
  24193008.094 7  -5452837.674 7  -4148842.954 7  24193008.415 7  24193007.204 7
  20691863.164 9 -50501899.920 9 -39230169.582 9  20691863.233 9  20691862.160 9
  21522470.487 9 -36846443.486 9 -27084484.800 9  21522469.365 9  21522469.175 9
  22385191.359 8 -57606835.466 8 -43672877.938 9  22385190.585 9  22385190.368 9
  21952421.933 9 -41790072.033 9 -32131848.897 9  21952421.308 9  21952419.962 9
  20240806.888 9 -50253527.043 9 -38106359.137 9  20240807.982 9  20240805.830 9
  20255869.614 9 -41843820.176 9 -32314989.551 9  20255870.228 9  20255868.491 9
 10  3 18  5  0 19.0000000  0  9G19G24G07G16G22G21G18G06G03
  22311883.004 8 -21762284.422 8 -16798415.215 9  22311881.483 9  22311880.873 9
  23105139.935 7 -52974071.210 7 -38871598.635 7  23105141.588 7  23105137.936 7
  24192440.535 7  -5455819.652 7  -4151166.575 7  24192440.924 7  24192439.764 7
  20691777.263 9 -50502351.479 9 -39230521.446 9  20691777.312 9  20691776.192 9
  21521683.495 9 -36850578.877 9 -27087707.183 9  21521682.400 9  21521682.211 9
  22385232.262 8 -57606620.552 8 -43672710.472 9  22385231.463 9  22385231.299 9
  21952032.801 9 -41792116.830 9 -32133442.245 9  21952032.166 9  21952030.841 9
  20240219.480 9 -50256613.826 9 -38108764.422 9  20240220.614 9  20240218.440 9
  20255150.390 9 -41847599.586 9 -32317934.545 9  20255151.014 9  20255149.265 9
 10  3 18  5  0 20.0000000  0  9G19G24G07G16G22G21G18G06G03
  22311003.756 8 -21766904.499 8 -16802015.275 9  22311002.319 9  22311001.684 9
  23105315.968 7 -52973147.410 7 -38870878.793 7  23105317.415 7  23105313.730 7
  24191873.259 7  -5458801.090 7  -4153489.775 7  24191873.564 7  24191872.411 7
  20691691.441 9 -50502802.557 9 -39230872.935 9  20691691.483 9  20691690.327 9
  21520896.531 9 -36854713.840 9 -27090929.231 9  21520895.521 9  21520895.343 9
  22385273.198 8 -57606405.511 8 -43672542.908 9  22385272.397 9  22385272.170 9
  21951643.982 9 -41794161.114 9 -32135035.194 9  21951643.122 9  21951641.815 9
  20239632.205 9 -50259700.407 9 -38111169.550 9  20239633.216 9  20239631.087 9
  20254431.279 9 -41851378.714 9 -32320879.321 9  20254431.821 9  20254430.093 9
 10  3 18  5  0 21.0000000  0  9G19G24G07G16G22G21G18G06G03
  22310124.261 8 -21771524.441 8 -16805615.229 9  22310123.171 9  22310122.516 9
  23105491.441 7 -52972223.501 7 -38870158.863 7  23105493.262 7  23105489.547 7
  24191306.284 7  -5461781.882 7  -4155812.471 7  24191306.381 7  24191305.157 7
  20691605.758 9 -50503253.086 9 -39231223.997 9  20691605.754 9  20691604.581 9
  21520109.612 9 -36858848.277 9 -27094150.871 9  21520108.771 9  21520108.595 9
  22385314.064 8 -57606190.267 8 -43672375.186 9  22385313.374 9  22385313.083 9
  21951255.093 9 -41796204.780 9 -32136627.661 9  21951254.188 9  21951252.960 9
  20239044.941 9 -50262786.646 9 -38113574.411 9  20239045.884 9  20239043.801 9
  20253712.167 9 -41855157.490 9 -32323823.822 9  20253712.700 9  20253710.997 9
 10  3 18  5  0 22.0000000  0  9G19G24G07G16G22G21G18G06G03
  22309245.050 8 -21776144.246 8 -16809215.076 9  22309244.066 9  22309243.376 9
  23105667.333 7 -52971299.531 7 -38869438.890 7  23105669.123 7  23105665.408 7
  24190739.321 7  -5464762.102 7  -4158134.720 7  24190739.278 7  24190738.028 7
  20691520.225 9 -50503703.123 9 -39231574.674 9  20691520.103 9  20691518.917 9
  21519322.976 9 -36862982.260 9 -27097372.156 9  21519322.132 9  21519321.948 9
  22385354.895 8 -57605974.879 8 -43672207.351 9  22385354.363 9  22385354.069 9
  21950866.362 9 -41798247.898 9 -32138219.701 9  21950865.361 9  21950864.219 9
  20238457.720 9 -50265872.652 9 -38115979.091 9  20238458.591 9  20238456.593 9
  20252993.165 9 -41858935.959 9 -32326768.083 9  20252993.678 9  20252992.004 9
 10  3 18  5  0 23.0000000  0  9G19G24G07G16G22G21G18G06G03
  22308366.157 8 -21780763.840 8 -16812814.759 9  22308365.008 9  22308364.276 9
  23105843.185 7 -52970375.355 7 -38868718.756 7  23105845.021 7  23105841.312 7
  24190172.644 7  -5467741.640 7  -4160456.438 7  24190172.258 7  24190171.061 7
  20691434.744 9 -50504152.539 9 -39231924.869 9  20691434.556 9  20691433.361 9
  21518536.407 9 -36867115.648 9 -27100592.978 9  21518535.606 9  21518535.395 9
  22385395.794 8 -57605759.193 8 -43672039.284 9  22385395.409 9  22385395.108 9
  21950477.632 9 -41800290.350 9 -32139811.224 9  21950476.693 9  21950475.561 9
  20237870.556 9 -50268958.295 9 -38118383.488 9  20237871.368 9  20237869.456 9
  20252274.301 9 -41862714.002 9 -32329712.013 9  20252274.738 9  20252273.087 9
 10  3 18  5  0 24.0000000  0  9G19G24G07G16G22G21G18G06G03
  22307487.196 8 -21785383.251 8 -16816414.300 9  22307485.972 9  22307485.249 9
  23106018.971 7 -52969451.055 7 -38867998.523 7  23106020.929 7  23106017.159 7
  24189605.610 7  -5470720.540 7  -4162777.659 7  24189605.388 7  24189604.211 7
  20691349.429 9 -50504601.395 9 -39232274.627 9  20691349.119 9  20691347.921 9
  21517749.878 9 -36871248.515 9 -27103813.393 9  21517749.171 9  21517748.921 9
  22385436.909 8 -57605543.316 8 -43671871.069 9  22385436.468 9  22385436.207 9
  21950089.032 9 -41802332.173 9 -32141402.255 9  21950088.145 9  21950087.015 9
  20237283.480 9 -50272043.618 9 -38120787.636 9  20237284.265 9  20237282.418 9
  20251555.349 9 -41866491.694 9 -32332655.668 9  20251555.871 9  20251554.214 9
 10  3 18  5  0 25.0000000  0  9G19G24G07G16G22G21G18G06G03
  22306608.334 8 -21790002.486 8 -16820013.703 9  22306606.963 9  22306606.269 9
  23106195.031 7 -52968526.594 7 -38867278.165 7  23106196.872 7  23106193.030 7
  24189038.874 7  -5473698.788 7  -4165098.370 7  24189038.713 7  24189037.491 7
  20691264.090 9 -50505049.661 9 -39232623.926 9  20691263.800 9  20691262.609 9
  21516963.500 9 -36875380.836 9 -27107033.383 9  21516962.826 9  21516962.572 9
  22385477.987 8 -57605327.201 8 -43671702.668 9  22385477.569 9  22385477.348 9
  21949700.571 9 -41804373.383 9 -32142992.808 9  21949699.717 9  21949698.583 9
  20236696.504 9 -50275128.607 9 -38123191.523 9  20236697.230 9  20236695.445 9
  20250836.521 9 -41870269.002 9 -32335599.026 9  20250837.078 9  20250835.414 9
 10  3 18  5  0 26.0000000  0  9G19G24G07G16G22G21G18G06G03
  22305729.279 8 -21794621.536 8 -16823612.962 9  22305728.009 9  22305727.304 9
  23106371.047 7 -52967602.039 7 -38866557.734 7  23106372.796 7  23106368.962 7
  24188472.215 7  -5476676.382 7  -4167418.573 7  24188472.138 7  24188470.905 7
  20691178.873 9 -50505497.380 9 -39232972.798 9  20691178.594 9  20691177.397 9
  21516177.188 9 -36879512.642 9 -27110252.972 9  21516176.566 9  21516176.332 9
  22385519.158 8 -57605110.867 8 -43671534.096 9  22385518.755 9  22385518.509 9
  21949312.181 9 -41806413.966 9 -32144582.873 9  21949311.411 9  21949310.274 9
  20236109.529 9 -50278213.282 9 -38125595.165 9  20236110.282 9  20236108.493 9
  20250117.806 9 -41874045.940 9 -32338542.095 9  20250118.353 9  20250116.669 9
 10  3 18  5  0 27.0000000  0  9G19G24G07G16G22G21G18G06G03
  22304850.205 8 -21799240.401 8 -16827212.077 9  22304849.096 9  22304848.363 9
  23106546.982 7 -52966677.314 7 -38865837.172 7  23106548.747 7  23106544.935 7
  24187905.437 7  -5479653.310 7  -4169738.257 7  24187905.644 7  24187904.461 7
  20691093.683 9 -50505944.505 9 -39233321.208 9  20691093.503 9  20691092.283 9
  21515391.131 9 -36883643.881 9 -27113472.119 9  21515390.407 9  21515390.196 9
  22385560.231 8 -57604894.284 8 -43671365.331 9  22385559.990 9  22385559.720 9
  21948923.963 9 -41808453.887 9 -32146172.422 9  21948923.216 9  21948922.140 9
  20235522.716 9 -50281297.607 9 -38127998.536 9  20235523.399 9  20235521.603 9
  20249399.240 9 -41877822.475 9 -32341484.849 9  20249399.706 9  20249397.997 9
 10  3 18  5  0 28.0000000  0  9G19G24G07G16G22G21G18G06G03
  22303971.503 8 -21803859.141 8 -16830811.095 9  22303970.223 9  22303969.448 9
  23106723.074 7 -52965752.495 7 -38865116.534 7  23106724.743 7  23106720.966 7
  24187339.122 7  -5482629.647 7  -4172057.480 7  24187339.260 7  24187338.111 7
  20691008.729 9 -50506391.119 9 -39233669.218 9  20691008.508 9  20691007.272 9
  21514605.190 9 -36887774.646 9 -27116690.896 9  21514604.339 9  21514604.146 9
  22385601.636 8 -57604677.556 8 -43671196.452 9  22385601.207 9  22385600.991 9
  21948535.845 9 -41810493.244 9 -32147761.532 9  21948535.128 9  21948534.121 9
  20234935.952 9 -50284381.670 9 -38130401.702 9  20234936.531 9  20234934.698 9
  20248680.664 9 -41881598.712 9 -32344427.371 9  20248681.117 9  20248679.375 9
 10  3 18  5  0 29.0000000  0  9G19G24G07G16G22G21G18G06G03
  22303092.700 8 -21808477.725 8 -16834409.990 9  22303091.388 9  22303090.563 9
  23106898.801 7 -52964827.601 7 -38864395.838 7  23106900.755 7  23106897.013 7
  24186772.946 7  -5485605.393 7  -4174376.242 7  24186772.985 7  24186771.841 7
  20690923.770 9 -50506837.192 9 -39234016.808 9  20690923.596 9  20690922.359 9
  21513819.204 9 -36891904.909 9 -27119909.282 9  21513818.366 9  21513818.168 9
  22385643.137 8 -57604460.632 8 -43671027.422 9  22385642.464 9  22385642.299 9
  21948147.992 9 -41812532.015 9 -32149350.184 9  21948147.156 9  21948146.232 9
  20234349.014 9 -50287465.431 9 -38132804.632 9  20234349.719 9  20234347.850 9
  20247962.104 9 -41885374.600 9 -32347369.621 9  20247962.600 9  20247960.820 9
 10  3 18  5  0 30.0000000  0  9G19G24G07G16G22G21G18G06G03
  22302213.926 8 -21813096.169 8 -16838008.777 9  22302212.588 9  22302211.658 9
  23107074.642 7 -52963902.573 7 -38863675.039 7  23107076.771 7  23107073.010 7
  24186206.502 7  -5488580.511 7  -4176694.515 7  24186206.849 7  24186205.682 7
  20690839.078 9 -50507282.736 9 -39234363.985 9  20690838.803 9  20690837.563 9
  21513033.354 9 -36896034.654 9 -27123127.265 9  21513032.505 9  21513032.275 9
  22385684.694 8 -57604243.481 8 -43670858.214 9  22385683.792 9  22385683.585 9
  21947760.232 9 -41814570.191 9 -32150938.373 9  21947759.303 9  21947758.460 9
  20233762.100 9 -50290548.894 9 -38135207.331 9  20233762.906 9  20233761.089 9
  20247243.632 9 -41889150.136 9 -32350311.598 9  20247244.155 9  20247242.329 9
 10  3 18  5  0 31.0000000  0  9G19G24G07G16G22G21G18G06G03
  22301335.151 8 -21817714.495 8 -16841607.471 9  22301333.816 9  22301332.762 9
  23107250.277 7 -52962977.461 7 -38862954.175 7  23107252.803 7  23107249.019 7
  24185640.347 7  -5491555.013 7  -4179012.308 7  24185640.865 7  24185639.612 7
  20690754.461 9 -50507727.753 9 -39234710.753 9  20690754.129 9  20690752.874 9
  21512247.634 9 -36900163.936 9 -27126344.886 9  21512246.716 9  21512246.480 9
  22385726.079 8 -57604026.190 8 -43670688.896 9  22385725.148 9  22385724.901 9
  21947372.405 9 -41816607.800 9 -32152526.121 9  21947371.562 9  21947370.761 9
  20233175.310 9 -50293632.118 9 -38137609.843 9  20233176.139 9  20233174.372 9
  20246525.252 9 -41892925.359 9 -32353253.330 9  20246525.782 9  20246523.909 9
 10  3 18  5  0 32.0000000  0  9G19G24G07G16G22G21G18G06G03
  22300456.198 8 -21822332.677 8 -16845206.054 9  22300455.018 9  22300453.950 9
  23107426.328 7 -52962052.246 7 -38862233.229 7  23107428.839 7  23107425.081 7
  24185074.760 7  -5494528.910 7  -4181329.628 7  24185074.984 7  24185073.681 7
  20690669.881 9 -50508172.235 9 -39235057.103 9  20690669.574 9  20690668.284 9
  21511461.813 9 -36904292.711 9 -27129562.114 9  21511461.011 9  21511460.790 9
  22385767.565 8 -57603808.712 8 -43670519.433 9  22385766.546 9  22385766.320 9
  21946984.736 9 -41818644.812 9 -32154113.403 9  21946983.931 9  21946983.167 9
  20232588.635 9 -50296715.047 9 -38140012.125 9  20232589.455 9  20232587.676 9
  20245806.873 9 -41896700.237 9 -32356194.793 9  20245807.524 9  20245805.578 9
 10  3 18  5  0 33.0000000  0  9G19G24G07G16G22G21G18G06G03
  22299577.356 8 -21826950.776 8 -16848804.572 9  22299576.210 9  22299575.178 9
  23107602.296 7 -52961126.992 7 -38861512.254 7  23107604.880 7  23107601.156 7
  24184508.855 7  -5497502.286 7  -4183646.542 7  24184509.189 7  24184507.892 7
  20690585.386 9 -50508616.253 9 -39235403.091 9  20690585.137 9  20690583.772 9
  21510676.129 9 -36908421.048 9 -27132778.999 9  21510675.394 9  21510675.189 9
  22385808.974 8 -57603591.092 8 -43670349.860 9  22385807.973 9  22385807.768 9
  21946597.166 9 -41820681.305 9 -32155700.281 9  21946596.409 9  21946595.666 9
  20232002.196 9 -50299797.761 9 -38142414.239 9  20232002.813 9  20232001.025 9
  20245088.612 9 -41900474.849 9 -32359136.050 9  20245089.304 9  20245087.291 9
 10  3 18  5  0 34.0000000  0  9G19G24G07G16G22G21G18G06G03
  22298698.684 8 -21831568.688 8 -16852402.944 9  22298697.446 9  22298696.431 9
  23107778.612 7 -52960201.601 7 -38860791.171 7  23107780.907 7  23107777.271 7
  24183942.942 7  -5500474.953 7  -4185962.905 7  24183943.518 7  24183942.228 7
  20690501.087 9 -50509059.683 9 -39235748.621 9  20690500.795 9  20690499.360 9
  21509890.641 9 -36912548.831 9 -27135995.453 9  21509889.889 9  21509889.699 9
  22385850.414 8 -57603373.247 8 -43670180.110 9  22385849.398 9  22385849.226 9
  21946209.772 9 -41822717.160 9 -32157286.661 9  21946209.009 9  21946208.285 9
  20231415.727 9 -50302880.118 9 -38144816.076 9  20231416.268 9  20231414.472 9
  20244370.403 9 -41904249.060 9 -32362076.993 9  20244371.116 9  20244369.063 9
 10  3 18  5  0 35.0000000  0  9G19G24G07G16G22G21G18G06G03
  22297820.072 8 -21836186.431 8 -16856001.184 9  22297818.721 9  22297817.713 9
  23107954.870 7 -52959276.077 7 -38860069.985 7  23107956.950 7  23107953.415 7
  24183377.398 7  -5503447.023 7  -4188278.804 7  24183377.933 7  24183376.660 7
  20690416.883 9 -50509502.563 9 -39236093.723 9  20690416.528 9  20690415.047 9
  21509105.166 9 -36916676.105 9 -27139211.511 9  21509104.497 9  21509104.292 9
  22385892.086 8 -57603155.187 8 -43670010.193 9  22385890.867 9  22385890.729 9
  21945822.548 9 -41824752.408 9 -32158872.567 9  21945821.726 9  21945821.047 9
  20230829.327 9 -50305962.163 9 -38147217.670 9  20230829.782 9  20230827.982 9
  20243652.292 9 -41908022.923 9 -32365017.665 9  20243652.997 9  20243650.903 9
 10  3 18  5  0 36.0000000  0  9G19G24G07G16G22G21G18G06G03
  22296940.873 8 -21840803.977 8 -16859599.272 9  22296940.039 9  22296939.017 9
  23108131.173 7 -52958350.374 7 -38859348.658 7  23108133.083 7  23108129.600 7
  24182811.721 7  -5506418.418 7  -4190594.176 7  24182812.498 7  24182811.192 7
  20690332.683 9 -50509944.840 9 -39236438.354 9  20690332.366 9  20690330.864 9
  21508319.764 9 -36920802.808 9 -27142427.123 9  21508319.232 9  21508318.987 9
  22385933.624 8 -57602936.871 8 -43669840.077 9  22385932.396 9  22385932.271 9
  21945435.352 9 -41826786.990 9 -32160457.956 9  21945434.573 9  21945433.938 9
  20230242.949 9 -50309043.852 9 -38149618.985 9  20230243.380 9  20230241.605 9
  20242934.219 9 -41911796.363 9 -32367958.007 9  20242934.987 9  20242932.838 9
 10  3 18  5  0 37.0000000  0  9G19G24G07G16G22G21G18G06G03
  22296062.092 8 -21845421.414 8 -16863197.274 9  22296061.384 9  22296060.337 9
  23108307.623 8 -52957424.608 8 -38858627.282 7  23108309.245 7  23108305.804 7
  24182246.300 7  -5509389.192 7  -4192909.065 7  24182247.231 7  24182245.804 7
  20690248.520 9 -50510386.622 9 -39236782.600 9  20690248.277 9  20690246.801 9
  21507534.577 9 -36924929.052 9 -27145642.377 9  21507534.051 9  21507533.777 9
  22385975.247 8 -57602718.416 8 -43669669.853 9  22385973.953 9  22385973.842 9
  21945048.354 9 -41828821.042 9 -32162042.930 9  21945047.549 9  21945046.909 9
  20229656.604 9 -50312125.291 9 -38152020.106 9  20229657.024 9  20229655.269 9
  20242216.085 9 -41915569.505 9 -32370898.118 9  20242217.022 9  20242214.821 9
 10  3 18  5  0 38.0000000  0  9G19G24G07G16G22G21G18G06G03
  22295183.732 8 -21850038.652 8 -16866795.121 9  22295182.767 9  22295181.692 9
  23108483.611 8 -52956498.718 8 -38857905.810 7  23108485.404 7  23108482.048 7
  24181680.895 7  -5512359.371 7  -4195223.490 7  24181682.055 7  24181680.560 7
  20690164.528 9 -50510827.831 9 -39237126.399 9  20690164.307 9  20690162.850 9
  21506749.431 9 -36929054.766 9 -27148857.220 9  21506748.963 9  21506748.670 9
  22386017.047 8 -57602499.730 8 -43669499.447 9  22386015.594 9  22386015.481 9
  21944661.389 9 -41830854.440 9 -32163627.396 9  21944660.653 9  21944659.999 9
  20229070.364 9 -50315206.417 9 -38154420.984 9  20229070.717 9  20229068.912 9
  20241498.072 9 -41919342.281 9 -32373837.943 9  20241499.084 9  20241496.837 9
 10  3 18  5  0 39.0000000  0  9G19G24G07G16G22G21G18G06G03
  22294305.308 8 -21854655.743 8 -16870392.853 9  22294304.178 9  22294303.075 9
  23108659.907 8 -52955572.695 8 -38857184.235 7  23108661.582 7  23108658.318 7
  24181116.218 7  -5515328.901 7  -4197537.410 7  24181116.967 7  24181115.492 7
  20690080.555 9 -50511268.496 9 -39237469.775 9  20690080.467 9  20690079.010 9
  21505964.316 9 -36933179.959 9 -27152071.656 9  21505963.973 9  21505963.667 9
  22386058.670 8 -57602280.841 8 -43669328.885 9  22386057.273 9  22386057.155 9
  21944274.642 9 -41832887.247 9 -32165211.400 9  21944273.806 9  21944273.161 9
  20228484.108 9 -50318287.230 9 -38156821.618 9  20228484.462 9  20228482.609 9
  20240780.176 9 -41923114.679 9 -32376777.474 9  20240781.216 9  20240778.915 9
 10  3 18  5  0 40.0000000  0  9G19G24G07G16G22G21G18G06G03
  22293426.503 8 -21859272.650 8 -16873990.443 9  22293425.629 9  22293424.486 9
  23108836.557 8 -52954646.563 8 -38856462.574 7  23108837.804 7  23108834.583 7
  24180551.616 7  -5518297.750 7  -4199850.798 7  24180551.985 7  24180550.553 7
  20689996.748 9 -50511708.589 9 -39237812.705 9  20689996.712 9  20689995.276 9
  21505179.513 9 -36937304.607 9 -27155285.667 9  21505179.096 9  21505178.779 9
  22386100.384 8 -57602061.708 8 -43669158.131 9  22386099.015 9  22386098.882 9
  21943888.030 9 -41834919.412 9 -32166794.905 9  21943887.077 9  21943886.444 9
  20227897.848 9 -50321367.724 9 -38159222.002 9  20227898.254 9  20227896.389 9
  20240062.399 9 -41926886.710 9 -32379716.718 9  20240063.418 9  20240061.033 9
 10  3 18  5  0 41.0000000  0  9G19G24G07G16G22G21G18G06G03
  22292547.776 8 -21863889.387 8 -16877587.899 9  22292547.115 9  22292545.928 9
  23109013.057 8 -52953720.264 8 -38855740.783 7  23109014.061 7  23109010.876 7
  24179987.022 7  -5521266.004 7  -4202163.722 7  24179987.071 7  24179985.724 7
  20689912.987 9 -50512148.109 9 -39238155.188 9  20689913.022 9  20689911.650 9
  21504394.716 9 -36941428.732 9 -27158499.271 9  21504394.307 9  21504393.969 9
  22386142.147 8 -57601842.365 8 -43668987.215 9  22386140.791 9  22386140.642 9
  21943501.500 9 -41836950.951 9 -32168377.922 9  21943500.495 9  21943499.897 9
  20227311.611 9 -50324447.876 9 -38161622.120 9  20227312.108 9  20227310.230 9
  20239344.726 9 -41930658.363 9 -32382655.667 9  20239345.691 9  20239343.239 9
 10  3 18  5  0 42.0000000  0  9G19G24G07G16G22G21G18G06G03
  22291669.464 8 -21868505.893 8 -16881185.175 9  22291668.621 9  22291667.440 9
  23109189.475 8 -52952793.797 8 -38855018.860 7  23109190.327 7  23109187.217 7
  24179422.079 7  -5524233.544 7  -4204476.091 7  24179422.321 7  24179421.046 7
  20689829.371 9 -50512587.009 9 -39238497.188 9  20689829.463 9  20689828.126 9
  21503610.039 9 -36945552.257 9 -27161712.408 9  21503609.620 9  21503609.260 9
  22386183.876 8 -57601622.743 8 -43668816.080 9  22386182.582 9  22386182.446 9
  21943115.053 9 -41838981.820 9 -32169960.417 9  21943114.047 9  21943113.484 9
  20226725.537 9 -50327527.649 9 -38164021.943 9  20226726.075 9  20226724.133 9
  20238627.093 9 -41934429.584 9 -32385594.281 9  20238628.046 9  20238625.583 9
 10  3 18  5  0 43.0000000  0  9G19G24G07G16G22G21G18G06G03
  22290791.214 8 -21873122.299 8 -16884782.374 9  22290790.134 9  22290788.983 9
  23109365.963 8 -52951867.259 8 -38854296.883 7  23109366.606 7  23109363.576 7
  24178857.203 7  -5527200.486 7  -4206787.994 7  24178857.731 7  24178856.494 7
  20689745.888 9 -50513025.426 9 -39238838.812 9  20689746.020 9  20689744.661 9
  21502825.455 9 -36949675.349 9 -27164925.207 9  21502824.996 9  21502824.641 9
  22386225.586 8 -57601402.977 8 -43668644.834 9  22386224.399 9  22386224.275 9
  21942728.775 9 -41841012.150 9 -32171542.492 9  21942727.701 9  21942727.148 9
  20226139.523 9 -50330607.189 9 -38166421.584 9  20226140.090 9  20226138.085 9
  20237909.632 9 -41938200.515 9 -32388532.668 9  20237910.448 9  20237907.989 9
 10  3 18  5  0 44.0000000  0  9G19G24G07G16G22G21G18G06G03
  22289913.107 8 -21877738.625 8 -16888379.510 9  22289911.648 9  22289910.549 9
  23109542.382 8 -52950940.697 8 -38853574.886 7  23109542.922 7  23109539.926 7
  24178292.615 7  -5530166.926 7  -4209099.506 7  24178293.246 7  24178292.017 7
  20689662.317 9 -50513463.380 9 -39239180.075 9  20689662.686 9  20689661.278 9
  21502040.929 9 -36953798.002 9 -27168137.663 9  21502040.432 9  21502040.109 9
  22386267.371 8 -57601183.083 8 -43668473.488 9  22386266.270 9  22386266.118 9
  21942342.409 9 -41843041.949 9 -32173124.153 9  21942341.461 9  21942340.915 9
  20225553.553 9 -50333686.508 9 -38168821.053 9  20225554.126 9  20225552.105 9
  20237192.022 9 -41941971.180 9 -32391470.849 9  20237192.889 9  20237190.485 9
 10  3 18  5  0 45.0000000  0  9G19G24G07G16G22G21G18G06G03
  22289034.751 8 -21882354.839 8 -16891976.560 9  22289033.171 9  22289032.137 9
  23109718.383 8 -52950014.055 8 -38852852.826 7  23109719.258 7  23109716.291 7
  24177728.087 7  -5533132.755 7  -4211410.541 7  24177728.888 7  24177727.620 7
  20689579.070 9 -50513900.805 9 -39239520.926 9  20689579.481 9  20689577.975 9
  21501256.381 9 -36957920.169 9 -27171349.741 9  21501255.980 9  21501255.673 9
  22386309.234 8 -57600963.033 8 -43668302.021 9  22386308.171 9  22386307.990 9
  21941956.109 9 -41845071.184 9 -32174705.375 9  21941955.323 9  21941954.776 9
  20224967.681 9 -50336765.564 9 -38171220.317 9  20224968.214 9  20224966.178 9
  20236474.486 9 -41945741.527 9 -32394408.782 9  20236475.398 9  20236473.040 9
 10  3 18  5  0 46.0000000  0  9G19G24G07G16G22G21G18G06G03
  22288156.409 8 -21886970.910 8 -16895573.498 9  22288154.736 9  22288153.768 9
  23109894.721 8 -52949087.326 8 -38852130.700 7  23109895.595 7  23109892.679 7
  24177163.842 7  -5536097.953 7  -4213721.085 7  24177164.642 7  24177163.341 7
  20689495.872 9 -50514337.729 9 -39239861.387 9  20689496.347 9  20689494.784 9
  21500472.095 9 -36962041.852 9 -27174561.441 9  21500471.646 9  21500471.336 9
  22386351.100 8 -57600742.788 8 -43668130.401 9  22386350.106 9  22386349.929 9
  21941570.003 9 -41847099.827 9 -32176286.134 9  21941569.298 9  21941568.749 9
  20224381.813 9 -50339844.327 9 -38173619.353 9  20224382.353 9  20224380.360 9
  20235757.042 9 -41949511.541 9 -32397346.454 9  20235758.016 9  20235755.661 9
 10  3 18  5  0 47.0000000  0  9G19G24G07G16G22G21G18G06G03
  22287278.147 8 -21891586.843 8 -16899170.329 9  22287276.335 9  22287275.430 9
  23110071.213 8 -52948160.467 8 -38851408.471 7  23110071.948 7  23110069.087 7
  24176599.385 7  -5539062.573 7  -4216031.179 7  24176600.494 7  24176599.167 7
  20689412.866 9 -50514774.103 9 -39240201.419 9  20689413.280 9  20689411.726 9
  21499687.975 9 -36966163.023 9 -27177772.743 9  21499687.378 9  21499687.101 9
  22386392.995 8 -57600522.369 8 -43667958.647 9  22386392.075 9  22386391.898 9
  21941184.189 9 -41849127.893 9 -32177866.444 9  21941183.359 9  21941182.825 9
  20223795.978 9 -50342922.818 9 -38176018.177 9  20223796.544 9  20223794.592 9
  20235039.716 9 -41953281.208 9 -32400283.857 9  20235040.710 9  20235038.340 9
 10  3 18  5  0 48.0000000  0  9G19G24G07G16G22G21G18G06G03
  22286399.946 8 -21896202.579 8 -16902767.006 9  22286397.967 9  22286397.135 9
  23110247.601 8 -52947233.492 8 -38850686.150 7  23110248.331 7  23110245.520 7
  24176035.540 7  -5542026.527 7  -4218340.754 7  24176036.451 7  24176035.114 7
  20689329.978 9 -50515209.911 9 -39240541.010 9  20689330.330 9  20689328.789 9
  21498903.971 9 -36970283.659 9 -27180983.628 9  21498903.195 9  21498902.976 9
  22386435.052 8 -57600301.705 8 -43667786.701 9  22386434.089 9  22386433.874 9
  21940798.217 9 -41851155.319 9 -32179446.255 9  21940797.541 9  21940797.024 9
  20223210.314 9 -50346000.975 9 -38178416.741 9  20223210.820 9  20223208.870 9
  20234322.349 9 -41957050.495 9 -32403220.963 9  20234323.528 9  20234321.073 9
 10  3 18  5  0 49.0000000  0  9G19G24G07G16G22G21G18G06G03
  22285521.636 8 -21900818.164 8 -16906363.564 9  22285519.623 9  22285518.865 9
  23110424.036 8 -52946306.386 8 -38849963.729 7  23110424.743 7  23110421.977 7
  24175471.740 7  -5544989.852 7  -4220649.837 7  24175472.502 7  24175471.182 7
  20689247.259 9 -50515645.155 9 -39240880.161 9  20689247.516 9  20689245.987 9
  21498119.969 9 -36974403.761 9 -27184194.097 9  21498119.137 9  21498118.962 9
  22386476.817 8 -57600080.836 8 -43667614.595 9  22386476.144 9  22386475.893 9
  21940412.545 9 -41853182.141 9 -32181025.595 9  21940411.864 9  21940411.325 9
  20222624.672 9 -50349078.831 9 -38180815.070 9  20222625.150 9  20222623.203 9
  20233605.096 9 -41960819.419 9 -32406157.787 9  20233606.402 9  20233603.879 9
 10  3 18  5  0 50.0000000  0  9G19G24G07G16G22G21G18G06G03
  22284643.327 8 -21905433.603 8 -16909960.010 9  22284641.318 9  22284640.607 9
  23110600.395 8 -52945379.197 8 -38849241.244 7  23110601.138 7  23110598.477 7
  24174907.805 7  -5547952.573 7  -4222958.450 7  24174908.677 7  24174907.369 7
  20689164.750 9 -50516079.882 9 -39241218.910 9  20689164.802 9  20689163.270 9
  21497336.020 9 -36978523.380 9 -27187404.188 9  21497335.196 9  21497335.050 9
  22386518.964 8 -57599859.799 8 -43667442.360 9  22386518.219 9  22386517.977 9
  21940026.936 9 -41855208.371 9 -32182604.475 9  21940026.306 9  21940025.739 9
  20222039.008 9 -50352156.404 9 -38183213.179 9  20222039.500 9  20222037.568 9
  20232887.973 9 -41964588.003 9 -32409094.346 9  20232889.260 9  20232886.750 9
 10  3 18  5  0 51.0000000  0  9G19G24G07G16G22G21G18G06G03
  22283764.920 8 -21910048.825 8 -16913556.287 9  22283763.059 9  22283762.382 9
  23110776.826 8 -52944451.817 8 -38848518.608 7  23110777.560 7  23110775.013 7
  24174344.115 7  -5550914.606 7  -4225266.526 7  24174345.013 7  24174343.699 7
  20689082.245 9 -50516514.003 9 -39241557.186 9  20689082.204 9  20689080.646 9
  21496552.287 9 -36982642.441 9 -27190613.846 9  21496551.361 9  21496551.247 9
  22386561.136 8 -57599638.484 8 -43667269.906 9  22386560.347 9  22386560.112 9
  21939641.479 9 -41857233.948 9 -32184182.845 9  21939640.843 9  21939640.235 9
  20221453.360 9 -50355233.611 9 -38185611.002 9  20221453.921 9  20221452.003 9
  20232170.862 9 -41968356.197 9 -32412030.601 9  20232172.184 9  20232169.697 9
 10  3 18  5  0 52.0000000  0  9G19G24G07G16G22G21G18G06G03
  22282886.715 8 -21914663.951 8 -16917152.488 9  22282884.802 9  22282884.125 9
  23110953.424 8 -52943524.385 8 -38847795.932 7  23110953.997 7  23110951.517 7
  24173780.513 7  -5553876.073 7  -4227574.165 7  24173781.453 7  24173780.165 7
  20688999.786 9 -50516947.632 9 -39241895.079 9  20688999.690 9  20688998.125 9
  21495768.490 9 -36986761.023 9 -27193823.130 9  21495767.611 9  21495767.534 9
  22386603.410 8 -57599417.027 8 -43667097.343 9  22386602.516 9  22386602.244 9
  21939255.897 9 -41859258.983 9 -32185760.794 9  21939255.477 9  21939254.829 9
  20220867.760 9 -50358310.576 9 -38188008.637 9  20220868.444 9  20220866.463 9
  20231453.709 9 -41972124.072 9 -32414966.606 9  20231455.114 9  20231452.700 9
 10  3 18  5  0 53.0000000  0  9G19G24G07G16G22G21G18G06G03
  22282008.561 8 -21919278.861 8 -16920748.521 9  22282006.577 9  22282005.890 9
  23111129.928 8 -52942596.785 8 -38847073.125 7  23111130.464 7  23111128.045 7
  24173217.347 7  -5556836.827 7  -4229881.246 7  24173218.017 7  24173216.803 7
  20688917.490 9 -50517380.651 9 -39242232.497 9  20688917.266 9  20688915.722 9
  21494984.844 9 -36990879.030 9 -27197031.966 9  21494983.999 9  21494983.919 9
  22386645.708 8 -57599195.314 8 -43666924.580 9  22386644.734 9  22386644.424 9
  21938870.367 9 -41861283.342 9 -32187338.215 9  21938870.264 9  21938869.593 9
  20220282.379 9 -50361387.172 9 -38190405.985 9  20220283.040 9  20220281.000 9
  20230736.754 9 -41975891.540 9 -32417902.295 9  20230738.136 9  20230735.773 9
 10  3 18  5  0 54.0000000  0  9G19G24G07G16G22G21G18G06G03
  22281130.429 8 -21923893.583 8 -16924344.408 9  22281128.421 9  22281127.742 9
  23111306.550 8 -52941669.051 8 -38846350.215 7  23111306.949 7  23111304.623 7
  24172653.974 7  -5559796.960 7  -4232187.842 7  24172654.707 7  24172653.561 7
  20688835.209 9 -50517813.108 9 -39242569.476 9  20688834.977 9  20688833.433 9
  21494201.235 9 -36994996.499 9 -27200240.384 9  21494200.521 9  21494200.403 9
  22386687.868 8 -57598973.370 8 -43666751.636 9  22386686.966 9  22386686.684 9
  21938485.310 9 -41863307.079 9 -32188915.152 9  21938485.172 9  21938484.478 9
  20219696.872 9 -50364463.450 9 -38192803.084 9  20219697.601 9  20219695.677 9
  20230019.909 9 -41979658.632 9 -32420837.691 9  20230021.302 9  20230018.896 9
 10  3 18  5  0 55.0000000  0  9G19G24G07G16G22G21G18G06G03
  22280252.197 8 -21928508.197 8 -16927940.211 9  22280250.295 9  22280249.628 9
  23111483.365 8 -52940741.220 8 -38845627.228 7  23111483.451 7  23111481.221 7
  24172090.845 7  -5562756.500 7  -4234493.975 7  24172091.517 7  24172090.426 7
  20688752.818 9 -50518245.044 9 -39242906.050 9  20688752.841 9  20688751.250 9
  21493417.675 9 -36999113.491 9 -27203448.429 9  21493417.104 9  21493416.957 9
  22386730.156 8 -57598751.266 8 -43666578.568 9  22386729.226 9  22386728.972 9
  21938100.252 9 -41865330.247 9 -32190491.646 9  21938100.162 9  21938099.491 9
  20219111.458 9 -50367539.450 9 -38195199.967 9  20219112.217 9  20219110.406 9
  20229303.193 9 -41983425.399 9 -32423772.833 9  20229304.535 9  20229302.097 9
 10  3 18  5  0 56.0000000  0  9G19G24G07G16G22G21G18G06G03
  22279374.180 8 -21933122.652 8 -16931535.890 9  22279372.192 9  22279371.570 9
  23111659.948 8 -52939813.299 8 -38844904.171 7  23111660.043 7  23111657.826 7
  24171527.755 7  -5565715.433 7  -4236799.634 7  24171528.462 7  24171527.389 7
  20688670.687 9 -50518676.452 9 -39243242.212 9  20688670.786 9  20688669.154 9
  21492634.360 9 -37003229.976 9 -27206656.080 9  21492633.764 9  21492633.598 9
  22386772.467 8 -57598528.971 8 -43666405.350 9  22386771.561 9  22386771.274 9
  21937715.377 9 -41867352.822 9 -32192067.677 9  21937715.262 9  21937714.618 9
  20218526.246 9 -50370615.169 9 -38197596.631 9  20218526.925 9  20218525.149 9
  20228586.631 9 -41987191.836 9 -32426707.719 9  20228587.853 9  20228585.406 9
 10  3 18  5  0 57.0000000  0  9G19G24G07G16G22G21G18G06G03
  22278495.980 8 -21937736.907 8 -16935131.413 9  22278494.123 9  22278493.561 9
  23111836.542 8 -52938885.206 8 -38844180.981 7  23111836.677 7  23111834.458 7
  24170964.900 7  -5568673.645 7  -4239104.732 7  24170965.571 7  24170964.459 7
  20688588.751 9 -50519107.263 9 -39243577.909 9  20688588.818 9  20688587.156 9
  21491851.360 9 -37007345.897 9 -27209863.291 9  21491850.546 9  21491850.362 9
  22386814.757 8 -57598306.409 8 -43666231.925 9  22386813.949 9  22386813.625 9
  21937330.541 9 -41869374.752 9 -32193643.207 9  21937330.541 9  21937329.847 9
  20217940.923 9 -50373690.528 9 -38199993.015 9  20217941.703 9  20217939.961 9
  20227870.049 9 -41990957.850 9 -32429642.274 9  20227871.248 9  20227868.793 9
 10  3 18  5  0 58.0000000  0  9G19G24G07G16G22G21G18G06G03
  22277617.864 8 -21942351.011 8 -16938726.818 9  22277616.087 9  22277615.524 9
  23112012.883 8 -52937957.020 8 -38843457.719 7  23112013.306 7  23112011.148 7
  24170401.828 7  -5571631.298 7  -4241409.395 7  24170402.776 7  24170401.612 7
  20688506.758 9 -50519537.540 9 -39243913.190 9  20688506.949 9  20688505.257 9
  21491068.306 9 -37011461.308 9 -27213070.105 9  21491067.436 9  21491067.232 9
  22386857.097 8 -57598083.670 8 -43666058.364 9  22386856.368 9  22386855.969 9
  21936945.881 9 -41871396.062 9 -32195218.253 9  21936945.948 9  21936945.196 9
  20217355.840 9 -50376765.577 9 -38202389.157 9  20217356.541 9  20217354.845 9
  20227153.468 9 -41994723.520 9 -32432576.562 9  20227154.671 9  20227152.215 9
 10  3 18  5  0 59.0000000  0  9G19G24G07G16G22G21G18G06G03
  22276739.761 8 -21946964.964 8 -16942322.106 9  22276738.086 9  22276737.497 9
  23112188.973 8 -52937028.715 8 -38842734.363 7  23112189.949 7  23112187.865 7
  24169839.129 7  -5574588.295 7  -4243713.548 7  24169840.084 7  24169838.848 7
  20688424.869 9 -50519967.273 9 -39244248.047 9  20688425.183 9  20688423.462 9
  21490285.335 9 -37015576.220 9 -27216276.529 9  21490284.397 9  21490284.228 9
  22386899.575 8 -57597860.734 8 -43665884.647 9  22386898.827 9  22386898.352 9
  21936561.376 8 -41873416.785 8 -32196792.841 9  21936561.436 9  21936560.658 9
  20216770.882 9 -50379840.349 9 -38204785.083 9  20216771.433 9  20216769.776 9
  20226436.970 9 -41998488.846 9 -32435510.582 9  20226438.163 9  20226435.711 9
 10  3 18  5  1  0.0000000  0  9G19G24G07G16G22G21G18G06G03
  22275861.802 8 -21951578.742 8 -16945917.257 9  22275860.114 9  22275859.530 9
  23112365.596 8 -52936100.289 8 -38842010.913 7  23112366.623 7  23112364.565 7
  24169276.550 7  -5577544.682 7  -4246017.225 7  24169277.514 7  24169276.229 7
  20688343.135 9 -50520396.456 9 -39244582.475 9  20688343.524 9  20688341.768 9
  21489502.615 9 -37019690.595 9 -27219482.536 9  21489501.434 9  21489501.351 9
  22386942.013 8 -57597637.589 8 -43665710.769 9  22386941.337 9  22386940.763 9
  21936177.004 9 -41875436.906 9 -32198366.961 9  21936177.034 9  21936176.236 9
  20216185.937 9 -50382914.799 9 -38207180.758 9  20216186.374 9  20216184.691 9
  20225720.550 9 -42002253.800 9 -32438444.312 9  20225721.727 9  20225719.291 9
 10  3 18  5  1  1.0000000  0  9G19G24G07G16G22G21G18G06G03
  22274983.914 8 -21956192.416 8 -16949512.326 9  22274982.169 9  22274981.599 9
  23112542.103 8 -52935171.784 8 -38841287.401 7  23112543.307 7  23112541.270 7
  24168713.901 7  -5580500.449 7  -4248320.420 7  24168715.068 7  24168713.765 7
  20688261.527 9 -50520825.118 9 -39244916.498 9  20688261.979 9  20688260.172 9
  21488719.732 9 -37023804.495 9 -27222688.172 9  21488718.567 9  21488718.544 9
  22386984.494 8 -57597414.270 8 -43665536.754 9  22386983.886 9  22386983.213 9
  21935792.610 8 -41877456.454 8 -32199940.634 9  21935792.693 9  21935791.856 9
  20215600.932 9 -50385988.975 9 -38209576.220 9  20215601.371 9  20215599.666 9
  20225004.208 9 -42006018.438 9 -32441377.796 9  20225005.349 9  20225002.929 9
 10  3 18  5  1  2.0000000  0  9G19G24G07G16G22G21G18G06G03
  22274105.822 8 -21960805.928 8 -16953107.270 9  22274104.247 9  22274103.692 9
  23112718.865 8 -52934243.141 8 -38840563.782 7  23112720.034 7  23112717.981 7
  24168151.578 7  -5583455.611 7  -4250623.142 7  24168152.722 7  24168151.419 7
  20688180.003 9 -50521253.230 9 -39245250.091 9  20688180.520 9  20688178.703 9
  21487937.138 9 -37027917.875 9 -27225893.402 9  21487935.793 9  21487935.804 9
  22387026.918 8 -57597190.748 8 -43665362.582 9  22387026.387 9  22387025.707 9
  21935408.283 9 -41879475.391 9 -32201513.831 9  21935408.463 9  21935407.589 9
  20215015.957 9 -50389062.857 9 -38211971.453 9  20215016.445 9  20215014.756 9
  20224287.925 9 -42009782.707 9 -32444310.992 9  20224289.008 9  20224286.610 9
 10  3 18  5  1  3.0000000  0  9G19G24G07G16G22G21G18G06G03
  22273228.164 8 -21965419.236 8 -16956702.055 9  22273226.361 9  22273225.824 9
  23112895.692 8 -52933314.376 8 -38839840.066 7  23112896.788 7  23112894.713 7
  24167589.275 7  -5586410.111 7  -4252925.347 7  24167590.465 7  24167589.194 7
  20688098.728 9 -50521680.760 9 -39245583.232 9  20688099.134 9  20688097.372 9
  21487154.483 9 -37032030.701 9 -27229098.201 9  21487153.151 9  21487153.174 9
  22387069.383 8 -57596966.994 8 -43665188.228 9  22387068.930 9  22387068.244 9
  21935024.247 8 -41881493.698 8 -32203086.537 9  21935024.400 9  21935023.488 9
  20214431.110 9 -50392136.387 9 -38214366.410 9  20214431.587 9  20214429.909 9
  20223571.865 9 -42013546.583 9 -32447243.882 9  20223572.754 9  20223570.370 9
 10  3 18  5  1  4.0000000  0  9G19G24G07G16G22G21G18G06G03
  22272350.511 8 -21970032.385 8 -16960296.715 9  22272348.511 9  22272347.971 9
  23113072.598 8 -52932385.473 8 -38839116.244 7  23113073.571 7  23113071.475 7
  24167027.330 7  -5589363.970 7  -4255227.053 7  24167028.360 7  24167027.090 7
  20688017.516 9 -50522107.748 9 -39245915.949 9  20688017.876 9  20688016.136 9
  21486371.795 9 -37036143.009 9 -27232302.597 9  21486370.621 9  21486370.635 9
  22387111.969 8 -57596743.038 8 -43665013.717 9  22387111.536 9  22387110.873 9
  21934640.504 9 -41883511.384 9 -32204658.759 9  21934640.465 9  21934639.513 9
  20213846.080 9 -50395209.625 9 -38216761.142 9  20213846.787 9  20213845.020 9
  20222855.676 9 -42017310.116 9 -32450176.504 9  20222856.605 9  20222854.202 9
 10  3 18  5  1  5.0000000  0  9G19G24G07G16G22G21G18G06G03
  22271472.641 8 -21974645.415 8 -16963891.284 9  22271470.686 9  22271470.134 9
  23113249.723 8 -52931456.512 8 -38838392.378 7  23113250.369 7  23113248.252 7
  24166465.335 7  -5592317.233 7  -4257528.294 7  24166466.423 7  24166465.098 7
  20687936.389 9 -50522534.212 9 -39246248.258 9  20687936.751 9  20687934.979 9
  21485589.431 9 -37040254.847 9 -27235506.626 9  21485588.187 9  21485588.194 9
  22387154.474 8 -57596518.919 8 -43664839.078 9  22387154.172 9  22387153.532 9
  21934256.905 9 -41885528.499 9 -32206230.536 9  21934256.610 9  21934255.651 9
  20213261.212 9 -50398282.584 9 -38219155.655 9  20213262.047 9  20213260.192 9
  20222139.449 9 -42021073.323 9 -32453108.873 9  20222140.505 9  20222138.086 9
 10  3 18  5  1  6.0000000  0  9G19G24G07G16G22G21G18G06G03
  22270594.582 8 -21979258.316 8 -16967485.751 9  22270592.869 9  22270592.310 9
  23113426.430 8 -52930527.413 8 -38837668.403 7  23113427.200 7  23113425.052 7
  24165903.884 7  -5595269.881 7  -4259829.058 7  24165904.591 7  24165903.214 7
  20687855.415 9 -50522960.141 9 -39246580.151 9  20687855.709 9  20687853.912 9
  21484807.048 9 -37044366.197 9 -27238710.276 9  21484805.849 9  21484805.851 9
  22387197.244 8 -57596294.598 8 -43664664.284 9  22387196.850 9  22387196.234 9
  21933873.195 9 -41887545.026 9 -32207801.855 9  21933872.856 9  21933871.893 9
  20212676.408 9 -50401355.248 9 -38221549.937 9  20212677.382 9  20212675.447 9
  20221423.213 9 -42024836.193 9 -32456040.980 9  20221424.403 9  20221422.003 9
 10  3 18  5  1  7.0000000  0  9G19G24G07G16G22G21G18G06G03
  22269716.610 8 -21983871.070 8 -16971080.105 9  22269715.072 9  22269714.509 9
  23113603.147 8 -52929598.245 8 -38836944.374 7  23113604.046 7  23113601.867 7
  24165341.987 7  -5598221.964 7  -4262129.380 7  24165342.847 7  24165341.433 7
  20687774.494 9 -50523385.548 9 -39246911.637 9  20687774.718 9  20687772.921 9
  21484024.821 9 -37048477.048 9 -27241913.535 9  21484023.602 9  21484023.616 9
  22387240.073 8 -57596070.114 8 -43664489.362 9  22387239.552 9  22387238.960 9
  21933489.616 9 -41889560.978 9 -32209372.727 9  21933489.279 9  21933488.232 9
  20212091.768 9 -50404427.638 9 -38223944.007 9  20212092.765 9  20212090.751 9
  20220707.149 9 -42028598.723 9 -32458972.821 9  20220708.371 9  20220705.985 9
 10  3 18  5  1  8.0000000  0  9G19G24G07G16G22G21G18G06G03
  22268839.035 8 -21988483.747 8 -16974674.397 9  22268837.303 9  22268836.720 9
  23113779.964 8 -52928669.058 8 -38836220.332 7  23113780.869 7  23113778.692 7
  24164780.393 7  -5601173.469 7  -4264429.254 7  24164781.206 7  24164779.744 7
  20687693.635 9 -50523810.512 9 -39247242.777 9  20687693.838 9  20687692.029 9
  21483242.562 9 -37052587.487 9 -27245116.475 9  21483241.417 9  21483241.459 9
  22387282.909 8 -57595845.530 8 -43664314.361 9  22387282.297 9  22387281.669 9
  21933106.061 8 -41891576.418 8 -32210943.199 9  21933105.806 9  21933104.664 9
  20211507.145 9 -50407499.822 9 -38226337.917 9  20211508.148 9  20211506.121 9
  20219991.197 9 -42032361.008 9 -32461904.470 9  20219992.390 9  20219989.998 9
 10  3 18  5  1  9.0000000  0  9G19G24G07G16G22G21G18G06G03
  22267961.424 8 -21993096.232 8 -16978268.541 9  22267959.580 9  22267958.966 9
  23113956.760 8 -52927739.728 8 -38835496.179 7  23113957.719 7  23113955.550 7
  24164218.954 7  -5604124.334 7  -4266728.629 7  24164219.663 7  24164218.143 7
  20687612.888 9 -50524234.869 9 -39247573.445 9  20687613.121 9  20687611.269 9
  21482460.432 9 -37056697.350 9 -27248318.965 9  21482459.339 9  21482459.439 9
  22387325.598 8 -57595620.684 8 -43664139.155 9  22387325.091 9  22387324.427 9
  21932722.629 8 -41893591.215 8 -32212513.170 9  21932722.428 9  21932721.249 9
  20210922.524 9 -50410571.640 9 -38228731.541 9  20210923.595 9  20210921.559 9
  20219275.474 9 -42036122.883 9 -32464835.801 9  20219276.500 9  20219274.099 9
 10  3 18  5  1 10.0000000  0  9G19G24G07G16G22G21G18G06G03
  22267083.633 8 -21997708.629 8 -16981862.615 9  22267081.899 9  22267081.229 9
  23114133.747 8 -52926810.336 8 -38834771.977 7  23114134.601 7  23114132.416 7
  24163657.722 7  -5607074.648 7  -4269027.574 7  24163658.254 7  24163656.654 7
  20687532.280 9 -50524658.763 9 -39247903.751 9  20687532.477 9  20687530.618 9
  21481678.326 9 -37060806.775 9 -27251521.114 9  21481677.336 9  21481677.521 9
  22387368.498 8 -57595395.726 8 -43663963.862 9  22387367.910 9  22387367.211 9
  21932339.165 8 -41895605.452 8 -32214082.706 9  21932339.152 9  21932337.940 9
  20210338.023 9 -50413643.239 9 -38231124.994 9  20210339.103 9  20210337.058 9
  20218559.698 9 -42039884.465 9 -32467766.903 9  20218560.715 9  20218558.284 9
 10  3 18  5  1 11.0000000  0  9G19G24G07G16G22G21G18G06G03
  22266205.966 8 -22002320.895 8 -16985456.588 9  22266204.257 9  22266203.518 9
  23114310.564 8 -52925880.850 8 -38834047.702 7  23114311.509 7  23114309.304 7
  24163096.629 7  -5610024.347 7  -4271326.039 7  24163097.022 7  24163095.294 7
  20687451.757 9 -50525082.134 9 -39248233.652 9  20687451.908 9  20687450.092 9
  21480896.543 9 -37064915.697 9 -27254722.871 9  21480895.469 9  21480895.684 9
  22387411.247 8 -57595170.593 8 -43663788.434 9  22387410.764 9  22387410.030 9
  21931955.866 8 -41897619.139 8 -32215651.813 9  21931955.965 9  21931954.726 9
  20209753.663 9 -50416714.563 9 -38233518.234 9  20209754.664 9  20209752.609 9
  20217843.951 9 -42043645.729 9 -32470697.757 9  20217844.986 9  20217842.531 9
 10  3 18  5  1 12.0000000  0  9G19G24G07G16G22G21G18G06G03
  22265328.297 8 -22006932.929 8 -16989050.379 9  22265326.634 9  22265325.863 9
  23114487.500 8 -52924951.220 8 -38833323.316 7  23114488.444 7  23114486.219 7
  24162535.093 7  -5612973.353 7  -4273623.964 7  24162535.896 7  24162534.101 7
  20687371.439 9 -50525504.883 9 -39248563.066 9  20687371.445 9  20687369.697 9
  21480114.640 9 -37069024.046 9 -27257924.181 9  21480113.737 9  21480113.933 9
  22387454.089 8 -57594945.185 8 -43663612.791 9  22387453.614 9  22387452.867 9
  21931572.630 8 -41899632.120 8 -32217220.370 9  21931572.911 9  21931571.644 9
  20209169.314 9 -50419785.507 9 -38235911.177 9  20209170.260 9  20209168.213 9
  20217128.314 9 -42047406.560 9 -32473628.274 9  20217129.325 9  20217126.871 9
 10  3 18  5  1 13.0000000  0  9G19G24G07G16G22G21G18G06G03
  22264450.821 8 -22011544.796 8 -16992644.040 9  22264449.024 9  22264448.239 9
  23114664.516 8 -52924021.413 8 -38832598.791 7  23114665.416 7  23114663.170 7
  24161973.909 7  -5615921.721 7  -4275921.392 7  24161974.839 7  24161973.077 7
  20687291.070 9 -50525927.071 9 -39248892.043 9  20687291.061 9  20687289.428 9
  21479333.041 9 -37073131.845 9 -27261125.063 9  21479332.076 9  21479332.305 9
  22387496.979 8 -57594719.556 8 -43663436.976 9  22387496.500 9  22387495.745 9
  21931189.608 8 -41901644.497 8 -32218788.457 9  21931189.957 9  21931188.658 9
  20208585.075 9 -50422856.150 9 -38238303.885 9  20208585.915 9  20208583.876 9
  20216412.742 9 -42051167.020 9 -32476558.502 9  20216413.725 9  20216411.291 9
 10  3 18  5  1 14.0000000  0  9G19G24G07G16G22G21G18G06G03
