     2.10           OBSERVATION DATA    G (GPS)             RINEX VERSION / TYPE
teqc  2004Jan6      UNAVCO Archive Ops  20040107 14:50:57UTCPGM / RUN BY / DATE
Solaris 2.7|Ultra 2|cc SC5.0|=+-|*Sparc                     COMMENT
BIT 2 OF LLI FLAGS DATA COLLECTED UNDER A/S CONDITION       COMMENT
CHPI                                                        MARKER NAME
41609M003                                                   MARKER NUMBER
GGN                 JPL                                     OBSERVER / AGENCY
ZR220014902         ASHTECH UZ-12       CJ12                REC # / TYPE / VERS
CR620004602         ASH701945C_M    NONE                    ANT # / TYPE
  4164613.8847 -4162456.8801 -2445028.8318                  APPROX POSITION XYZ
        0.0792        0.0000        0.0000                  ANTENNA: DELTA H/E/N
     1     1                                                WAVELENGTH FACT L1/2
     5    L1    L2    C1    P2    P1                        # / TYPES OF OBSERV
    30.0000                                                 INTERVAL
RINEX file created by UNAVCO GPS Archive.                   COMMENT
For more information contact archive@unavco.org             COMMENT
Monument ID: 00000000-15666-2001a                           COMMENT
UNAVCO 4-char name:   CHPI                                  COMMENT
4-char name from Log or data file: CHPI                     COMMENT
Visit ID: 69352                                             COMMENT
End of DB comments                                          COMMENT
Version: Version:                                           COMMENT
Project: A__________________________                        COMMENT
 SNR is mapped to RINEX snr flag value [0-9]                COMMENT
  L1 & L2:  2-19 dBHz = 1, 20-27 dBHz = 2, 28-31 dBHz = 3   COMMENT
           32-35 dBHz = 4, 36-38 dBHz = 5, 39-41 dBHz = 6   COMMENT
           42-44 dBHz = 7, 45-48 dBHz = 8, >= 49 dBHz = 9   COMMENT
pseudorange smoothing corrections not applied               COMMENT
  2004     1     1     0     0    0.0000000     GPS         TIME OF FIRST OBS
                                                            END OF HEADER
 04  1  1  0  0  0.0000000  0  8G10G29G 8G27G28G 4G 7G26
  -8143028.44648  -6297003.27846  23687676.5244   23687681.5694   23687675.6744
 -23494347.20049 -18268582.33748  20921181.4914   20921183.4744   20921181.6654
 -17344804.57449 -13469395.41348  21782038.2394   21782039.2444   21782037.6424
  -9134242.98848  -7057945.86146  23654606.3524   23654608.4934   23654606.7694
 -22818213.27149 -17716077.92948  21197752.2804   21197752.6744   21197751.8134
  -1881489.89546  -1445741.81544  25301028.0484   25301036.7844   25301028.4594
 -28971261.79549 -22537153.96049  20164090.3644   20164092.7654   20164090.1484
 -16999308.65449 -13202866.93547  22395352.9894   22395356.2064   22395353.3764
 04  1  1  0  0 30.0000000  0  8G10G29G 8G27G28G 4G 7G26
  -8081683.39448  -6249201.95446  23699351.1874   23699354.5574   23699350.1894
 -23539190.75749 -18303525.35548  20912648.1524   20912649.9164   20912648.3644
 -17329086.69149 -13457147.70548  21785029.2444   21785030.4474   21785028.6794
  -9071627.66548  -7009154.69846  23666522.4274   23666523.2444   23666522.8994
 -22765431.91549 -17674949.58348  21207796.1354   21207796.7784   21207795.9844
  -1935139.68745  -1487546.86544  25290818.8884   25290831.3634   25290821.3414
 -29015145.95649 -22571349.38349  20155739.6044   20155741.3364   20155739.0694
 -17088476.53649 -13272348.36947  22378384.9254   22378387.8734   22378384.8494
 04  1  1  0  1  0.0000000  0  8G10G29G 8G27G28G 4G 7G26
  -8020220.49148  -6201308.79546  23711047.0054   23711051.6644   23711046.6484
 -23583477.28649 -18338034.32948  20904220.8624   20904222.5534   20904221.0094
 -17313207.57849 -13444774.34948  21788050.4454   21788052.0944   21788050.2874
  -9008852.34548  -6960238.87346  23678467.6334   23678469.7134   23678468.8214
 -22712505.91349 -17633708.52448  21217868.0354   21217867.8744   21217867.5744
  -1989059.33855  -1529562.21854  25280558.3704   25280567.3984   25280559.2914
 -29058469.93849 -22605108.30349  20147495.0394   20147497.3204   20147494.8114
 -17177305.38949 -13341565.62847  22361481.5734   22361483.7424   22361482.0684
 04  1  1  0  1 30.0000000  0  8G10G29G 8G27G28G 4G 7G26
  -7958650.28748  -6153332.02346  23722763.0934   23722767.9784   23722762.4684
 -23627212.51249 -18372113.71648  20895897.9394   20895899.9524   20895898.0804
 -17297173.80849 -13432280.50448  21791101.6784   21791103.0914   21791101.3304
  -8945924.31448  -6911204.04846  23690442.7504   23690445.6564   23690443.0684
 -22659444.40049 -17592361.87248  21227964.7654   21227965.1704   21227964.8934
  -2043254.90946  -1571792.59044  25270247.0764   25270254.5874   25270245.2534
 -29101239.88449 -22638435.50549  20139356.3064   20139358.5354   20139356.0814
 -17265799.85749 -13410522.32547  22344641.4664   22344643.7844   22344641.1174
 04  1  1  0  2  0.0000000  0  8G10G29G 8G27G28G 4G 7G26
  -7896972.90048  -6105271.71846  23734499.9724   23734504.0994   23734499.5084
 -23670391.97549 -18405760.04148  20887681.1134   20887682.7184   20887681.2944
 -17280981.19149 -13419662.88048  21794183.0714   21794184.2254   21794182.3194
  -8882840.50148  -6862047.84446  23702447.4504   23702449.7424   23702445.7844
 -22606246.89849 -17550909.25348  21238088.4234   21238088.5334   21238088.2694
  -2097721.62746  -1614234.22144  25259883.2004   25259889.1024   25259881.9824
 -29143451.45649 -22671327.61149  20131323.5214   20131325.9384   20131323.4704
 -17353954.33649 -13479214.09947  22327866.2434   22327869.0824   22327866.8634
 04  1  1  0  2 30.0000000  0  8G10G29G 8G27G28G 4G 7G26
  -7835190.87048  -6057129.90246  23746257.3344   23746261.3364   23746256.6764
 -23713013.13649 -18438971.32148  20879570.3244   20879572.2764   20879570.3574
 -17264627.86449 -13406920.02648  21797295.0544   21797296.2444   21797294.7174
  -8819600.03348  -6812769.55446  23714481.7364   23714483.4864   23714482.1584
 -22552914.71049 -17509351.68948  21248236.8804   21248237.1614   21248236.3714
  -2152457.74446  -1656885.76645  25249466.4634   25249472.0824   25249466.7834
 -29185102.41949 -22703782.88049  20123397.7824   20123399.8304   20123397.5824
 -17441765.08549 -13547638.02547  22311156.5584   22311158.2364   22311156.8284
 04  1  1  0  3  0.0000000  0  8G10G29G 8G27G28G 4G 7G26
  -7773311.09847  -6008911.91746  23758032.8654   23758036.7664   23758031.4574
 -23755077.77149 -18471748.94948  20871565.8344   20871567.2424   20871566.0704
 -17248116.08249 -13394053.69948  21800437.1414   21800438.8664   21800436.9054
  -8756206.17548  -6763371.73146  23726545.2584   23726547.1744   23726544.7094
 -22499452.95349 -17467693.15348  21258410.3484   21258410.7124   21258410.5774
  -2207465.10446  -1699748.70745  25238998.9244   25239006.5054   25239000.2104
 -29226194.66649 -22735802.79049  20115578.1684   20115580.3484   20115577.9194
 -17529232.64749 -13615794.54647  22294512.0054   22294513.9624   22294512.7154
 04  1  1  0  3 30.0000000  0  8G10G29G 8G27G28G 4G 7G26
  -7711328.53347  -5960613.81746  23769826.0044   23769831.8364   23769826.3714
 -23796576.04549 -18504085.25448  20863669.3344   20863670.4824   20863669.1774
 -17231436.76049 -13381056.81648  21803611.2844   21803612.2834   21803610.9244
  -8692650.91647  -6713848.14046  23738638.5414   23738640.9384   23738638.5974
 -22445855.30549 -17425928.74048  21268609.4514   21268609.8564   21268609.0424
  -2262733.51147  -1742815.05245  25228481.1774   25228488.8144   25228480.8304
 -29266718.87549 -22767380.07049  20107866.6674   20107868.6904   20107866.4814
 -17616346.22649 -13683675.23847  22277934.7234   22277936.6254   22277935.0384
 04  1  1  0  4  0.0000000  0  8G10G29G 8G27G28G 4G 7G26
  -7649251.16047  -5912241.85346  23781639.7064   23781643.9024   23781638.7014
 -23837511.39149 -18535982.91948  20855879.3444   20855881.3774   20855879.2354
 -17214593.75349 -13367932.39148  21806816.3404   21806817.6184   21806816.1894
  -8628939.00148  -6664202.49446  23750762.8744   23750764.9194   23750763.7214
 -22392129.01249 -17384064.07448  21278833.5544   21278833.5344   21278833.2484
  -2318266.91247  -1786087.93445  25217913.8914   25217922.9674   25217912.7814
 -29306678.66649 -22798517.54049  20100262.5294   20100264.5284   20100262.1604
 -17703107.90149 -13751281.71847  22261425.0334   22261426.6774   22261424.9854
 04  1  1  0  4 30.0000000  0  8G10G29G 8G27G28G 4G 7G26
  -7587085.41747  -5863801.03946  23793470.4864   23793474.3434   23793469.0724
 -23877885.48249 -18567443.23448  20848196.7064   20848198.0974   20848196.6874
 -17197589.16049 -13354682.05548  21810052.1814   21810053.6684   21810051.7164
  -8565073.43747  -6614437.12846  23762915.7054   23762919.0884   23762915.1984
 -22338278.90749 -17342102.93548  21289080.3884   21289081.0184   21289080.1814
  -2374066.86646  -1829568.47845  25207294.5784   25207302.4284   25207293.9424
 -29346075.92549 -22829216.68449  20092765.5844   20092767.4134   20092765.2444
 -17789518.01349 -13818614.24847  22244980.9624   22244983.6934   22244980.9384
 04  1  1  0  5  0.0000000  0  8G10G29G 8G27G28G 4G 7G26
  -7524830.11148  -5815290.43146  23805316.9514   23805320.9384   23805316.5454
 -23917692.53149 -18598461.70948  20840621.4434   20840623.5004   20840621.5484
 -17180417.67549 -13341301.67648  21813319.6834   21813320.8844   21813319.5334
  -8501049.98447  -6564548.71146  23775099.5074   23775103.7734   23775098.8444
 -22284302.67449 -17300043.51348  21299352.0744   21299352.4904   21299351.6004
  -2430127.35447  -1873252.04345  25196627.5894   25196635.2514   25196626.2434
 -29384904.88049 -22859472.98949  20085376.4334   20085378.6874   20085376.1144
 -17875569.46849 -13885667.31247  22228606.1314   22228608.6154   22228606.1904
 04  1  1  0  5 30.0000000  0  8G10G29G 8G27G28G 4G 7G26
  -7462488.38247  -5766712.47346  23817180.0614   23817183.8994   23817179.7814
 -23956930.95649 -18629037.08348  20833154.4974   20833156.4474   20833154.5194
 -17163078.13749 -13327790.34148  21816619.4744   21816620.4794   21816619.1334
  -8436868.70447  -6514537.34045  23787313.1984   23787314.7794   23787312.2084
 -22230202.39749 -17257887.42948  21309646.6644   21309646.9324   21309646.4104
  -2486446.93747  -1917137.52545  25185909.8964   25185919.3924   25185913.1804
 -29423164.41249 -22889285.59349  20078096.0964   20078097.9714   20078095.6954
 -17961259.79749 -13952438.97347  22212300.1704   22212301.9414   22212299.9884
 04  1  1  0  6  0.0000000  0  8G10G29G 8G27G28G 4G 7G26
  -7400063.16547  -5718069.47046  23829058.2864   23829063.9674   23829058.0384
 -23995599.01649 -18659168.03748  20825796.5134   20825798.2344   20825796.3744
 -17145569.33149 -13314147.10948  21819951.2734   21819952.3164   21819951.3204
  -8372529.30348  -6464402.75646  23799556.1854   23799557.7564   23799556.1104
 -22175979.68449 -17215635.94548  21319965.0794   21319965.3254   21319964.6434
  -2543023.85947  -1961223.53745  25175145.4874   25175152.0314   25175143.9254
 -29460853.03949 -22918653.33749  20070923.8254   20070926.0544   20070923.6324
 -18046585.83749 -14018926.77147  22196062.4974   22196065.1214   22196063.1034
 04  1  1  0  6 30.0000000  0  8G10G29G 8G27G28G 4G 7G26
  -7337557.77048  -5669363.98946  23840953.3224   23840958.1134   23840952.4164
 -24033695.13949 -18688853.31248  20818546.8824   20818548.4314   20818546.9254
 -17127890.02049 -13300371.01048  21823315.4934   21823316.3794   21823314.4674
  -8308031.64947  -6414144.83945  23811829.6794   23811832.3414   23811830.0934
 -22121636.47749 -17173290.57148  21330306.1524   21330306.7354   21330305.8304
  -2599856.40447  -2005508.73444  25164329.3264   25164335.7234   25164329.8764
 -29497969.57049 -22947575.28949  20063860.9194   20063863.0494   20063860.8294
 -18131544.68849 -14085128.45047  22179895.4844   22179897.4164   22179895.8574
 04  1  1  0  7  0.0000000  0  8G10G29G 8G27G28G 4G 7G26
  -7274978.12248  -5620600.64546  23852862.2394   23852866.0704   23852860.9604
 -24071220.84149 -18718094.11348  20811406.2174   20811407.7594   20811405.9664
 -17110041.92449 -13286463.39848  21826712.1284   21826713.3834   21826711.4604
  -8243378.44647  -6363765.74645  23824133.4054   23824134.0294   23824132.3954
 -22067177.41949 -17130854.92448  21340669.6584   21340669.5964   21340669.3664
  -2656945.77847  -2049994.03545  25153466.0574   25153472.8494   25153463.9034
 -29534515.50949 -22976052.62149  20056906.4484   20056908.4944   20056906.2054
 -18216136.36149 -14151044.01348  22163798.7784   22163800.5044   22163798.3534
 04  1  1  0  7 30.0000000  0  8G10G29G 8G27G28G 4G 7G26
  -7212323.79048  -5571779.11146  23864784.4244   23864788.4334   23864783.4104
 -24108170.99249 -18746886.43249  20804374.6704   20804376.5404   20804374.4784
 -17092020.56049 -13272420.76848  21830141.2384   21830142.1304   21830141.0214
  -8178566.20447  -6313262.70145  23836466.5144   23836467.6514   23836466.0184
 -22012601.02549 -17088327.84748  21351055.1714   21351054.8744   21351054.6054
  -2714286.89347  -2094675.47044  25142554.9524   25142561.8364   25142555.5724
 -29570486.17949 -23004081.69649  20050061.2874   20050063.4044   20050061.1014
 -18300354.58649 -14216668.57647  22147772.3294   22147774.3354   22147772.1134
 04  1  1  0  8  0.0000000  0  8G10G29G 8G27G28G 4G 7G26
  -7149600.45248  -5522903.79046  23876720.6344   23876724.9414   23876718.7734
 -24144547.16149 -18775231.48749  20797452.1844   20797454.1604   20797452.3724
 -17073827.61149 -13258244.44348  21833603.1974   21833604.0894   21833602.7984
  -8113597.56147  -6262637.77545  23848829.6764   23848830.9694   23848830.1834
 -21957911.91649 -17045712.94148  21361461.9304   21361462.5454   21361462.0594
  -2771880.71847  -2139553.78645  25131593.7424   25131601.1904   25131594.1514
 -29605883.24049 -23031663.80449  20043325.6574   20043327.6194   20043325.4034
 -18384199.39549 -14282002.17248  22131817.3214   22131818.5064   22131817.1924
 04  1  1  0  8 30.0000000  0  8G10G29G 8G27G28G 4G 7G26
  -7086806.52448  -5473973.49646  23888670.5394   23888674.4084   23888670.1314
 -24180342.68949 -18803124.09749  20790640.7104   20790642.7004   20790640.8354
 -17055456.87849 -13243929.58648  21837099.1814   21837100.1714   21837098.4474
  -8048467.66047  -6211887.20945  23861223.3294   23861226.1344   23861222.2284
 -21903107.00149 -17003007.80248  21371890.9954   21371890.9824   21371890.8534
  -2829720.87946  -2184624.03645  25120587.4674   25120597.0654   25120587.6574
 -29640700.60449 -23058794.19649  20036700.0854   20036701.9524   20036699.8684
 -18467663.14949 -14347038.83648  22115934.4434   22115936.4104   22115935.2034
 04  1  1  0  9  0.0000000  0  8G10G29G 8G27G28G 4G 7G26
  -7023948.51448  -5424993.24446  23900631.3814   23900635.3204   23900630.8424
 -24215560.14649 -18830566.25849  20783939.2784   20783940.4644   20783939.2244
 -17036911.01349 -13229478.25448  21840628.2604   21840629.7224   21840627.5724
  -7983179.86347  -6161013.60545  23873647.0424   23873648.9384   23873646.1074
 -21848191.58049 -16960216.55048  21382341.1704   21382341.0504   21382340.8114
  -2887809.00047  -2229887.46444  25109533.9854   25109539.4644   25109533.5294
 -29674940.65849 -23085474.74049  20030184.3964   20030186.5434   20030184.0914
 -18550746.47149 -14411779.06048  22100123.8784   22100126.0164   22100124.0154
 04  1  1  0  9 30.0000000  0  8G10G29G 8G27G28G 4G 7G26
  -6961029.94748  -5375965.79446  23912604.4124   23912608.6534   23912604.1784
 -24250198.00149 -18857556.79049  20777348.0154   20777349.4254   20777347.9204
 -17018188.95549 -13214889.62748  21844190.9074   21844191.5834   21844190.1434
  -7917734.41647  -6110017.14745  23886100.9604   23886102.1154   23886100.4054
 -21793167.68649 -16917340.77148  21392811.8694   21392811.7164   21392811.4184
  -2946143.77247  -2275343.05444  25098432.4964   25098437.5904   25098431.9204
 -29708602.56749 -23111704.78149  20023778.7504   20023780.7904   20023778.5004
 -18633446.87449 -14476220.91048  22084386.4804   22084389.6274   22084386.8064
 04  1  1  0 10  0.0000000  0  8G10G29G 8G27G28G 4G 7G26
  -6898053.58548  -5326893.31945  23924588.0644   23924592.7044   23924587.2824
 -24284254.57349 -18884094.37049  20770866.9604   20770868.5844   20770866.9134
 -16999289.18549 -13200162.52648  21847787.2884   21847788.6614   21847787.1694
  -7852130.81147  -6058897.48745  23898584.6924   23898586.4534   23898584.5104
 -21738036.75049 -16874381.59448  21403302.8244   21403303.3764   21403303.1574
  -3004722.79047  -2320988.95544  25087285.9374   25087291.4954   25087287.0244
 -29741684.67449 -23137483.03049  20017483.5844   20017485.4004   20017483.0654
 -18715760.91649 -14540361.70448  22068722.4774   22068724.4724   22068722.6794
 04  1  1  0 10 30.0000000  0  8G10G29G 8G27G28G 4G 7G26
  -6835020.17148  -5277776.38545  23936583.5494   23936587.3114   23936582.7164
 -24317726.32149 -18910176.24149  20764497.3024   20764499.2964   20764497.3564
 -16980208.39149 -13185294.36248  21851418.2384   21851419.3154   21851418.0414
  -7786366.68246  -6007652.71745  23911098.4724   23911101.8194   23911097.4434
 -21682798.11349 -16831338.47948  21413814.7054   21413814.7274   21413814.1214
  -3063542.22447  -2366822.12544  25076092.4394   25076101.3754   25076095.4284
 -29774183.85649 -23162807.04949  20011298.9754   20011301.2014   20011298.5534
 -18797683.74549 -14604197.65148  22053133.1654   22053135.6054   22053133.7694
 04  1  1  0 11  0.0000000  0  8G10G29G 8G27G28G 4G 7G26
  -6771933.89347  -5228618.26045  23948587.6294   23948591.9494   23948588.1344
 -24350613.15349 -18935802.33749  20758239.3514   20758240.7514   20758239.3284
 -16960946.65749 -13170285.21748  21855083.7904   21855085.2654   21855084.0464
  -7720443.37147  -5956283.90445  23923643.8104   23923646.8754   23923644.6844
 -21627454.85949 -16788213.85248  21424345.8964   21424346.1774   21424345.3534
  -3122601.74047  -2412842.31144  25064853.6314   25064861.6134   25064854.8814
 -29806100.22249 -23187676.93249  20005225.4324   20005227.5224   20005225.4124
 -18879213.96849 -14667727.68648  22037619.2094   22037620.6454   22037619.1974
 04  1  1  0 11 30.0000000  0  8G10G29G 8G27G28G 4G 7G26
  -6708800.84347  -5179423.68445  23960601.4034   23960606.4444   23960602.4124
 -24382916.87049 -18960974.05449  20752092.1634   20752093.9184   20752092.2284
 -16941505.90949 -13155136.56948  21858783.1764   21858784.6344   21858783.3074
  -7654363.88847  -5904793.42045  23936218.9364   23936220.3794   23936218.9054
 -21572012.06649 -16745011.66448  21434896.5274   21434896.4314   21434896.0204
  -3181902.56946  -2459050.51444  25053568.1784   25053576.4544   25053566.2804
 -29837435.93849 -23212094.35249  19999262.5444   19999264.4544   19999262.1134
 -18960351.87849 -14730952.01348  22022178.8244   22022180.1864   22022178.9884
 04  1  1  0 12  0.0000000  0  8G10G29G 8G27G28G 4G 7G26
  -6645620.32447  -5130192.12545  23972624.9494   23972628.6924   23972623.9664
 -24414632.53449 -18985687.55449  20746056.9264   20746058.1414   20746056.8284
 -16921881.45649 -13139844.78348  21862517.6304   21862518.7914   21862517.2014
  -7588124.54147  -5853178.36045  23948823.9094   23948825.9124   23948824.0124
 -21516467.59749 -16701730.24748  21445466.0314   21445466.2954   21445465.7194
  -3241439.11447  -2505442.35244  25042238.1824   25042247.3454   25042240.2674
 -29868186.03149 -23236055.44649  19993410.8974   19993412.8684   19993410.8764
 -19041090.87749 -14793865.49648  22006814.9674   22006817.0844   22006814.9574
 04  1  1  0 12 30.0000000  0  8G10G29G 8G27G28G 4G 7G26
  -6582394.77247  -5080925.46545  23984655.7894   23984660.9734   23984657.5344
 -24445758.10449 -19009941.23549  20740134.1604   20740135.8064   20740134.1824
 -16902071.33449 -13124408.31448  21866287.4064   21866288.4494   21866287.0114
  -7521724.62747  -5801438.14645  23961458.7574   23961460.8184   23961458.5784
 -21460822.73149 -16658370.60548  21456054.7784   21456055.1234   21456054.5174
  -3301208.91347  -2552015.91744  25030865.9834   25030873.2104   25030866.0924
 -29898348.98149 -23259559.02349  19987671.0774   19987673.0204   19987670.8664
 -19121427.47949 -14856465.42248  21991527.0944   21991529.4904   21991527.6514
 04  1  1  0 13  0.0000000  0  8G10G29G 8G27G28G 4G 7G26
  -6519128.57747  -5031627.15745  23996694.3614   23996698.5974   23996692.3244
 -24476293.53049 -19033735.06249  20734323.1164   20734324.7524   20734322.7674
 -16882075.53849 -13108827.16548  21870092.1984   21870092.9544   21870091.8264
  -7455165.07847  -5749573.56945  23974125.2704   23974127.8624   23974124.3614
 -21405080.13949 -16614934.80648  21466662.3294   21466662.0924   21466661.8724
  -3361211.42047  -2598770.80545  25019447.2584   25019453.6734   25019449.3924
 -29927924.95849 -23282605.22049  19982043.0944   19982045.1674   19982042.8374
 -19201360.08449 -14918750.54448  21976316.1684   21976318.4624   21976316.8364
 04  1  1  0 13 30.0000000  0  8G10G29G 8G27G28G 4G 7G26
  -6455826.96147  -4982301.24045  24008741.2324   24008745.9864   24008739.7114
 -24506239.94549 -19057069.92349  20728624.7744   20728626.1054   20728624.8744
 -16861895.09649 -13093102.13748  21873932.5524   21873933.5694   21873932.0844
  -7388448.19847  -5697586.41145  23986820.7924   23986822.3404   23986819.8904
 -21349243.71549 -16571425.87948  21477287.9434   21477288.0244   21477287.1204
  -3421447.02847  -2645707.30944  25007984.7934   25007993.1194   25007986.0934
 -29956915.29749 -23305195.07349  19976526.2794   19976528.1834   19976525.9634
 -19280888.26349 -14980720.53548  21961182.6324   21961184.4384   21961182.4714
 04  1  1  0 14  0.0000000  0  8G10G29G 8G27G28G 4G 7G26
  -6392490.70847  -4932948.35945  24020793.3064   24020798.7404   24020792.2304
 -24535594.11249 -19079943.29549  20723038.7004   20723040.2584   20723038.7084
 -16841527.23249 -13077231.06448  21877808.3864   21877809.2654   21877808.6044
  -7321572.10747  -5645475.18046  23999546.7684   23999548.3764   23999546.8484
 -21293313.24649 -16527843.69048  21487930.7374   21487931.6694   21487930.5594
  -3481912.09246  -2692822.54844  24996476.4114   24996486.5994   24996478.5184
 -29985317.18549 -23327326.40149  19971121.4844   19971123.6714   19971121.4044
 -19360007.25449 -15042371.67848  21946126.6994   21946128.8604   21946126.9894
 04  1  1  0 14 30.0000000  0  8G10G29G 8G27G28G 4G 7G26
  -6329122.34047  -4883570.42945  24032852.4344   24032857.3034   24032852.0064
 -24564354.41249 -19102353.91249  20717565.4234   20717567.2474   20717565.7004
 -16820970.06549 -13061212.48648  21881720.3084   21881721.3844   21881719.9994
  -7254536.15847  -5593239.37746  24012303.9964   24012305.1474   24012303.4764
 -21237290.11549 -16484189.29048  21498591.8774   21498592.2664   21498591.5854
  -3542604.10046  -2740114.63945  24984928.3564   24984934.9844   24984928.4384
 -30013129.10149 -23348998.00649  19965829.1004   19965831.2444   19965829.0754
 -19438713.64149 -15103701.31448  21931149.5534   21931151.4664   21931149.7294
 04  1  1  0 15  0.0000000  0  8G10G29G 8G27G28G 4G 7G26
  -6265725.77647  -4834170.55545  24044916.6864   24044921.1024   24044916.4274
 -24592520.36849 -19124301.40449  20712206.0534   20712207.5144   20712206.0164
 -16800223.37449 -13045046.22348  21885668.1994   21885668.9534   21885667.4914
  -7187341.11347  -5540879.60545  24025090.2374   24025091.0874   24025089.4444
 -21181176.50549 -16440464.38748  21509269.8804   21509270.0574   21509269.8124
  -3603522.01346  -2787582.72845  24973334.8554   24973342.7984   24973336.2764
 -30040351.10449 -23370209.94249  19960649.0224   19960650.7594   19960648.6774
 -19517005.73049 -15164708.11648  21916251.1954   21916252.5184   21916251.5004
 04  1  1  0 15 30.0000000  0  8G10G29G 8G27G28G 4G 7G26
  -6202302.42347  -4784749.79645  24056985.2444   24056989.7554   24056984.4324
 -24620089.12649 -19145783.54749  20706959.9314   20706961.3184   20706960.1354
 -16779284.07449 -13028729.88248  21889652.8234   21889654.2054   21889652.4894
  -7119985.23647  -5488394.51245  24037907.2894   24037908.7944   24037906.5024
 -21124972.57049 -16396669.09948  21519965.1344   21519965.5394   21519964.6344
  -3664662.19547  -2835224.02045  24961701.5824   24961708.6014   24961701.5294
 -30066980.55049 -23390960.13649  19955581.6464   19955583.3774   19955581.2644
 -19594878.92449 -15225388.50948  21901431.6404   21901433.9984   21901432.1454
 04  1  1  0 16  0.0000000  0  8G10G29G 8G27G28G 4G 7G26
  -6138856.92747  -4735311.77745  24069057.7274   24069062.9714   24069058.3344
 -24647061.56349 -19166801.02649  20701827.2464   20701828.7054   20701827.0874
 -16758153.18249 -13012264.25348  21893673.9124   21893674.8904   21893673.6394
  -7052470.44348  -5435785.61846  24050755.8054   24050756.8664   24050755.8544
 -21068681.74849 -16352806.11048  21530676.9814   21530677.0124   21530676.3154
  -3726024.66446  -2883038.51545  24950021.8564   24950030.5464   24950021.8654
 -30093018.45149 -23411249.39649  19950626.6024   19950628.5404   19950626.5834
 -19672332.39949 -15285741.84748  21886692.9994   21886695.1844   21886693.0404
 04  1  1  0 16 30.0000000  0  8G10G29G 8G27G28G 4G 7G26
  -6075392.60747  -4685859.08045  24081135.8534   24081139.8844   24081135.6144
 -24673436.75149 -19187353.11649  20696807.8674   20696809.6184   20696808.1194
 -16736829.49549 -12995648.38548  21897731.6594   21897733.1904   21897731.7024
  -6984796.79947  -5383052.89946  24063632.9254   24063634.6834   24063632.9304
 -21012305.70349 -16308876.70348  21541405.1134   21541405.0584   21541404.5574
  -3787607.65046  -2931024.83545  24938303.4814   24938310.4584   24938303.8124
 -30118464.18449 -23431077.21549  19945784.3544   19945786.4554   19945784.0754
 -19749363.53249 -15345766.09248  21872034.6934   21872036.6954   21872035.1014
 04  1  1  0 17  0.0000000  0  8G10G29G 8G27G28G 4G 7G26
  -6011910.57047  -4636392.59345  24093216.8864   24093220.5494   24093215.1404
 -24699211.83449 -19207437.58949  20691903.1364   20691904.8794   20691903.1714
 -16715310.34849 -12978880.21148  21901826.3974   21901827.9944   21901826.4064
  -6916962.66448  -5330195.09346  24076541.8824   24076544.3034   24076542.0384
 -20955844.45149 -16264880.90648  21552148.7944   21552149.4134   21552148.3864
  -3849407.53646  -2979180.13645  24926542.5674   24926551.2264   24926544.2494
 -30143315.32449 -23450441.71649  19941055.4934   19941057.3814   19941055.2154
 -19825967.90449 -15405457.78448  21857457.4934   21857459.8204   21857457.7474
 04  1  1  0 17 30.0000000  0  8G10G29G 8G27G28G 4G 7G26
  -5948416.38747  -4586916.65145  24105298.9274   24105302.8414   24105297.1384
 -24724388.58749 -19227055.83949  20687112.2014   20687113.8774   20687112.4274
 -16693597.04749 -12961960.75248  21905958.4544   21905959.9564   21905958.6634
  -6848970.59048  -5277214.27346  24089480.2294   24089481.9264   24089481.8054
 -20899302.30849 -16220822.09048  21562908.6544   21562908.5484   21562908.4064
  -3911425.14846  -3027505.12545  24914742.4874   24914748.1034   24914743.3414
 -30167573.70149 -23469344.32549  19936439.1404   19936441.4794   19936439.1334
 -19902145.40349 -15464816.85848  21842961.1924   21842962.8504   21842961.6394
 04  1  1  0 18  0.0000000  0  8G10G29G 8G27G28G 4G 7G26
  -5884908.44947  -4537429.96645  24117383.2914   24117388.3234   24117382.5014
 -24748961.34449 -19246203.43249  20682436.1254   20682437.9194   20682436.0894
 -16671683.89849 -12944885.56848  21910128.2314   21910129.5474   21910128.6134
  -6780816.16747  -5224106.94446  24102449.3244   24102451.8684   24102449.3294
 -20842676.34249 -16176697.94748  21573684.1184   21573684.4294   21573683.8874
  -3973653.93946  -3075994.65145  24902898.3664   24902907.2134   24902897.6574
 -30191233.98649 -23487780.88749  19931936.8304   19931938.7584   19931936.5574
 -19977888.83049 -15523837.69348  21828547.7144   21828549.8984   21828547.4954
 04  1  1  0 18 30.0000000  0  8G10G29G 8G27G28G 4G 7G26
  -5821393.03847  -4487937.47245  24129470.1624   24129475.4364   24129469.6784
 -24772932.39749 -19264882.16949  20677874.6994   20677876.6184   20677874.9384
 -16649573.22649 -12927656.47348  21914336.0464   21914336.7874   21914335.6624
  -6712502.64447  -5170875.64246  24115448.1694   24115451.0954   24115448.6864
 -20785971.16249 -16132512.08648  21584474.9094   21584475.5274   21584474.8654
  -4036094.96146  -3124649.56545  24891016.9314   24891022.9944   24891017.7654
 -30214298.85449 -23505753.49049  19927547.6254   19927549.5584   19927547.5084
 -20053198.78049 -15582520.75748  21814216.1134   21814218.6154   21814216.9344
 04  1  1  0 19  0.0000000  0  8G10G29G 8G27G28G 4G 7G26
  -5757874.11047  -4438442.23745  24141556.8454   24141561.8714   24141555.6284
 -24796301.99249 -19283092.23249  20673427.2314   20673429.0834   20673427.4694
 -16627265.06049 -12910273.48048  21918580.8304   21918582.2654   21918580.6094
  -6644031.02648  -5117521.14746  24128478.2374   24128480.6184   24128478.6974
 -20729189.60049 -16088266.70848  21595279.7984   21595280.6844   21595279.5224
  -4098747.83346  -3173469.56945  24879093.3494   24879100.8834   24879093.7064
 -30236768.71849 -23523262.45149  19923271.9994   19923273.8164   19923271.6464
 -20128073.63649 -15640864.77448  21799968.2224   21799970.3174   21799968.4264
 04  1  1  0 19 30.0000000  0  8G10G29G 8G27G28G 4G 7G26
  -5694350.82647  -4388943.63145  24153646.3814   24153650.0184   24153645.6924
 -24819065.40549 -19300829.95249  20669095.7824   20669097.6564   20669095.7904
 -16604754.21849 -12892732.55548  21922864.5754   21922865.6614   21922864.1914
  -6575397.81547  -5064040.71146  24141538.6104   24141541.6224   24141539.4884
 -20672329.60349 -16043960.20248  21606100.4104   21606100.7904   21606100.2424
  -4161606.52646  -3222449.93245  24867132.2334   24867140.0754   24867132.6694
 -30258639.28049 -23540304.42049  19919110.1044   19919111.7604   19919109.8074
 -20202507.07549 -15698864.84748  21785804.4154   21785806.5534   21785804.6164
 04  1  1  0 20  0.0000000  0  8G10G29G 8G27G28G 4G 7G26
  -5630831.48447  -4339448.07545  24165733.3114   24165736.8664   24165732.4724
 -24841227.13149 -19318098.82349  20664878.3074   20664880.3164   20664878.5434
 -16582045.06449 -12875037.10948  21927186.3294   21927186.9194   21927185.6554
  -6506608.28347  -5010438.47446  24154629.6054   24154630.8204   24154628.9914
 -20615397.93849 -15999597.85548  21616933.8444   21616934.0674   21616933.8944
  -4224674.46947  -3271593.37145  24855131.3024   24855137.1614   24855130.6064
 -30279915.19149 -23556883.03349  19915061.0584   19915063.2064   19915061.1234
 -20276501.71449 -15756522.98948  21771723.5724   21771724.8864   21771723.8004
 04  1  1  0 20 30.0000000  0  8G10G29G 8G27G28G 4G 7G26
  -5567314.09647  -4289954.02445  24177819.6254   24177824.4674   24177819.2064
 -24862781.22449 -19334894.21649  20660777.1084   20660778.5484   20660777.1384
 -16559131.56449 -12857182.42548  21931546.1574   21931547.6934   21931545.7184
  -6437657.36747  -4956710.50746  24167750.6574   24167752.5244   24167750.5164
 -20558391.14349 -15955176.96248  21627781.8344   21627782.1854   21627781.9334
  -4287944.68447  -3320894.43145  24843091.4734   24843096.5254   24843090.9194
 -30300590.93549 -23572993.97949  19911126.9154   19911128.9584   19911126.6364
 -20350050.00849 -15813833.33048  21757727.7784   21757729.5494   21757728.0914
 04  1  1  0 21  0.0000000  0  8G10G29G 8G27G28G 4G 7G26
  -5503809.01247  -4240469.58445  24189905.1884   24189908.6204   24189904.1144
 -24883734.16249 -19351221.17949  20656789.9644   20656791.4594   20656789.9614
 -16536020.11349 -12839173.50048  21935944.3884   21935945.1724   21935943.9364
  -6368552.60447  -4902862.65446  24180900.8934   24180903.0034   24180900.5804
 -20501318.30949 -15910704.61448  21638642.4704   21638642.4804   21638642.6594
  -4351422.63147  -3370357.35545  24831011.0194   24831016.6574   24831011.7614
 -30320673.26449 -23588642.52449  19907305.2614   19907306.9384   19907305.0744
 -20423156.51049 -15870799.42048  21743816.3064   21743817.8864   21743816.8254
 04  1  1  0 21 30.0000000  0  8G10G29G 8G27G28G 4G 7G26
  -5440305.31847  -4190986.21945  24201988.6814   24201994.4664   24201988.1814
 -24904071.46249 -19367068.42149  20652919.4904   20652921.2474   20652919.6044
 -16512695.50149 -12820998.47048  21940382.7284   21940383.8744   21940382.2834
  -6299280.20747  -4848884.17346  24194082.4334   24194085.3334   24194082.0934
 -20444167.14749 -15866171.22048  21649517.4224   21649518.7404   21649517.0504
  -4415092.26847  -3419969.67445  24818894.9834   24818900.3024   24818894.4374
 -30340147.85649 -23603817.50849  19903599.1894   19903601.4594   19903598.9524
 -20495804.90849 -15927408.54948  21729991.2184   21729993.1204   21729991.6174
 04  1  1  0 22  0.0000000  0  8G10G29G 8G27G28G 4G 7G26
  -5376817.85048  -4141515.51245  24214071.2614   24214074.7814   24214070.3674
 -24923804.40049 -19382444.72549  20649164.6864   20649165.9544   20649164.4624
 -16489168.99449 -12802666.12848  21944859.7264   21944860.7614   21944859.8834
  -6229852.39947  -4794784.59045  24207293.7114   24207296.7944   24207293.3124
 -20386951.13549 -15821587.31348  21660405.6134   21660405.7514   21660405.5834
  -4478963.82347  -3469739.33145  24806740.5164   24806745.4814   24806739.9804
 -30359026.23549 -23618527.91549  19900006.9764   19900008.7664   19900006.7114
 -20568004.60749 -15983668.04648  21716252.4744   21716254.0704   21716252.4844
 04  1  1  0 22 30.0000000  0  8G10G29G 8G27G28G 4G 7G26
  -5313342.44047  -4092054.16845  24226148.9434   24226154.2454   24226148.8234
 -24942925.18849 -19397344.03449  20645526.1854   20645527.7034   20645526.3204
 -16465432.38249 -12784170.05748  21949376.8854   21949378.2594   21949376.8264
  -6160262.16847  -4740558.46845  24220537.0044   24220538.0354   24220536.6164
 -20329664.65049 -15776948.48148  21671307.0804   21671307.1144   21671306.9064
  -4543028.22647  -3519659.26645  24794548.8784   24794554.4334   24794549.9024
 -30377300.93949 -23632767.92049  19896529.2484   19896531.1874   19896529.1254
 -20639746.01249 -16039570.42548  21702600.2714   21702602.4424   21702600.4804
 04  1  1  0 23  0.0000000  0  8G10G29G 8G27G28G 4G 7G26
  -5249887.51347  -4042608.82945  24238225.4334   24238229.4494   24238224.1764
 -24961438.56049 -19411770.03449  20642003.0424   20642004.4694   20642003.0554
 -16441489.73249 -12765513.44948  21953933.0324   21953934.2544   21953932.8814
  -6090514.99147  -4686210.02245  24233808.9244   24233811.1214   24233808.4004
 -20272314.81849 -15732260.29348  21682220.0714   21682220.5034   21682219.6984
  -4607288.74847  -3569732.05645  24782319.6214   24782326.1414   24782319.9004
 -30394976.95949 -23646541.42149  19893165.8654   19893167.6094   19893165.6554
 -20711031.86049 -16095117.83048  21689035.1824   21689036.7114   21689035.1134
 04  1  1  0 23 30.0000000  0  8G10G29G 8G27G28G 4G 7G26
  -5186453.11147  -3993179.46545  24250295.8244   24250299.2744   24250293.8944
 -24979340.86749 -19425719.88149  20638596.5914   20638597.9814   20638596.5244
 -16417337.32249 -12746693.37948  21958528.9794   21958530.1714   21958528.0794
  -6020608.13147  -4631737.14345  24247112.3344   24247115.5214   24247111.6624
 -20214900.25749 -15687521.67448  21693146.1954   21693146.0464   21693145.7914
  -4671740.64547  -3619953.94945  24770054.9024   24770059.7114   24770054.6504
 -30412051.11749 -23659845.94149  19889916.5374   19889918.7074   19889916.5644
 -20781856.88749 -16150306.14348  21675557.8154   21675559.6154   21675558.1254
 04  1  1  0 24  0.0000000  0  8G10G29G 8G27G28G 4G 7G26
  -5123041.11947  -3943767.54845  24262362.5754   24262367.3504   24262363.2814
 -24996630.85049 -19439192.58949  20635306.0834   20635307.9474   20635306.1144
 -16392973.05749 -12727708.23448  21963165.2084   21963166.5204   21963164.7474
  -5950540.93347  -4577139.34545  24260446.2364   24260447.3724   24260444.8034
 -20157421.67649 -15642733.14948  21704083.5224   21704083.9684   21704083.4914
  -4736380.89447  -3670322.62045  24757754.2184   24757759.7844   24757754.1084
 -30428522.04649 -23672680.40849  19886782.3644   19886783.9084   19886781.7614
 -20852217.63649 -16205132.68948  21662168.1554   21662170.3924   21662168.3054
 04  1  1  0 24 30.0000000  0  8G10G29G 8G27G28G 4G 7G26
  -5059656.01647  -3894376.60545  24274424.3374   24274429.1584   24274425.1614
 -25013309.09949 -19452188.62649  20632132.6294   20632134.1104   20632132.6364
 -16368397.57349 -12708558.51148  21967841.9294   21967843.3634   21967841.2984
  -5880314.98746  -4522417.83245  24273808.9774   24273810.7964   24273809.0114
 -20099881.71449 -15597896.81348  21715033.3934   21715033.2534   21715033.0884
  -4801208.99847  -3720837.65945  24745416.6654   24745423.2994   24745418.1884
 -30444390.98449 -23685045.79849  19883762.2734   19883764.2164   19883761.9984
 -20922112.97749 -16259596.57448  21648867.6504   21648869.7704   21648867.6974
 04  1  1  0 25  0.0000000  0  8G10G29G 8G27G28G 4G 7G26
  -4996300.48747  -3845008.69945  24286480.3504   24286485.0674   24286479.7594
 -25029374.81649 -19464707.36049  20629075.2184   20629076.8874   20629075.1244
 -16343609.42949 -12689243.06748  21972558.7824   21972559.5904   21972558.4434
  -5809930.03847  -4467572.39745  24287203.3064   24287205.4364   24287202.8444
 -20042281.89749 -15553013.83148  21725994.3854   21725994.1894   21725993.8204
  -4866222.58447  -3771497.24045  24733044.0414   24733050.8414   24733045.5854
 -30459657.31949 -23696941.62149  19880857.4054   19880858.9814   19880857.1654
 -20991540.28449 -16313695.75948  21635656.0514   21635657.7494   21635655.9114
 04  1  1  0 25 30.0000000  0  9G10G29G 8G27G28G 4G 7G 9G26
  -4932979.47447  -3795667.67645  24298529.7954   24298534.9714   24298528.1634
 -25044829.70449 -19476750.12449  20626134.3074   20626135.4614   20626134.3694
 -16318609.64949 -12669762.71748  21977316.1194   21977316.6884   21977315.2564
  -5739388.40946  -4412604.91245  24300626.1224   24300627.8594   24300625.7754
 -19984625.80249 -15508086.99648  21736965.5004   21736965.9514   21736965.5294
  -4931421.65947  -3822301.36445  24720638.4294   24720643.3504   24720638.8644
 -30474322.91549 -23708369.34149  19878066.6024   19878068.4374   19878066.5144
  -1098912.23757   -708247.65955  25847689.0854   25847692.7194   25847688.7044
 -21060498.98949 -16367429.80348  21622533.6414   21622535.8294   21622533.4324
 04  1  1  0 26  0.0000000  0  9G10G29G 8G27G28G 4G 7G 9G26
  -4869689.83847  -3746351.13245  24310575.1724   24310578.2724   24310574.2724
 -25059666.97049 -19488311.62849  20623310.7604   20623311.9634   20623310.9994
 -16293391.17549 -12650111.96548  21982114.7914   21982116.2534   21982114.4324
  -5668684.25646  -4357510.79645  24314081.0674   24314084.2864   24314081.8624
 -19926908.68549 -15463112.61348  21747948.9644   21747948.5844   21747948.6474
  -4996798.12847  -3873243.74945  24708198.2854   24708202.7664   24708199.1044
 -30488381.38049 -23719323.97149  19875391.0764   19875393.1654   19875390.8944
  -1174538.41146   -767177.07445  25833297.0934   25833303.8474   25833297.1824
 -21128980.60349 -16420792.08848  21609501.8814   21609504.1954   21609502.3154
 04  1  1  0 26 30.0000000  0  9G10G29G 8G27G28G 4G 7G 9G26
  -4806440.97147  -3697066.32845  24322609.0664   24322615.4994   24322608.5694
 -25073892.69049 -19499396.60449  20620603.7504   20620605.3014   20620603.6414
 -16267959.28849 -12630294.90948  21986954.8024   21986955.7434   21986953.8854
  -5597823.96447  -4302295.00445  24327566.0714   24327567.5144   24327565.4474
 -19869138.65349 -15418096.99448  21758942.2234   21758942.3454   21758942.1744
  -5062356.17347  -3924327.60845  24695721.9204   24695726.2044   24695722.0064
 -30501839.03449 -23729810.43949  19872830.4894   19872832.2694   19872830.0914
  -1250333.15246   -826237.81244  25818873.5984   25818878.6594   25818874.6644
 -21196989.21149 -16473785.79848  21596560.0544   21596562.0454   21596560.2414
 04  1  1  0 27  0.0000000  0  9G10G29G 8G27G28G 4G 7G 9G26
  -4743231.20047  -3647811.98745  24334637.9974   24334643.0664   24334637.7904
 -25087501.98249 -19510001.24049  20618013.9104   20618015.8214   20618014.1034
 -16242309.01749 -12610307.69148  21991836.2824   21991836.3964   21991835.8884
  -5526803.81746  -4246954.63545  24341079.8224   24341081.9154   24341079.2454
 -19811312.84349 -15373037.91148  21769946.1204   21769945.4974   21769945.9664
  -5128089.83747  -3975548.32545  24683212.9774   24683217.3974   24683212.9874
 -30514691.34549 -23739825.20349  19870384.5154   19870386.4224   19870384.2674
  -1326291.91246   -885426.35545  25804419.6024   25804423.9864   25804418.8824
 -21264518.08749 -16526405.69348  21583709.9434   21583712.3644   21583710.1694
 04  1  1  0 27 30.0000000  0  9G10G29G 8G27G28G 4G 7G 9G26
  -4680067.21447  -3598593.34345  24346657.7824   24346664.3264   24346657.3194
 -25100498.50049 -19520128.39449  20615540.7944   20615542.5104   20615540.8724
 -16216442.93549 -12590152.30548  21996758.0354   21996758.8674   21996757.7754
  -5455627.48747  -4191492.58845  24354625.9274   24354626.9984   24354624.9344
 -19753436.39049 -15327939.37448  21780959.1424   21780959.9454   21780959.6064
  -5194000.40047  -4026906.89245  24670669.9144   24670674.0434   24670670.6994
 -30526941.88949 -23749371.05649  19868053.4234   19868055.1254   19868053.2114
  -1402418.35146   -944745.54944  25789932.2424   25789937.8274   25789932.9774
 -21331568.55849 -16578652.79848  21570950.9184   21570952.6044   21570950.8984
 04  1  1  0 28  0.0000000  0  9G10G29G 8G27G28G 4G 7G 9G26
  -4616947.85646  -3549409.47645  24358668.6374   24358672.7644   24358667.3874
 -25112877.47649 -19529774.34549  20613185.1954   20613186.4464   20613185.0584
 -16190356.01949 -12569824.83848  22001722.2664   22001723.3364   22001721.3974
  -5384291.21947  -4135905.91045  24368199.8674   24368201.3164   24368199.6244
 -19695506.69749 -15282799.34748  21791983.1624   21791983.1954   21791982.9774
  -5260081.88047  -4078398.63645  24658096.0214   24658098.9614   24658095.2664
 -30538586.62449 -23758444.85849  19865837.4444   19865839.3944   19865837.1614
  -1478707.78346  -1004191.77844  25775416.0134   25775420.6334   25775414.4814
 -21398134.00349 -16630521.97148  21558283.7404   21558286.0774   21558284.0104
 04  1  1  0 28 30.0000000  0  9G10G29G 8G27G28G 4G 7G 9G26
  -4553878.78746  -3500264.80745  24370670.2434   24370675.0574   24370671.6284
 -25124641.78749 -19538941.33249  20610946.4714   20610948.0314   20610946.5094
 -16164050.19549 -12549326.79848  22006728.2074   22006728.9614   22006728.0234
  -5312798.29147  -4080197.10945  24381804.3604   24381806.6584   24381804.4754
 -19637528.05649 -15237621.18048  21803016.3864   21803016.6784   21803016.0164
  -5326335.15248  -4130024.27245  24645488.9474   24645492.7254   24645488.9154
 -30549628.34549 -23767048.77649  19863736.1344   19863738.1194   19863736.0064
  -1555162.86947  -1063767.07545  25760865.0394   25760871.0184   25760865.8124
 -21464215.24049 -16682013.83648  21545708.9834   21545711.3014   21545709.3084
 04  1  1  0 29  0.0000000  0  9G10G29G 8G27G28G 4G 7G 9G26
  -4490862.10747  -3451160.92145  24382662.8664   24382666.8734   24382662.6324
 -25135789.84349 -19547628.12849  20608824.8824   20608826.5844   20608824.9934
 -16137523.49149 -12528656.63248  22011775.9294   22011777.2664   22011775.7554
  -5241147.63647  -4024365.45445  24395439.7514   24395440.3804   24395438.7064
 -19579501.11049 -15192405.37748  21814058.2384   21814058.2884   21814058.3564
  -5392757.18747  -4181781.43645  24632847.3764   24632851.3484   24632847.9594
 -30560065.96149 -23775181.95949  19861750.0484   19861751.9014   19861749.9484
  -1631782.63446  -1123470.70744  25746286.3384   25746290.0934   25746286.0154
 -21529808.77649 -16733125.67248  21533226.6984   21533229.1164   21533226.9774
 04  1  1  0 29 30.0000000  0  9G10G29G 8G27G28G 4G 7G 9G26
  -4427897.67947  -3402097.75145  24394643.2144   24394650.5364   24394643.4084
 -25146318.42649 -19555832.21649  20606821.4804   20606823.3304   20606821.5824
 -16110771.73949 -12507811.11048  22016866.3474   22016867.1354   22016866.0004
  -5169336.73446  -3968408.91745  24409102.9314   24409106.1804   24409101.9474
 -19521424.30249 -15147150.71148  21825110.3164   21825110.2134   21825110.0394
  -5459342.81347  -4233666.04945  24620176.3174   24620180.3714   24620176.7304
 -30569896.46949 -23782842.06849  19859879.4344   19859880.9594   19859879.2324
  -1708563.23746  -1183299.61644  25731675.1074   25731678.9204   25731675.5754
 -21594909.19849 -16783853.26748  21520838.8554   21520840.3724   21520838.9894
 04  1  1  0 30  0.0000000  0  9G10G29G 8G27G28G 4G 7G 9G26
  -4364990.11147  -3353078.91145  24406615.1494   24406619.5764   24406614.4274
 -25156229.38049 -19563555.03549  20604935.3594   20604937.2154   20604935.3674
 -16083796.19049 -12486791.20448  22021999.8674   22022000.9304   22021999.2574
  -5097367.62647  -3912329.08445  24422799.7054   24422801.2734   24422799.3254
 -19463300.79849 -15101859.65148  21836170.8564   21836170.9524   21836171.2604
  -5526091.68647  -4285677.87245  24607473.6604   24607478.3184   24607473.6014
 -30579121.87949 -23790030.67449  19858123.7124   19858125.2294   19858123.4154
  -1785506.65245  -1243255.46544  25717032.5544   25717036.7124   25717031.6104
 -21659516.17449 -16834196.35448  21508544.4024   21508546.5914   21508544.9294
 04  1  1  0 30 30.0000000  0  9G10G29G 8G27G28G 4G 7G 9G26
  -4302145.59547  -3304109.20945  24418573.7604   24418577.3654   24418573.1694
 -25165525.54549 -19570798.79949  20603166.4434   20603168.0924   20603166.1984
 -16056599.09449 -12465598.65548  22027175.0424   22027175.9594   22027173.9734
  -5025244.01446  -3856128.88645  24436522.5004   24436525.0144   24436522.3474
 -19405135.42649 -15056535.97548  21847238.8614   21847239.0894   21847238.9424
  -5593005.11947  -4337817.95345  24594740.9154   24594745.9084   24594742.0414
 -30587745.45349 -23796750.32149  19856482.8594   19856484.2874   19856482.3774
  -1862615.64345  -1303340.31444  25702359.1134   25702366.7874   25702360.7144
 -21723630.76349 -16884155.76648  21496343.8374   21496346.0564   21496344.1224
 04  1  1  0 31  0.0000000  0  9G10G29G 8G27G28G 4G 7G 9G26
  -4239361.65247  -3255186.68545  24430521.9354   24430526.2984   24430522.3284
 -25174201.49649 -19577559.28049  20601515.4754   20601517.3344   20601515.6054
 -16029174.21849 -12444228.61548  22032394.1634   22032395.0744   22032393.5874
  -4952960.81047  -3799804.34545  24450278.5064   24450280.2974   24450278.1414
 -19346924.25249 -15011176.61348  21858316.0694   21858316.9324   21858315.6104
  -5660075.63747  -4390080.43245  24581977.2144   24581983.3794   24581978.2134
 -30595762.07249 -23802997.01449  19854957.0344   19854959.1334   19854956.7804
  -1939884.36846  -1363549.60444  25687655.4884   25687660.6714   25687654.2824
 -21787245.20049 -16933725.44648  21484238.3384   21484240.3464   21484238.5114
 04  1  1  0 31 30.0000000  0  9G10G29G 8G27G28G 4G 7G 9G26
  -4176646.38047  -3206317.67445  24442455.2874   24442460.2814   24442455.5584
 -25182262.58249 -19583840.64349  20599981.4064   20599983.1544   20599981.2714
 -16001525.97249 -12422684.52648  22037655.5584   22037655.7924   22037655.2024
  -4880523.77947  -3743359.90845  24464062.9284   24464065.0694   24464062.7004
 -19288674.00249 -14965786.80848  21869401.1024   21869401.3284   21869401.2704
  -5727306.47847  -4442467.86945  24569184.6954   24569188.4354   24569183.8194
 -30603177.12549 -23808774.95949  19853546.1114   19853547.9544   19853545.8264
  -2017318.05145  -1423887.45644  25672920.5354   25672923.9354   25672918.3114
 -21850362.70349 -16982907.90648  21472227.4654   21472229.6084   21472227.6954
 04  1  1  0 32  0.0000000  0  9G10G29G 8G27G28G 4G 7G 9G26
  -4113996.59847  -3157499.70445  24454378.0454   24454383.5974   24454377.1224
 -25189702.26049 -19589637.79649  20598565.9904   20598567.7524   20598565.9254
 -15973647.05649 -12400960.69948  22042960.5894   22042961.0294   22042959.9834
  -4807926.73247  -3686790.76345  24477877.7484   24477880.4344   24477876.9754
 -19230379.81049 -14920362.75548  21880493.3574   21880493.6964   21880493.5674
  -5794689.02947  -4494973.52345  24556359.8784   24556365.5444   24556361.2234
 -30609984.42349 -23814079.32949  19852250.6184   19852252.5784   19852250.5434
  -2094910.11546  -1484348.70944  25658154.8014   25658161.8034   25658156.0604
 -21912974.66649 -17031696.43548  21460312.7784   21460315.1104   21460313.2404
 04  1  1  0 32 30.0000000  0  9G10G29G 8G27G28G 4G 7G 9G26
  -4051417.84447  -3108737.10245  24466287.3254   24466292.0914   24466285.1474
 -25196523.33649 -19594952.91449  20597267.6494   20597269.5364   20597267.9384
 -15945539.66849 -12379058.83048  22048308.8934   22048310.0744   22048308.8244
  -4735172.97147  -3630099.53345  24491722.5064   24491724.4254   24491723.6534
 -19172046.12949 -14874907.93448  21891594.3564   21891594.4244   21891594.3144
  -5862224.29847  -4547598.14945  24543508.6254   24543513.4304   24543509.2314
 -30616187.03349 -23818912.50849  19851070.4174   19851072.3554   19851070.1374
  -2172662.99845  -1544935.28744  25643360.2264   25643366.6774   25643358.5854
 -21975081.90849 -17080091.68748  21448494.2864   21448495.8544   21448494.4434
 04  1  1  0 33  0.0000000  0  9G10G29G 8G27G28G 4G 7G 9G26
  -3988913.40847  -3060032.40045  24478179.8134   24478185.2364   24478179.7404
 -25202726.22449 -19599786.33349  20596087.4214   20596088.9044   20596087.5184
 -15917203.14849 -12356978.42048  22053701.0574   22053702.3024   22053700.7474
  -4662263.23947  -3573286.74645  24505596.0364   24505599.6804   24505595.6424
 -19113674.49949 -14829423.54448  21902702.2844   21902702.1244   21902701.9024
  -5929910.42547  -4600340.37345  24530630.0394   24530632.9464   24530629.2974
 -30621785.72249 -23823275.09949  19850005.0744   19850006.9494   19850004.7114
  -2250576.81146  -1605647.18644  25628532.7914   25628538.2454   25628534.7934
 -22036682.55449 -17128092.17948  21436772.0824   21436773.5354   21436772.3464
 04  1  1  0 33 30.0000000  0  9G10G29G 8G27G28G 4G 7G 9G26
  -3926486.07047  -3011387.80545  24490059.9224   24490064.5154   24490059.5914
 -25208310.72349 -19604137.89149  20595024.5214   20595026.2554   20595024.6624
 -15888636.51549 -12334718.70248  22059137.0784   22059138.7444   22059136.2524
  -4589197.67847  -3516352.55345  24519500.9534   24519502.8354   24519501.0724
 -19055266.44549 -14783910.77548  21913816.6724   21913817.3454   21913816.2794
  -5997745.35948  -4653198.53345  24517721.5094   24517725.2344   24517721.4344
 -30626780.46249 -23827167.08749  19849054.5534   19849056.2814   19849054.2604
  -2328650.96146  -1666484.13944  25613676.0214   25613679.8264   25613675.3404
 -22097774.28749 -17175696.12548  21425146.7434   21425148.5094   21425146.9404
 04  1  1  0 34  0.0000000  0  9G10G29G 8G27G28G 4G 7G 9G26
  -3864138.82847  -2962805.62945  24501925.1684   24501930.1694   24501924.2774
 -25213277.14649 -19608007.83649  20594079.9814   20594081.5474   20594079.8874
 -15859839.13549 -12312279.18948  22064617.0704   22064618.0764   22064615.7924
  -4515977.09647  -3459297.57445  24533433.1644   24533435.3234   24533433.1104
 -18996823.57449 -14738370.86448  21924938.3024   21924937.6554   21924938.4974
  -6065726.95548  -4706171.00245  24504783.8774   24504788.8684   24504785.0784
 -30631171.84949 -23830588.92349  19848218.7784   19848220.3834   19848218.8154
  -2406885.57246  -1727446.09044  25598787.9084   25598793.5854   25598787.7254
 -22158355.43149 -17222902.20148  21413618.0544   21413620.1424   21413618.1794
 04  1  1  0 34 30.0000000  0  9G10G29G 8G27G28G 4G 7G 9G26
  -3801873.36947  -2914287.13745  24513773.6124   24513778.9454   24513772.1174
 -25217624.62649 -19611395.47749  20593252.0694   20593254.0414   20593252.4304
 -15830809.30549 -12289658.54848  22070141.7014   22070142.2824   22070141.0024
  -4442600.82947  -3402121.26945  24547396.4314   24547397.4934   24547394.3474
 -18938346.28949 -14692804.13748  21936066.0384   21936066.4004   21936065.5494
  -6133852.24047  -4759255.43045  24491819.8064   24491823.5014   24491819.8754
 -30634959.27649 -23833540.14249  19847497.9724   19847500.0374   19847497.8024
  -2485279.10546  -1788531.86444  25583869.5184   25583875.9744   25583871.5634
 -22218422.61149 -17269707.78548  21402187.7064   21402189.9034   21402187.9294
 04  1  1  0 35  0.0000000  0  9G10G29G 8G27G28G 4G 7G 9G26
  -3739690.78847  -2865833.23345  24525606.0184   24525610.0244   24525604.0424
 -25221351.38949 -19614299.44749  20592543.2504   20592544.6974   20592543.2914
 -15801544.26049 -12266854.61948  22075710.6124   22075711.6974   22075710.1754
  -4369067.40947  -3344822.54145  24561389.7204   24561391.5504   24561389.5064
 -18879833.93349 -14647210.09248  21947200.4014   21947200.0754   21947199.7594
  -6202117.09847  -4812448.59345  24478828.5974   24478833.4164   24478829.5234
 -30638141.28949 -23836019.61249  19846892.8244   19846894.4394   19846892.4434
  -2563829.21546  -1849739.66444  25568922.9694   25568928.6724   25568922.2504
 -22277972.00749 -17316109.90348  21390856.0604   21390858.2404   21390855.9154
 04  1  1  0 35 30.0000000  0  9G10G29G 8G27G28G 4G 7G 9G26
  -3677595.84947  -2817447.62445  24537421.7204   24537426.5634   24537422.0474
 -25224459.52849 -19616721.37049  20591951.7054   20591953.3964   20591951.6284
 -15772045.22349 -12243868.35248  22081324.3604   22081325.2804   22081323.7684
  -4295379.25946  -3287403.20245  24575412.2044   24575413.5724   24575412.9914
 -18821289.92849 -14601591.38248  21958340.6754   21958340.6694   21958340.7564
  -6270521.37947  -4865750.43545  24465811.7994   24465816.4684   24465812.3914
 -30640720.15349 -23838029.09749  19846401.8264   19846403.5464   19846401.6414
  -2642537.65847  -1911070.82344  25553944.9034   25553950.1254   25553943.9804
 -22337003.60849 -17362108.54948  21379622.8924   21379624.5724   21379623.2484
 04  1  1  0 36  0.0000000  0  9G10G29G 8G27G28G 4G 7G 9G26
  -3615579.71047  -2769123.42445  24549223.3014   24549229.2274   24549223.2184
 -25226937.17849 -19618652.00549  20591480.1634   20591481.8584   20591480.2624
 -15742299.20749 -12220689.64048  22086984.9954   22086985.4264   22086984.4834
  -4221524.72047  -3229854.22745  24589466.6994   24589467.2314   24589465.9964
 -18762703.65549 -14555939.73748  21969489.3634   21969490.6904   21969488.7144
  -6339051.16248  -4919150.06245  24452771.4474   24452775.2294   24452770.9244
 -30642684.27449 -23839559.56149  19846028.1714   19846029.6964   19846028.0704
  -2721391.85547  -1972515.60445  25538938.9104   25538945.3864   25538938.8014
 -22395503.22349 -17407692.65548  21368490.2724   21368492.5154   21368490.7914
 04  1  1  0 36 30.0000000  0  9G10G29G 8G27G28G 4G 7G 9G26
  -3553669.57147  -2720881.83745  24561006.5834   24561010.2354   24561005.9124
 -25228809.16949 -19620110.70049  20591123.9884   20591125.8864   20591123.9004
 -15712330.16049 -12197337.12748  22092687.6394   22092688.5764   22092687.1374
  -4147528.73747  -3172195.03145  24603547.5144   24603548.8274   24603547.5394
 -18704101.06549 -14510275.37748  21980641.5434   21980641.9684   21980640.8154
  -6407728.37448  -4972664.58546  24439703.0684   24439706.6154   24439703.5964
 -30644058.69649 -23840630.52549  19845766.4414   19845768.2664   19845766.3144
  -2800416.18047  -2034092.91945  25523902.3564   25523906.4774   25523901.8544
 -22453493.47649 -17452879.86048  21357455.5404   21357457.2364   21357455.5044
 04  1  1  0 37  0.0000000  0  9G10G29G 8G27G28G 4G 7G 9G26
  -3491853.62547  -2672713.64645  24572769.8404   24572773.6474   24572766.7134
 -25230061.16449 -19621086.28349  20590885.7604   20590887.5464   20590885.9304
 -15682122.58549 -12173798.75748  22098435.6134   22098436.9084   22098435.5254
  -4073377.30447  -3114414.70745  24617658.1944   24617660.5314   24617658.3354
 -18645469.11849 -14464588.14448  21991798.2254   21991799.2994   21991798.2684
  -6476536.71648  -5026281.28846  24426609.2174   24426612.2964   24426608.7024
 -30644829.33049 -23841231.00349  19845619.8184   19845621.4104   19845619.8504
  -2879595.56047  -2095791.04945  25508834.3234   25508837.1124   25508834.7054
 -22510957.85849 -17497657.30148  21346520.2074   21346522.3014   21346520.7134
 04  1  1  0 37 30.0000000  0  9G10G29G 8G27G28G 4G 7G 9G26
  -3430133.85847  -2624620.39145  24584514.7364   24584518.0124   24584514.1314
 -25230692.81249 -19621578.47349  20590765.4584   20590767.1974   20590765.4974
 -15651675.15149 -12150073.48148  22104229.5114   22104230.4344   22104228.7554
  -3999070.23947  -3056513.09445  24631798.1854   24631799.2904   24631798.2054
 -18586808.43349 -14418878.51647  22002961.1944   22002961.1644   22002960.4664
  -6545473.15548  -5079997.80746  24413489.6234   24413494.4814   24413489.9104
 -30644996.08249 -23841360.92149  19845588.2224   19845590.0724   19845587.7814
  -2958928.75447  -2157609.03844  25493737.2384   25493742.1394   25493735.7184
 -22567893.61749 -17542022.81848  21335685.9174   21335687.7654   21335685.9854
 04  1  1  0 38  0.0000000  0  9G10G29G 8G27G28G 4G 7G 9G26
  -3368514.27146  -2576605.19745  24596239.0874   24596244.0374   24596236.6824
 -25230705.49649 -19621588.36049  20590763.5114   20590764.3364   20590763.4684
 -15620988.12149 -12126161.50448  22110068.9894   22110069.7834   22110068.3784
  -3924609.10247  -2998491.42145  24645967.4754   24645971.2104   24645968.9124
 -18528121.52649 -14373148.44147  22014128.7464   22014129.2834   22014127.7464
  -6614536.74548  -5133813.41346  24400347.0874   24400351.6314   24400347.4124
 -30644560.63349 -23841021.59649  19845670.8994   19845672.6774   19845670.7384
  -3038416.73847  -2219547.63344  25478611.7764   25478617.1484   25478611.6404
 -22624299.98049 -17585975.82548  21324951.8134   21324953.9074   21324951.9494
 04  1  1  0 38 30.0000000  0  9G10G29G 8G27G28G 4G 7G 9G26
  -3306998.54046  -2528670.93545  24607945.2504   24607950.0254   24607944.5064
 -25230100.19049 -19621116.69349  20590878.3994   20590880.2724   20590878.3134
 -15590061.39349 -12102062.76048  22115954.4424   22115954.8334   22115953.9274
  -3849995.06747  -2940350.61345  24660165.6604   24660169.2914   24660165.4884
 -18469410.24249 -14327399.40047  22025301.1404   22025301.2154   22025300.9184
  -6683725.81248  -5187726.79446  24387180.5044   24387184.5674   24387181.3414
 -30643524.29449 -23840214.04349  19845868.1344   19845869.8114   19845867.8494
  -3118059.66747  -2281606.97344  25463456.3434   25463460.0564   25463455.0884
 -22680175.74349 -17629515.37748  21314319.2544   21314321.4894   21314319.8164
 04  1  1  0 39  0.0000000  0  9G10G29G 8G27G28G 4G 7G 9G26
  -3245586.84646  -2480817.75445  24619630.2704   24619634.6564   24619629.1784
 -25228875.22149 -19620162.17649  20591111.5894   20591113.2804   20591111.4984
 -15558891.97949 -12077774.90248  22121885.7604   22121886.7094   22121886.0134
  -3775226.31747  -2882089.24545  24674394.9274   24674396.0884   24674393.4984
 -18410673.65049 -14281630.63247  22036478.3154   22036478.0014   22036477.4854
  -6753036.06248  -5241734.61246  24373992.1904   24373994.8764   24373991.5774
 -30641885.26949 -23838936.86449  19846180.3844   19846181.6684   19846179.8454
  -3197854.71547  -2343784.82844  25448271.8484   25448275.3824   25448272.3034
 -22735516.72649 -17672638.21648  21303788.2844   21303789.9244   21303788.1434
 04  1  1  0 39 30.0000000  0  9G10G29G 8G27G28G 4G 7G 9G26
  -3184283.97046  -2433049.34245  24631296.0064   24631301.5374   24631294.7974
 -25227032.58149 -19618726.35349  20591462.1574   20591463.8854   20591462.4804
 -15527481.01849 -12053298.83148  22127862.8274   22127864.0884   22127862.8824
  -3700305.12447  -2823709.10545  24688651.1764   24688653.1704   24688650.4884
